Location Name,Latitude,Longitude,Provider,Download Speed,Upload Speed,Download Speed Mbps,Upload Speed Mbps,Minimum Latency,Test Count,Sample Count,User Count
"Quezon City, Metro Manila, Philippines",14.64879,121.05094,PLDT Home Fiber,145963,155678,145.96,155.68,3,104834,26913,39525
"Quezon City, Metro Manila, Philippines",14.64879,121.05094,Converge,187767,180575,187.77,180.58,4,66421,17316,26970
"Quezon City, Metro Manila, Philippines",14.64879,121.05094,Globe,178801,154223,178.80,154.22,5,51325,14866,23034
"Davao City, Davao del Sur, Philippines",7.06475,125.60884,PLDT Home Fiber,99853,94695,99.85,94.70,9,46001,12490,18026
"Manila, Metro Manila, Philippines",14.59951,120.98423,Converge,201029,172074,201.03,172.07,4,41293,10230,17810
"Cebu City, Cebu, Philippines",10.29261,123.90219,PLDT Home Fiber,96711,105871,96.71,105.87,7,38123,8580,12296
"Manila, Metro Manila, Philippines",14.59951,120.98423,PLDT Home Fiber,99507,102006,99.51,102.01,5,32055,8494,12965
"Davao City, Davao del Sur, Philippines",7.06475,125.60884,Globe,123205,111749,123.21,111.75,4,30029,8779,11535
"Quezon City, Metro Manila, Philippines",14.64879,121.05094,PLDT,76092,72526,76.09,72.53,7,29446,8154,11999
"Cebu City, Cebu, Philippines",10.29261,123.90219,Globe,122292,108938,122.29,108.94,6,27195,7630,11093
"Cebu City, Cebu, Philippines",10.29261,123.90219,PLDT,77938,84407,77.94,84.41,8,25762,6201,9195
"Parañaque, Metro Manila, Philippines",14.47929,121.01985,Converge,200745,197181,200.75,197.18,4,24964,6564,10570
"Valenzuela, Metro Manila, Philippines",14.69247,120.96991,Converge,191275,182110,191.28,182.11,4,24676,5646,10059
"Pasig, Metro Manila, Philippines",14.56082,121.0776,PLDT Home Fiber,148278,145605,148.28,145.61,3,21876,6371,9332
"Biñan, Laguna, Philippines",14.31456,121.08316,PLDT,94561,104480,94.56,104.48,9,21594,5693,8825
"Pasig, Metro Manila, Philippines",14.56082,121.0776,Converge,124999,128229,125.00,128.23,4,21411,5850,8328
"Parañaque, Metro Manila, Philippines",14.47929,121.01985,PLDT Home Fiber,143364,116823,143.36,116.82,4,20875,5825,8477
"Calamba, Laguna, Philippines",14.19488,121.15974,Converge,161817,122181,161.82,122.18,6,20733,5487,8964
"Manila, Metro Manila, Philippines",14.59951,120.98423,PLDT,91311,93024,91.31,93.02,5,19825,5236,7552
"Taguig, Metro Manila, Philippines",14.53063,121.05755,Converge,208731,201338,208.73,201.34,4,19798,5143,7980
"Antipolo City, 1870 Rizal, Philippines",14.58584,121.17569,PLDT Home Fiber,123150,129229,123.15,129.23,3,19749,4977,7208
"Cagayan De Oro City, Misamis Oriental, Philippines",8.48029,124.64975,Globe,108302,86547,108.30,86.55,8,19233,4705,6827
"Parañaque, Metro Manila, Philippines",14.47929,121.01985,PLDT,100768,97367,100.77,97.37,5,18739,5597,8468
"Cebu City, Cebu, Philippines",10.29261,123.90219,Converge,193283,192554,193.28,192.55,5,18405,4920,7231
"Davao City, Davao del Sur, Philippines",7.06475,125.60884,Converge,107194,105607,107.19,105.61,3,17974,5076,7412
"Baguio, Benguet, Philippines",16.41297,120.5914,PLDT Home Fiber,94070,94584,94.07,94.58,6,17319,5141,7449
"Caloocan, Metro Manila, Philippines",14.65136,120.99022,PLDT Home Fiber,124975,150159,124.98,150.16,3,16548,4420,6290
"Makati City, Metro Manila, Philippines",14.55474,121.02444,PLDT,67521,64159,67.52,64.16,11,16315,4733,7059
"Marikina, Metro Manila, Philippines",14.63493,121.10195,Converge,183543,172060,183.54,172.06,3,16219,4605,7118
"Bacoor, Cavite, Philippines",14.43122,120.96567,PLDT Home Fiber,102227,122682,102.23,122.68,6,16050,3502,4791
"Pandi, Bulacan, Philippines",14.87572,120.95941,Converge,194528,104990,194.53,104.99,7,15890,4331,6871
"Imus, Cavite, Philippines",14.42764,120.93724,PLDT Home Fiber,127477,138972,127.48,138.97,5,15758,3913,5779
"Taguig, Metro Manila, Philippines",14.53063,121.05755,Globe,172216,148805,172.22,148.81,4,15635,4794,7628
"Iligan City, Lanao del Norte, Philippines",8.22707,124.46418,PLDT Home Fiber,93447,93835,93.45,93.84,6,15334,3754,5375
"Angeles, Pampanga, Philippines",15.16061,120.60908,Converge,117359,119725,117.36,119.73,3,14474,4022,5900
"San Pablo City, Laguna, Philippines",14.06422,121.32326,Converge,146577,152636,146.58,152.64,6,14455,3686,6363
"Cagayan De Oro City, Misamis Oriental, Philippines",8.48029,124.64975,PLDT Home Fiber,94457,94485,94.46,94.49,8,14375,3884,5458
"Cainta, Rizal, Philippines",14.58056,121.11565,PLDT Home Fiber,147207,160020,147.21,160.02,3,13965,3746,5522
"Tanauan City, Batangas, Philippines",14.08354,121.14762,PLDT Home Fiber,105761,104680,105.76,104.68,7,13618,3610,5426
"Capas, Tarlac, Philippines",15.34633,120.59344,Converge,141088,143895,141.09,143.90,3,13536,4048,6401
"Makati City, Metro Manila, Philippines",14.55474,121.02444,PLDT Home Fiber,155347,145422,155.35,145.42,4,13389,3667,5346
"Davao City, Davao del Sur, Philippines",7.06475,125.60884,PLDT,94626,94440,94.63,94.44,9,13114,3898,5623
"Las Piñas, Metro Manila, Philippines",14.44934,120.98186,PLDT Home Fiber,162370,146751,162.37,146.75,4,12802,3190,4365
"Pasay City, Metro Manila, Philippines",14.53767,121.00081,PLDT Home Fiber,151433,113336,151.43,113.34,4,12408,3776,5642
"Taguig, Metro Manila, Philippines",14.53063,121.05755,PLDT Home Fiber,162759,162797,162.76,162.80,4,12285,2978,4038
"General Trias, Cavite, Philippines",14.38159,120.87915,Converge,176763,194780,176.76,194.78,5,12018,3186,5000
"Mexico, Pampanga, Philippines",15.06457,120.72033,Converge,165590,170859,165.59,170.86,3,11820,3599,5408
"Pasig, Metro Manila, Philippines",14.56082,121.0776,Globe,197436,164955,197.44,164.96,5,11254,3018,4329
"Antipolo City, 1870 Rizal, Philippines",14.58584,121.17569,Converge,178754,172143,178.75,172.14,3,10970,2972,4806
"Batangas City, Batangas, Philippines",13.75641,121.05833,Globe,115491,103695,115.49,103.70,10,10836,2908,4654
"Muntinlupa, Metro Manila, Philippines",14.39453,121.04483,PLDT,104581,98772,104.58,98.77,5,10800,2759,3973
"Caloocan, Metro Manila, Philippines",14.65136,120.99022,Converge,180476,188650,180.48,188.65,4,10791,2063,3311
"Iloilo City, Iloilo, Philippines",10.73019,122.55911,Globe,103966,95104,103.97,95.10,9,10549,2698,4200
"Valenzuela, Metro Manila, Philippines",14.69247,120.96991,PLDT Home Fiber,122247,140512,122.25,140.51,3,10448,2935,4173
"Dasmariñas, Cavite, Philippines",14.33385,120.95423,PLDT,94592,104327,94.59,104.33,9,10440,2843,4362
"Dasmariñas, Cavite, Philippines",14.33385,120.95423,PLDT Home Fiber,117717,138641,117.72,138.64,5,10037,2552,3646
"Tarlac City, Tarlac, Philippines",15.48808,120.58719,Converge,102413,97520,102.41,97.52,4,9831,2744,4268
"Makati City, Metro Manila, Philippines",14.55474,121.02444,Converge,179625,172257,179.63,172.26,4,9007,2338,3549
"San Fernando, Pampanga, Philippines",15.02781,120.69349,PLDT Home Fiber,120923,98706,120.92,98.71,8,8488,2341,3366
"Malabon, Metro Manila, Philippines",14.65793,120.95118,PLDT Home Fiber,130172,132953,130.17,132.95,3,8422,2220,3386
"Anao, Tarlac, Philippines",15.7435,120.61424,Globe,159246,130539,159.25,130.54,6,8421,2162,3234
"La Trinidad, Benguet, Philippines",16.44844,120.59047,Converge,98348,105022,98.35,105.02,3,8340,2343,3453
"San Juan City, Metro Manila, Philippines",14.60196,121.0355,PLDT,64448,58724,64.45,58.72,12,8269,2359,3455
"Caloocan, Metro Manila, Philippines",14.65136,120.99022,Globe,181515,154886,181.52,154.89,5,8265,2305,3305
"Bago, Negros Occidental, Philippines",10.53757,122.83609,Converge,148305,138304,148.31,138.30,11,8178,2167,3782
"Bulakan, Bulacan, Philippines",14.79484,120.87889,PLDT Home Fiber,105680,113701,105.68,113.70,6,7975,2220,3388
"Bacolod, Negros Occidental, Philippines",10.66764,122.94556,PLDT Home Fiber,92996,94744,93.00,94.74,11,7861,2015,2817
"Concepcion, Tarlac, Philippines",15.324,120.65596,Converge,104411,112960,104.41,112.96,3,7850,2433,3875
"Iriga City, Camarines Sur, Philippines",13.42095,123.41361,Converge,105188,104990,105.19,104.99,4,7785,1937,3518
"Dasmariñas, Cavite, Philippines",14.33385,120.95423,Globe,157299,138235,157.30,138.24,5,7698,2286,3488
"Magpet, Cotabato, Philippines",7.1332,125.17087,PLDT Home Fiber,115761,96679,115.76,96.68,9,7605,2706,3844
"San Fernando, Pampanga, Philippines",15.02781,120.69349,Converge,96420,98824,96.42,98.82,4,7555,2263,3136
"Taguig, Metro Manila, Philippines",14.53063,121.05755,PLDT,81770,84183,81.77,84.18,7,7482,2159,3078
"Naga City, Camarines Sur, Philippines",13.6475,123.27003,Converge,91872,89201,91.87,89.20,10,7359,1386,2281
"Pasig, Metro Manila, Philippines",14.56082,121.0776,PLDT,67438,67436,67.44,67.44,7,7338,2195,3320
"Makati City, Metro Manila, Philippines",14.55474,121.02444,Globe,157499,121634,157.50,121.63,4,7291,2113,3034
"Minglanilla, Cebu, Philippines",10.24543,123.79599,Converge,259371,249869,259.37,249.87,5,7253,2041,3131
"Muntinlupa, Metro Manila, Philippines",14.39453,121.04483,PLDT Home Fiber,138792,100478,138.79,100.48,4,7244,1825,2617
"Murcia, Negros Occidental, Philippines",10.60643,123.03944,Globe,119134,105392,119.13,105.39,8,7037,2170,3282
"Lipa City, Batangas, Philippines",13.94047,121.19395,PLDT Home Fiber,111322,119214,111.32,119.21,7,6999,1947,2784
"Arayat, Pampanga, Philippines",15.15443,120.771,Converge,135173,152498,135.17,152.50,4,6914,2004,3256
"Polangui, Albay, Philippines",13.29368,123.48542,Converge,115316,80113,115.32,80.11,13,6834,1508,2930
"Taytay, Rizal, Philippines",14.55288,121.12571,PLDT Home Fiber,146275,149917,146.28,149.92,4,6821,1914,2843
"Calamba, Laguna, Philippines",14.19488,121.15974,PLDT,94203,100914,94.20,100.91,9,6779,1777,2736
"Bacolod, Negros Occidental, Philippines",10.66764,122.94556,Globe,113417,98837,113.42,98.84,8,6604,1746,2403
"Canlaon City, Negros Oriental, Philippines",10.36048,123.19137,PLDT Home Fiber,114209,158023,114.21,158.02,7,6572,2071,3067
"Butuan City, Agusan Del Norte, Philippines",8.94753,125.54063,PLDT Home Fiber,82656,92633,82.66,92.63,10,6525,1293,1857
"Bacolor, Pampanga, Philippines",14.99692,120.65235,PLDT Home Fiber,145871,109401,145.87,109.40,8,6493,2019,3099
"General Trias, Cavite, Philippines",14.38159,120.87915,PLDT Home Fiber,135511,121029,135.51,121.03,5,6464,1536,2205
"Bustos, Bulacan, Philippines",14.95239,120.91735,PLDT Home Fiber,99420,117641,99.42,117.64,8,6459,1585,2344
"Calamba, Laguna, Philippines",14.19488,121.15974,PLDT Home Fiber,101185,108782,101.19,108.78,8,6339,1686,2487
"Caloocan, Metro Manila, Philippines",14.65136,120.99022,PLDT,87876,91938,87.88,91.94,4,6259,1623,2351
"Pasay City, Metro Manila, Philippines",14.53767,121.00081,PLDT,83645,83364,83.65,83.36,6,6228,1574,2492
"Itogon, Benguet, Philippines",16.36116,120.6787,PLDT Home Fiber,95280,97014,95.28,97.01,6,6062,1801,2893
"Marikina, Metro Manila, Philippines",14.63493,121.10195,PLDT Home Fiber,173366,169659,173.37,169.66,3,6038,1656,2339
"Mandaluyong City, Metro Manila, Philippines",14.57627,121.03924,Converge,188338,178644,188.34,178.64,4,5979,1849,2922
"Itogon, Benguet, Philippines",16.36116,120.6787,PLDT,93483,94617,93.48,94.62,6,5976,1969,3112
"Los Baños, Laguna, Philippines",14.17731,121.22161,PLDT Home Fiber,131939,131520,131.94,131.52,7,5860,1742,2648
"Cabanatuan City, Nueva Ecija, Philippines",15.49943,121.01057,Globe,119288,106762,119.29,106.76,5,5813,1485,2186
"Imus, Cavite, Philippines",14.42764,120.93724,Converge,210551,196419,210.55,196.42,6,5770,1754,2688
"Binangonan, Rizal, Philippines",14.48441,121.1869,PLDT,106042,128275,106.04,128.28,3,5702,1832,2791
"SJDM, Bulacan, Philippines",14.82867,121.04324,Converge,148291,125993,148.29,125.99,7,5649,1478,2169
"Butuan City, Agusan Del Norte, Philippines",8.94753,125.54063,Globe,117002,61200,117.00,61.20,13,5628,1538,2178
"Dasmariñas, Cavite, Philippines",14.33385,120.95423,Converge,209116,198036,209.12,198.04,5,5475,1507,2436
"La Paz, Tarlac, Philippines",15.4497,120.7235,Globe,113440,102502,113.44,102.50,5,5470,1467,2752
"Baguio, Benguet, Philippines",16.41297,120.5914,PLDT,93480,94340,93.48,94.34,6,5458,1529,2305
"Candelaria, Quezon, Philippines",13.94899,121.42276,Converge,189522,194868,189.52,194.87,4,5416,1513,2553
"Baguio, Benguet, Philippines",16.41297,120.5914,Converge,94473,96406,94.47,96.41,4,5308,1530,2203
"Las Piñas, Metro Manila, Philippines",14.44934,120.98186,PLDT,92330,93445,92.33,93.45,6,5199,1414,2072
"Claveria, Misamis Oriental, Philippines",8.62972,124.90655,Converge,122923,112310,122.92,112.31,9,5194,1626,2610
"Silang, Cavite, Philippines",14.22025,120.96469,PLDT Home Fiber,146882,142739,146.88,142.74,5,5076,1602,2432
"Mandaluyong City, Metro Manila, Philippines",14.57627,121.03924,Globe,253618,201680,253.62,201.68,5,5047,1392,2072
"Subic Bay Freeport Zone, Philippines",14.80319,120.30033,Converge,109416,110293,109.42,110.29,5,5008,1416,2110
"San Pablo City, Laguna, Philippines",14.06422,121.32326,PLDT Home Fiber,130253,144004,130.25,144.00,6,4990,1363,2027
"Talakag, Bukidnon, Philippines",8.05293,124.72988,PLDT Home Fiber,94643,94898,94.64,94.90,6,4964,1590,2421
"Parañaque, Metro Manila, Philippines",14.47929,121.01985,Globe,164510,130526,164.51,130.53,4,4891,1442,2070
"Bacoor, Cavite, Philippines",14.43122,120.96567,PLDT,91747,92315,91.75,92.32,8,4858,1450,2127
"Iligan City, Lanao del Norte, Philippines",8.22707,124.46418,Converge,145108,140458,145.11,140.46,8,4846,1517,2224
"Biñan, Laguna, Philippines",14.31456,121.08316,PLDT Home Fiber,103507,121185,103.51,121.19,8,4846,1364,2026
"Santa Cruz, Davao del Sur, Philippines",6.83551,125.41659,Converge,134744,123106,134.74,123.11,4,4832,1382,2167
"San Juan City, Metro Manila, Philippines",14.60196,121.0355,Converge,152342,144284,152.34,144.28,4,4756,1343,2123
"Tarlac City, Tarlac, Philippines",15.48808,120.58719,PLDT,78932,89185,78.93,89.19,9,4738,1176,1762
"San Carlos City, Negros Occidental, Philippines",10.48344,123.30371,PLDT,140922,156939,140.92,156.94,5,4658,1696,2323
"Cagayan De Oro City, Misamis Oriental, Philippines",8.48029,124.64975,Converge,117314,113565,117.31,113.57,9,4633,1224,1684
"Nasugbu, Batangas, Philippines",14.09404,120.68901,Globe,116303,105469,116.30,105.47,7,4470,1077,1610
"Burgos, La Union, Philippines",16.53803,120.47033,Converge,94645,94805,94.65,94.81,4,4382,1251,1982
"San Carlos City, Negros Occidental, Philippines",10.48344,123.30371,PLDT Home Fiber,123731,164873,123.73,164.87,8,4248,1344,1988
"Bago, Negros Occidental, Philippines",10.53757,122.83609,PLDT Home Fiber,118771,141445,118.77,141.45,9,4193,1421,2105
"Santo Domingo, Nueva Ecija, Philippines",15.61284,120.88434,Globe,143136,153422,143.14,153.42,6,4170,1209,1822
"Tarlac City, Tarlac, Philippines",15.48808,120.58719,Globe,116357,104559,116.36,104.56,5,4153,1183,1824
"Malabon, Metro Manila, Philippines",14.65793,120.95118,Converge,191936,183050,191.94,183.05,4,4139,950,1542
"Iloilo City, Iloilo, Philippines",10.73019,122.55911,PLDT Home Fiber,92614,94819,92.61,94.82,11,4083,939,1399
"Subic, Zambales, Philippines",14.83066,120.18202,Converge,106038,108562,106.04,108.56,5,4063,1183,1925
"Bacolod, Negros Occidental, Philippines",10.66764,122.94556,Converge,141144,129568,141.14,129.57,12,4035,957,1483
"Calapan City, Oriental Mindoro, Philippines",13.36643,121.19395,Converge,93621,94292,93.62,94.29,10,3990,856,1560
"San Antonio, Nueva Ecija, Philippines",15.31921,120.82692,Globe,198882,189802,198.88,189.80,5,3984,1187,1784
"Tanauan City, Batangas, Philippines",14.08354,121.14762,PLDT,96154,95088,96.15,95.09,7,3978,1219,1862
"Tagaytay City, Cavite, Philippines",14.11541,120.96202,Converge,133897,121692,133.90,121.69,6,3937,987,1645
"Bacoor, Cavite, Philippines",14.43122,120.96567,Converge,171363,155186,171.36,155.19,6,3937,1034,1619
"Muntinlupa, Metro Manila, Philippines",14.39453,121.04483,Converge,191250,183825,191.25,183.83,5,3921,1118,1608
"Iloilo City, Iloilo, Philippines",10.73019,122.55911,Converge,106521,100316,106.52,100.32,11,3872,932,1468
"San Juan City, Metro Manila, Philippines",14.60196,121.0355,PLDT Home Fiber,159343,157801,159.34,157.80,3,3870,1124,1677
"Mandaluyong City, Metro Manila, Philippines",14.57627,121.03924,PLDT Home Fiber,196616,189340,196.62,189.34,3,3852,994,1302
"Cabuyao City, Laguna, Philippines",14.27433,121.11961,PLDT Home Fiber,128511,132213,128.51,132.21,6,3781,1104,1601
"New Lucena, Iloilo, Philippines",10.87841,122.59781,Converge,160739,159529,160.74,159.53,11,3780,952,1776
"Bacolod, Negros Occidental, Philippines",10.66764,122.94556,PLDT,70028,82347,70.03,82.35,9,3689,927,1308
"Iloilo City, Iloilo, Philippines",10.73019,122.55911,PLDT,82420,83788,82.42,83.79,9,3613,937,1375
"Marikina, Metro Manila, Philippines",14.63493,121.10195,Globe,159331,142986,159.33,142.99,5,3557,1072,1565
"Taytay, Rizal, Philippines",14.55288,121.12571,Converge,210123,214816,210.12,214.82,3,3541,933,1478
"Kawit, Cavite, Philippines",14.44588,120.90871,PLDT Home Fiber,97659,103730,97.66,103.73,8,3541,967,1488
"Compostela, Cebu, Philippines",10.45408,124.013,Converge,143652,180974,143.65,180.97,2,3492,1044,1576
"Magpet, Cotabato, Philippines",7.1332,125.17087,Globe,62165,92812,62.17,92.81,5,3491,1180,1787
"Valenzuela, Metro Manila, Philippines",14.69247,120.96991,PLDT,75519,81784,75.52,81.78,6,3408,855,1219
"Danao, Cebu, Philippines",10.52013,124.02712,Globe,142480,112273,142.48,112.27,7,3370,1109,1648
"Antipolo City, 1870 Rizal, Philippines",14.58584,121.17569,PLDT,66838,67759,66.84,67.76,6,3366,872,1364
"Dolores, Quezon, Philippines",14.00193,121.41133,Converge,126707,193173,126.71,193.17,5,3327,766,1328
"Candaba, Pampanga, Philippines",15.09289,120.8277,PLDT Home Fiber,94408,95195,94.41,95.20,7,3322,1090,1692
"Cainta, Rizal, Philippines",14.58056,121.11565,PLDT,87636,91369,87.64,91.37,6,3258,873,1239
"Cainta, Rizal, Philippines",14.58056,121.11565,Globe,171036,139876,171.04,139.88,5,3255,873,1168
"Malolos, Bulacan, Philippines",14.86049,120.80916,PLDT Home Fiber,106553,119767,106.55,119.77,6,3251,897,1328
"Urdaneta City, Pangasinan, Philippines",15.98194,120.59698,Converge,99531,109399,99.53,109.40,5,3205,876,1417
"Dagupan City, Pangasinan, Philippines",16.03375,120.33202,PLDT Home Fiber,94190,94720,94.19,94.72,7,3204,878,1368
"Manila, Metro Manila, Philippines",14.59951,120.98423,Globe,142204,119287,142.20,119.29,5,3184,839,1166
"Mexico, Pampanga, Philippines",15.06457,120.72033,PLDT Home Fiber,94388,98613,94.39,98.61,8,3114,875,1308
"Zamboanga City, Zamboanga del Sur, Philippines",6.90437,122.07612,PLDT Home Fiber,114765,93012,114.77,93.01,12,3016,644,859
"Marilao, Bulacan, Philippines",14.77237,120.96001,Converge,155396,119500,155.40,119.50,7,2988,678,1000
"Kawit, Cavite, Philippines",14.44588,120.90871,Globe,199302,157670,199.30,157.67,5,2979,751,1098
"Mandaluyong City, Metro Manila, Philippines",14.57627,121.03924,PLDT,58599,46573,58.60,46.57,9,2933,821,1306
"Bacoor, Cavite, Philippines",14.43122,120.96567,Globe,176170,157181,176.17,157.18,5,2924,723,933
"San Nicolas, Pangasinan, Philippines",16.12066,120.78097,PLDT,97476,97556,97.48,97.56,5,2917,960,1560
"San Rafael, Bulacan, Philippines",15.00184,120.93141,PLDT Home Fiber,95867,100075,95.87,100.08,8,2856,862,1296
"General Trias, Cavite, Philippines",14.38159,120.87915,Globe,227746,189718,227.75,189.72,5,2842,798,1173
"Batangas City, Batangas, Philippines",13.75641,121.05833,PLDT Home Fiber,112250,114214,112.25,114.21,8,2830,860,1237
"Murcia, Negros Occidental, Philippines",10.60643,123.03944,PLDT Home Fiber,134507,139039,134.51,139.04,9,2798,818,1251
"Victoria, Tarlac, Philippines",15.59077,120.68901,Globe,61473,53589,61.47,53.59,5,2765,618,1381
"San Mateo, Rizal, Philippines",14.69539,121.11767,PLDT Home Fiber,149257,143285,149.26,143.29,3,2760,691,993
"Naga City, Camarines Sur, Philippines",13.6475,123.27003,PLDT Home Fiber,100278,106652,100.28,106.65,7,2752,682,986
"Bocaue, Bulacan, Philippines",14.7943,120.93073,Converge,151791,110778,151.79,110.78,7,2738,669,1033
"Las Piñas, Metro Manila, Philippines",14.44934,120.98186,Converge,169141,165946,169.14,165.95,4,2721,647,935
"City of Santa Rosa, Laguna, Philippines",14.31471,121.11232,PLDT Home Fiber,106853,104287,106.85,104.29,7,2718,550,770
"Angeles, Pampanga, Philippines",15.16061,120.60908,PLDT Home Fiber,109145,105237,109.15,105.24,8,2717,670,965
"Olongapo City, Zambales, Philippines",14.88739,120.36661,Converge,108045,108944,108.05,108.94,5,2686,855,1400
"Banga, South Cotabato, Philippines",6.38791,124.79617,PLDT Home Fiber,71369,66916,71.37,66.92,11,2639,599,890
"Magpet, Cotabato, Philippines",7.1332,125.17087,PLDT,109647,96531,109.65,96.53,9,2603,888,1280
"Umingan, Pangasinan, Philippines",15.90396,120.82692,Globe,61136,53568,61.14,53.57,6,2593,642,1281
"Antipolo City, 1870 Rizal, Philippines",14.58584,121.17569,Globe,155227,150734,155.23,150.73,5,2544,585,789
"Cabanatuan City, Nueva Ecija, Philippines",15.49943,121.01057,PLDT Home Fiber,72919,93937,72.92,93.94,11,2536,656,880
"Cardona, Rizal, Philippines",14.48493,121.232,PLDT,155473,166354,155.47,166.35,3,2526,868,1282
"Baliwag, Bulacan, Philippines",14.96569,120.89431,PLDT Home Fiber,99092,108732,99.09,108.73,8,2521,663,954
"Valenzuela, Metro Manila, Philippines",14.69247,120.96991,Globe,181868,146285,181.87,146.29,4,2512,625,821
"Rodriguez, Rizal, Philippines",14.73202,121.14516,PLDT Home Fiber,126244,165625,126.24,165.63,4,2444,567,721
"General Santos City (Dadiangas), South Cotabato, Philippines",6.14327,125.19286,PLDT Home Fiber,107613,93357,107.61,93.36,11,2416,583,742
"Candaba, Pampanga, Philippines",15.09289,120.8277,Converge,165913,189076,165.91,189.08,4,2412,624,992
"Taytay, Rizal, Philippines",14.55288,121.12571,PLDT,78616,86300,78.62,86.30,6,2404,804,1237
"Liloan, Cebu, Philippines",10.39926,124.00002,Converge,139520,184506,139.52,184.51,3,2397,706,1114
"Santa Maria, Bulacan, Philippines",14.82898,120.97616,Converge,157031,141898,157.03,141.90,7,2372,736,1156
"Santa Maria, Bulacan, Philippines",14.82898,120.97616,PLDT Home Fiber,125990,111975,125.99,111.98,8,2365,670,972
"City of Santa Rosa, Laguna, Philippines",14.31471,121.11232,PLDT,79680,77050,79.68,77.05,9,2352,634,906
"Lipa City, Batangas, Philippines",13.94047,121.19395,Converge,131747,120511,131.75,120.51,6,2339,569,931
"SJDM, Bulacan, Philippines",14.82867,121.04324,PLDT,72672,73739,72.67,73.74,8,2333,607,844
"Cainta, Rizal, Philippines",14.58056,121.11565,Converge,162661,158873,162.66,158.87,4,2310,647,878
"San Pedro, Laguna, Philippines",14.36443,121.06192,PLDT Home Fiber,159058,156498,159.06,156.50,5,2303,592,758
"Lapu-Lapu, Cebu, Philippines",10.31838,123.96395,Converge,130019,145919,130.02,145.92,3,2255,423,672
"Bago, Negros Occidental, Philippines",10.53757,122.83609,Globe,120562,107809,120.56,107.81,4,2249,687,1033
"Pitogo, Quezon, Philippines",13.80951,122.10647,Converge,103557,99813,103.56,99.81,10,2242,531,853
"Meycauayan, Bulacan, Philippines",14.73772,120.96077,PLDT Home Fiber,94812,97270,94.81,97.27,10,2231,592,853
"Arayat, Pampanga, Philippines",15.15443,120.771,PLDT Home Fiber,94860,94657,94.86,94.66,9,2206,709,1094
"Danao, Cebu, Philippines",10.52013,124.02712,PLDT Home Fiber,118422,164545,118.42,164.55,5,2197,675,982
"Toledo, Cebu, Philippines",10.38705,123.65017,Globe,115120,98769,115.12,98.77,17,2143,757,1080
"Calamba, Laguna, Philippines",14.19488,121.15974,Globe,133065,118032,133.07,118.03,6,2134,615,884
"Compostela, Cebu, Philippines",10.45408,124.013,Globe,65354,59980,65.35,59.98,6,2104,675,1104
"Santo Tomas, Batangas, Philippines",14.08754,121.17764,PLDT Home Fiber,112537,129954,112.54,129.95,8,2084,558,771
"Marilao, Bulacan, Philippines",14.77237,120.96001,PLDT Home Fiber,100656,100150,100.66,100.15,9,2082,544,763
"Silang, Cavite, Philippines",14.22025,120.96469,PLDT,99981,104747,99.98,104.75,7,2077,647,926
"Las Piñas, Metro Manila, Philippines",14.44934,120.98186,Globe,208107,162168,208.11,162.17,5,2042,539,686
"Lucena City, Quezon, Philippines",13.94139,121.62345,PLDT Home Fiber,99002,127151,99.00,127.15,4,2041,559,822
"Pandi, Bulacan, Philippines",14.87572,120.95941,PLDT Home Fiber,113831,96940,113.83,96.94,8,1991,654,981
"Mabalacat City, Pampanga, Philippines",15.24525,120.56567,Converge,127038,134029,127.04,134.03,3,1986,552,732
"General Mamerto Natividad, Nueva Ecija, Philippines",15.58788,121.04498,Converge,101366,109184,101.37,109.18,5,1984,479,875
"Santa Barbara, Pangasinan, Philippines",15.9774,120.42424,Converge,100428,109256,100.43,109.26,5,1977,564,920
"Angono, Rizal, Philippines",14.52592,121.15321,PLDT,98209,102649,98.21,102.65,4,1975,697,1032
"Cabiao, Nueva Ecija, Philippines",15.25221,120.85957,Converge,146795,174354,146.80,174.35,4,1915,580,908
"Lipa City, Batangas, Philippines",13.94047,121.19395,Globe,163741,174110,163.74,174.11,7,1868,538,787
"Lipa City, Batangas, Philippines",13.94047,121.19395,PLDT,88228,92882,88.23,92.88,8,1867,630,846
"Marikina, Metro Manila, Philippines",14.63493,121.10195,PLDT,75583,78994,75.58,78.99,9,1863,496,701
"San Pedro, Laguna, Philippines",14.36443,121.06192,Converge,192244,117145,192.24,117.15,6,1860,386,625
"Balanga City, Bataan, Philippines",14.67454,120.47033,PLDT Home Fiber,39277,130506,39.28,130.51,11,1840,330,427
"Pasay City, Metro Manila, Philippines",14.53767,121.00081,Converge,211849,209206,211.85,209.21,4,1821,555,769
"Tarlac City, Tarlac, Philippines",15.48808,120.58719,PLDT Home Fiber,95337,94863,95.34,94.86,10,1808,472,672
"Consolacion, Cebu, Philippines",10.37581,123.95694,Globe,73623,75006,73.62,75.01,6,1808,531,850
"Kidapawan, Cotabato, Philippines",7.02127,125.09019,PLDT Home Fiber,98270,100534,98.27,100.53,10,1808,466,655
"City of Tayabas, Quezon, Philippines",14.01135,121.55983,PLDT Home Fiber,141484,157517,141.48,157.52,8,1798,566,871
"Talavera, Nueva Ecija, Philippines",15.58575,120.9197,Converge,123172,118619,123.17,118.62,5,1762,473,841
"Candelaria, Quezon, Philippines",13.94899,121.42276,PLDT Home Fiber,101416,115437,101.42,115.44,5,1758,513,774
"Mauban, Quezon, Philippines",14.23756,121.69674,Converge,120540,151546,120.54,151.55,10,1747,439,739
"Lapu-Lapu, Cebu, Philippines",10.31838,123.96395,PLDT Home Fiber,159913,179741,159.91,179.74,3,1726,382,487
"Bocaue, Bulacan, Philippines",14.7943,120.93073,PLDT Home Fiber,95082,99362,95.08,99.36,10,1715,446,650
"Diadi, Nueva Vizcaya, Philippines",16.6595,121.33129,Converge,102882,134248,102.88,134.25,10,1712,389,746
"Cadiz City, Negros Occidental, Philippines",10.86192,123.23632,PLDT Home Fiber,89851,93778,89.85,93.78,9,1698,469,721
"Matalam, Cotabato, Philippines",7.17236,124.92861,PLDT Home Fiber,108746,95343,108.75,95.34,9,1696,621,875
"Angono, Rizal, Philippines",14.52592,121.15321,Converge,241892,204125,241.89,204.13,3,1664,493,759
"Pasay City, Metro Manila, Philippines",14.53767,121.00081,Globe,208331,188085,208.33,188.09,5,1649,425,629
"Concepcion, Tarlac, Philippines",15.324,120.65596,PLDT Home Fiber,102858,99227,102.86,99.23,11,1628,396,563
"SJDM, Bulacan, Philippines",14.82867,121.04324,PLDT Home Fiber,103333,95016,103.33,95.02,5,1611,454,632
"Panglao, Bohol, Philippines",9.56947,123.78721,Converge,65339,66397,65.34,66.40,27,1606,106,170
"Bansalan, Davao del Sur, Philippines",6.84825,125.22584,PLDT Home Fiber,95993,94525,95.99,94.53,10,1597,539,795
"Alicia, Isabela, Philippines",16.80691,121.69674,Converge,104515,111651,104.52,111.65,8,1596,377,662
"Lapu-Lapu, Cebu, Philippines",10.31838,123.96395,Globe,152887,143092,152.89,143.09,5,1595,367,463
"San Miguel, Bulacan, Philippines",15.14158,120.9751,PLDT Home Fiber,94121,94787,94.12,94.79,8,1592,394,581
"Tacurong City, Sultan Kudarat, Philippines",6.6866,124.66353,PLDT Home Fiber,93690,93599,93.69,93.60,11,1587,382,544
"Tanza, Cavite, Philippines",14.34293,120.85032,Converge,201586,200343,201.59,200.34,5,1583,511,745
"San Manuel, Pangasinan, Philippines",16.10561,120.67751,PLDT Home Fiber,106122,117958,106.12,117.96,6,1581,471,735
"Bulakan, Bulacan, Philippines",14.79484,120.87889,PLDT,84666,91996,84.67,92.00,5,1576,504,748
"San Nicolas, Pangasinan, Philippines",16.12066,120.78097,PLDT Home Fiber,94663,96606,94.66,96.61,6,1568,540,821
"Zamboanga City, Zamboanga del Sur, Philippines",6.90437,122.07612,Globe,118569,105299,118.57,105.30,14,1545,271,352
"Tagaytay City, Cavite, Philippines",14.11541,120.96202,PLDT,94390,94517,94.39,94.52,9,1544,474,780
"City of Guihulngan, Negros Oriental, Philippines",10.18323,123.21385,PLDT Home Fiber,92809,96682,92.81,96.68,7,1538,511,718
"Jamindan, Capiz, Philippines",11.39423,122.42407,Converge,148005,137186,148.01,137.19,12,1535,346,685
"Binangonan, Rizal, Philippines",14.48441,121.1869,PLDT Home Fiber,111865,131856,111.87,131.86,3,1532,436,697
"Polomolok, South Cotabato, Philippines",6.22451,125.06084,PLDT Home Fiber,93678,93942,93.68,93.94,11,1519,337,472
"Imus, Cavite, Philippines",14.42764,120.93724,Globe,199897,165307,199.90,165.31,5,1512,429,614
"General Santos City (Dadiangas), South Cotabato, Philippines",6.14327,125.19286,Globe,111933,106720,111.93,106.72,15,1506,249,315
"Mandaue, Cebu, Philippines",10.3279,123.94273,Globe,142508,127405,142.51,127.41,5,1494,337,428
"Santo Tomas, Davao del Norte, Philippines",7.50929,125.63142,PLDT Home Fiber,95916,93566,95.92,93.57,9,1486,303,452
"Lucena City, Quezon, Philippines",13.94139,121.62345,Converge,98672,102658,98.67,102.66,10,1485,295,462
"Tanza, Cavite, Philippines",14.34293,120.85032,PLDT Home Fiber,173346,156929,173.35,156.93,4,1466,367,472
"San Fernando, Pampanga, Philippines",15.02781,120.69349,PLDT,74746,75765,74.75,75.77,11,1454,461,652
"Silang, Cavite, Philippines",14.22025,120.96469,Globe,101032,94193,101.03,94.19,6,1440,414,669
"Carmen, Cebu, Philippines",10.58876,123.96385,Globe,129996,106051,130.00,106.05,8,1438,489,748
"Malasiqui, Pangasinan, Philippines",15.92028,120.41443,PLDT Home Fiber,93980,105654,93.98,105.65,8,1417,364,598
"Kawit, Cavite, Philippines",14.44588,120.90871,PLDT,82966,88074,82.97,88.07,11,1407,405,634
"Malolos, Bulacan, Philippines",14.86049,120.80916,PLDT,79777,81674,79.78,81.67,6,1385,375,553
"San Antonio, Nueva Ecija, Philippines",15.31921,120.82692,PLDT Home Fiber,93499,94675,93.50,94.68,10,1384,432,661
"Manaoag, Pangasinan, Philippines",16.04627,120.4876,Converge,97373,105655,97.37,105.66,5,1364,426,682
"Lapu-Lapu, Cebu, Philippines",10.31838,123.96395,PLDT,87304,96801,87.30,96.80,3,1363,322,462
"Bokod, Benguet, Philippines",16.45641,120.78097,PLDT Home Fiber,136564,110863,136.56,110.86,5,1360,432,645
"General Mariano Alvarez, Cavite, Philippines",14.29525,121.0071,PLDT,98536,101231,98.54,101.23,7,1350,406,562
"President Roxas, Cotabato, Philippines",7.37928,125.06084,PLDT Home Fiber,119932,95407,119.93,95.41,9,1350,401,565
"Dagupan City, Pangasinan, Philippines",16.03375,120.33202,Converge,91803,93983,91.80,93.98,6,1347,328,473
"Angono, Rizal, Philippines",14.52592,121.15321,PLDT Home Fiber,98679,110924,98.68,110.92,4,1345,339,457
"Rosario, Batangas, Philippines",13.80433,121.28552,Globe,124550,129180,124.55,129.18,7,1342,460,695
"Tagum, Davao del Norte, Philippines",7.44742,125.80246,PLDT Home Fiber,89757,94298,89.76,94.30,8,1311,351,472
"Alfonso, Cavite, Philippines",14.1214,120.86138,PLDT Home Fiber,97735,99567,97.74,99.57,6,1299,263,369
"Malvar, Batangas, Philippines",14.04329,121.15875,PLDT Home Fiber,95787,99451,95.79,99.45,9,1293,363,542
"Mandaue, Cebu, Philippines",10.3279,123.94273,PLDT Home Fiber,125193,148809,125.19,148.81,3,1287,367,464
"City of Santa Rosa, Laguna, Philippines",14.31471,121.11232,Globe,202508,189123,202.51,189.12,6,1281,370,550
"Matanao, Davao del Sur, Philippines",6.70421,125.22584,PLDT Home Fiber,109400,110228,109.40,110.23,9,1273,404,552
"San Pedro, Laguna, Philippines",14.36443,121.06192,PLDT,98016,97897,98.02,97.90,7,1242,368,513
"General Trias, Cavite, Philippines",14.38159,120.87915,PLDT,126596,127421,126.60,127.42,8,1233,294,369
"Santa Fe, Nueva Vizcaya, Philippines",16.18249,120.91878,PLDT,94292,94879,94.29,94.88,6,1232,347,532
"Calatrava, Negros Occidental, Philippines",10.62843,123.39349,PLDT,92966,103439,92.97,103.44,6,1219,366,568
"Koronadal, South Cotabato, Philippines",6.50044,124.84333,PLDT Home Fiber,92662,85971,92.66,85.97,11,1215,259,335
"Mandaue, Cebu, Philippines",10.3279,123.94273,Converge,180101,186678,180.10,186.68,3,1211,317,481
"Subic Bay Freeport Zone, Philippines",14.80319,120.30033,PLDT,56174,63597,56.17,63.60,13,1207,371,564
"Candaba, Pampanga, Philippines",15.09289,120.8277,Globe,169259,157955,169.26,157.96,6,1194,317,468
"Obando, Bulacan, Philippines",14.70986,120.93674,PLDT Home Fiber,110134,101473,110.13,101.47,5,1193,375,510
"Carmen, Cebu, Philippines",10.58876,123.96385,PLDT Home Fiber,147253,201242,147.25,201.24,4,1192,421,616
"Silay, Negros Occidental, Philippines",10.79968,122.97605,PLDT,86340,78511,86.34,78.51,23,1190,270,443
"President Roxas, Cotabato, Philippines",7.37928,125.06084,PLDT,94090,94457,94.09,94.46,9,1189,426,587
"Santa Fe, Nueva Vizcaya, Philippines",16.18249,120.91878,PLDT Home Fiber,104168,103689,104.17,103.69,6,1186,361,580
"Calauan, Laguna, Philippines",14.14551,121.3146,PLDT Home Fiber,150169,147732,150.17,147.73,8,1183,308,481
"Navotas, Metro Manila, Philippines",14.65819,120.94743,PLDT Home Fiber,112961,152774,112.96,152.77,4,1183,303,415
"Liloan, Cebu, Philippines",10.39926,124.00002,Globe,152937,130353,152.94,130.35,6,1182,282,399
"Carmona, Cavite, Philippines",14.3135,121.05712,PLDT,147276,152056,147.28,152.06,7,1181,309,441
"San Ildefonso, Bulacan, Philippines",15.07717,120.94171,PLDT Home Fiber,93235,94534,93.24,94.53,7,1177,346,534
"Nagcarlan, Laguna, Philippines",14.14903,121.38847,PLDT Home Fiber,100450,112245,100.45,112.25,8,1167,314,500
"Zaragoza, Nueva Ecija, Philippines",15.46003,120.79246,Globe,251451,195303,251.45,195.30,5,1166,308,542
"San Simon, Pampanga, Philippines",14.98432,120.75127,PLDT Home Fiber,82667,92775,82.67,92.78,8,1161,254,428
"M'lang, Cotabato, Philippines",6.93822,124.90655,PLDT Home Fiber,94149,94670,94.15,94.67,10,1158,367,555
"Lucban, Quezon, Philippines",14.1144,121.55472,PLDT Home Fiber,126947,138960,126.95,138.96,8,1153,368,578
"Biñan, Laguna, Philippines",14.31456,121.08316,Converge,111688,123532,111.69,123.53,5,1152,225,370
"San Mateo, Rizal, Philippines",14.69539,121.11767,Converge,161862,166418,161.86,166.42,4,1150,297,403
"Puerto Princesa City, Palawan, Philippines",9.78563,118.62648,PLDT Home Fiber,70304,91925,70.30,91.93,19,1148,254,335
"Cabiao, Nueva Ecija, Philippines",15.25221,120.85957,Globe,124276,106848,124.28,106.85,6,1137,308,447
"Tuguegarao City, Cagayan, Philippines",17.60306,121.75374,Converge,76024,74201,76.02,74.20,13,1132,258,383
"Malabon, Metro Manila, Philippines",14.65793,120.95118,PLDT,104714,103610,104.71,103.61,4,1126,235,337
"Muntinlupa, Metro Manila, Philippines",14.39453,121.04483,Globe,185076,176713,185.08,176.71,6,1125,262,344
"Obando, Bulacan, Philippines",14.70986,120.93674,PLDT,92217,94277,92.22,94.28,5,1122,344,532
"Lucena City, Quezon, Philippines",13.94139,121.62345,PLDT,97717,95983,97.72,95.98,4,1115,222,319
"Arakan, Cotabato, Philippines",7.35122,125.17087,PLDT Home Fiber,95115,94545,95.12,94.55,9,1111,367,540
"Baguio, Benguet, Philippines",16.41297,120.5914,Globe,103585,98094,103.59,98.09,6,1106,255,353
"Sagay City, Negros Occidental, Philippines",10.84555,123.37106,PLDT Home Fiber,91195,94211,91.20,94.21,10,1103,306,468
"Quezon, Nueva Ecija, Philippines",15.56953,120.82692,Globe,279571,247630,279.57,247.63,5,1101,316,530
"Digos, Davao del Sur, Philippines",6.74347,125.35515,PLDT Home Fiber,97217,97410,97.22,97.41,9,1100,335,482
"Talisay, Cebu, Philippines",10.25859,123.82413,PLDT,117589,135276,117.59,135.28,3,1095,240,320
"Navotas, Metro Manila, Philippines",14.65819,120.94743,Converge,197900,166872,197.90,166.87,4,1094,223,311
"Danao, Cebu, Philippines",10.52013,124.02712,PLDT,51282,59517,51.28,59.52,7,1091,158,211
"San Jose City, Nueva Ecija, Philippines",15.79188,120.99008,PLDT,70334,72816,70.33,72.82,12,1090,147,225
"Roxas City, Capiz, Philippines",11.55288,122.74072,PLDT Home Fiber,88156,91188,88.16,91.19,11,1089,192,270
"Batangas City, Batangas, Philippines",13.75641,121.05833,PLDT,94315,94440,94.32,94.44,8,1089,282,431
"Magsaysay, Davao del Sur, Philippines",6.75271,125.15221,PLDT Home Fiber,108317,97546,108.32,97.55,10,1086,339,542
"City of Santa Rosa, Laguna, Philippines",14.31471,121.11232,Converge,152694,128822,152.69,128.82,6,1082,234,381
"Cabanatuan City, Nueva Ecija, Philippines",15.49943,121.01057,PLDT,81096,76491,81.10,76.49,10,1073,249,399
"Tuguegarao City, Cagayan, Philippines",17.60306,121.75374,PLDT,91794,89010,91.79,89.01,13,1070,322,469
"Cabuyao City, Laguna, Philippines",14.27433,121.11961,PLDT,84935,91402,84.94,91.40,8,1069,288,416
"Marilao, Bulacan, Philippines",14.77237,120.96001,Globe,197838,181349,197.84,181.35,8,1052,195,270
"San Jose City, Nueva Ecija, Philippines",15.79188,120.99008,Converge,99513,109124,99.51,109.12,5,1051,233,349
"Malaybalay City, Bukidnon, Philippines",8.15775,125.17087,PLDT Home Fiber,93486,99745,93.49,99.75,10,1046,234,339
"Imus, Cavite, Philippines",14.42764,120.93724,PLDT,108735,110888,108.74,110.89,7,1013,307,410
"Angeles, Pampanga, Philippines",15.16061,120.60908,PLDT,62517,63774,62.52,63.77,10,1010,367,572
"Talisay, Cebu, Philippines",10.25859,123.82413,PLDT Home Fiber,145982,156115,145.98,156.12,4,1009,218,286
"Santa Maria, Bulacan, Philippines",14.82898,120.97616,Globe,151871,147261,151.87,147.26,8,1003,184,250
"San Fernando City, La Union, Philippines",16.61592,120.32102,PLDT Home Fiber,92892,89802,92.89,89.80,3,1001,147,214
"Porac, Pampanga, Philippines",15.06974,120.55007,PLDT Home Fiber,94862,119676,94.86,119.68,7,1001,271,382
"Bago, Negros Occidental, Philippines",10.53757,122.83609,PLDT,63287,66921,63.29,66.92,7,990,122,167
"Balamban, Cebu, Philippines",10.48585,123.77412,Globe,120163,107933,120.16,107.93,7,988,315,454
"Lagawe, Ifugao, Philippines",16.80825,121.19395,PLDT Home Fiber,100982,99876,100.98,99.88,8,988,269,469
"Silay, Negros Occidental, Philippines",10.79968,122.97605,PLDT Home Fiber,95845,108323,95.85,108.32,14,987,246,394
"Orani, Bataan, Philippines",14.80086,120.53616,Converge,94337,93949,94.34,93.95,6,976,305,432
"Taytay, Rizal, Philippines",14.55288,121.12571,Globe,242838,198919,242.84,198.92,5,974,207,258
"La Trinidad, Benguet, Philippines",16.44844,120.59047,PLDT Home Fiber,93900,94593,93.90,94.59,9,967,280,391
"Mariveles, Bataan, Philippines",14.4354,120.49003,PLDT Home Fiber,66621,94123,66.62,94.12,9,964,148,197
"Dagupan City, Pangasinan, Philippines",16.03375,120.33202,PLDT,82620,89188,82.62,89.19,6,960,267,430
"Baliwag, Bulacan, Philippines",14.96569,120.89431,PLDT,70022,60025,70.02,60.03,8,950,218,294
"Dolores, Quezon, Philippines",14.00193,121.41133,PLDT Home Fiber,98628,111350,98.63,111.35,5,950,318,455
"Cagayan De Oro City, Misamis Oriental, Philippines",8.48029,124.64975,PLDT,61635,59679,61.64,59.68,19,950,233,349
"Kayapa, Nueva Vizcaya, Philippines",16.49326,120.94174,PLDT,93453,94544,93.45,94.54,6,949,290,476
"Talisay, Cebu, Philippines",10.25859,123.82413,Converge,229818,191193,229.82,191.19,7,945,189,279
"Mariveles, Bataan, Philippines",14.4354,120.49003,Converge,109621,105769,109.62,105.77,9,940,143,198
"Talisay, Negros Occidental, Philippines",10.74828,122.98012,PLDT,72226,69142,72.23,69.14,21,919,218,330
"Goa, Camarines Sur, Philippines",13.73619,123.41593,PLDT Home Fiber,80696,83089,80.70,83.09,9,910,112,166
"Naic, Cavite, Philippines",14.29649,120.79246,PLDT,77583,78539,77.58,78.54,9,909,292,411
"Kabacan, Cotabato, Philippines",7.10719,124.84034,PLDT Home Fiber,99145,94462,99.15,94.46,10,908,283,415
"Dipolog City, Zamboanga del Norte, Philippines",8.58717,123.34035,PLDT Home Fiber,88911,95760,88.91,95.76,11,907,210,273
"Kapangan, Benguet, Philippines",16.61238,120.59698,PLDT Home Fiber,93522,94577,93.52,94.58,6,907,335,472
"Arayat, Pampanga, Philippines",15.15443,120.771,Globe,138636,110135,138.64,110.14,5,902,290,444
"Malolos, Bulacan, Philippines",14.86049,120.80916,Converge,107756,113597,107.76,113.60,6,896,226,323
"San Jose City, Nueva Ecija, Philippines",15.79188,120.99008,PLDT Home Fiber,90957,89285,90.96,89.29,13,895,152,208
"San Manuel, Pangasinan, Philippines",16.10561,120.67751,PLDT,99633,97130,99.63,97.13,6,894,257,395
"Calumpit, Bulacan, Philippines",14.91518,120.7662,PLDT Home Fiber,99431,99551,99.43,99.55,7,893,215,293
"Daet, Camarines Norte, Philippines",14.10303,122.9325,PLDT,85387,87784,85.39,87.78,9,891,228,312
"General Santos City (Dadiangas), South Cotabato, Philippines",6.14327,125.19286,PLDT,65037,59569,65.04,59.57,12,885,244,355
"Tagbilaran City, Bohol, Philippines",9.6534,123.86703,PLDT Home Fiber,100444,124401,100.44,124.40,10,877,170,232
"Santa Rita, Pampanga, Philippines",14.99762,120.61451,PLDT Home Fiber,93231,127520,93.23,127.52,8,875,250,369
"San Ildefonso, Bulacan, Philippines",15.07717,120.94171,Converge,114990,106663,114.99,106.66,7,872,94,143
"Rodriguez, Rizal, Philippines",14.73202,121.14516,Converge,180112,160423,180.11,160.42,5,868,272,350
"Concepcion, Tarlac, Philippines",15.324,120.65596,PLDT,58468,55686,58.47,55.69,9,866,189,256
"Tagum, Davao del Norte, Philippines",7.44742,125.80246,Globe,135573,116944,135.57,116.94,5,856,147,197
"Kayapa, Nueva Vizcaya, Philippines",16.49326,120.94174,PLDT Home Fiber,94193,95558,94.19,95.56,6,856,230,364
"Mandaue, Cebu, Philippines",10.3279,123.94273,PLDT,71706,70997,71.71,71.00,4,855,247,344
"San Juan City, Metro Manila, Philippines",14.60196,121.0355,Globe,138946,130780,138.95,130.78,5,852,266,386
"Apalit, Pampanga, Philippines",14.95255,120.76688,PLDT Home Fiber,94606,99397,94.61,99.40,7,852,187,276
"Bay, Laguna, Philippines",14.14064,121.26836,PLDT Home Fiber,148380,154750,148.38,154.75,4,848,237,383
"San Juan, Batangas, Philippines",13.75044,121.37703,PLDT Home Fiber,92870,101397,92.87,101.40,8,842,226,350
"Antipas, Cotabato, Philippines",7.27386,125.01679,PLDT,192039,160371,192.04,160.37,9,841,271,371
"Lubao, Pampanga, Philippines",14.92678,120.58795,Converge,71013,71886,71.01,71.89,4,836,190,278
"Dumaguete City, Negros Oriental, Philippines",9.29841,123.29249,PLDT,100889,109001,100.89,109.00,10,834,137,195
"Guiguinto, Bulacan, Philippines",14.82832,120.88429,PLDT Home Fiber,145781,117869,145.78,117.87,8,818,216,305
"Arakan, Cotabato, Philippines",7.35122,125.17087,PLDT,94593,94770,94.59,94.77,9,812,299,430
"Plaridel, Bulacan, Philippines",14.88591,120.85932,PLDT,76187,88818,76.19,88.82,5,812,223,306
"Talisay, Negros Occidental, Philippines",10.74828,122.98012,PLDT Home Fiber,94664,102697,94.66,102.70,11,812,215,312
"Lobo, Batangas, Philippines",13.6877,121.23974,Globe,178533,123317,178.53,123.32,8,810,313,450
"Pulilan, Bulacan, Philippines",14.90243,120.8459,PLDT Home Fiber,95367,104343,95.37,104.34,6,808,241,355
"Guagua, Pampanga, Philippines",14.96374,120.63244,PLDT Home Fiber,102961,94471,102.96,94.47,8,808,240,382
"Salvador Benedicto, Negros Occidental, Philippines",10.5887,123.23632,PLDT Home Fiber,151107,141035,151.11,141.04,9,807,271,428
"San Rafael, Bulacan, Philippines",15.00184,120.93141,Globe,227486,196909,227.49,196.91,6,805,248,353
"Meycauayan, Bulacan, Philippines",14.73772,120.96077,Converge,143245,114971,143.25,114.97,7,804,200,288
"Naga City, Camarines Sur, Philippines",13.6475,123.27003,Globe,119149,109801,119.15,109.80,12,800,188,253
"Malabon, Metro Manila, Philippines",14.65793,120.95118,Globe,145925,151056,145.93,151.06,5,799,214,258
"Mabalacat City, Pampanga, Philippines",15.24525,120.56567,PLDT Home Fiber,151183,140644,151.18,140.64,8,797,177,254
"Balagtas, Bulacan, Philippines",14.81784,120.90646,PLDT Home Fiber,133895,114878,133.90,114.88,7,792,269,374
"Tacloban City, Leyte, Philippines",11.22238,124.99221,PLDT,87410,93547,87.41,93.55,6,786,239,326
"Dinalupihan, Bataan, Philippines",14.88605,120.44729,PLDT Home Fiber,49014,126446,49.01,126.45,11,784,144,184
"Ormoc City, Leyte, Philippines",11.03843,124.61927,Converge,117623,124671,117.62,124.67,5,781,108,171
"Magalang, Pampanga, Philippines",15.21394,120.66181,PLDT,49901,45581,49.90,45.58,12,778,181,270
"Guagua, Pampanga, Philippines",14.96374,120.63244,Converge,49335,51575,49.34,51.58,4,772,200,293
"La Castellana, Negros Occidental, Philippines",10.33198,123.10141,PLDT Home Fiber,93247,99986,93.25,99.99,12,770,166,244
"Liliw, Laguna, Philippines",14.12617,121.4399,PLDT Home Fiber,150009,187131,150.01,187.13,8,770,195,335
"Escalante City, Negros Occidental, Philippines",10.84117,123.49908,PLDT Home Fiber,83417,85806,83.42,85.81,9,769,182,286
"Malasiqui, Pangasinan, Philippines",15.92028,120.41443,Converge,92547,94266,92.55,94.27,5,769,198,285
"Mexico, Pampanga, Philippines",15.06457,120.72033,PLDT,60472,63763,60.47,63.76,14,767,241,347
"Santa Maria, Bulacan, Philippines",14.82898,120.97616,PLDT,59633,54283,59.63,54.28,15,763,217,310
"Leyte, Philippines",11.32728,124.48636,PLDT,107523,110960,107.52,110.96,16,761,162,279
"Calasiao, Pangasinan, Philippines",16.00949,120.35759,PLDT Home Fiber,106945,116395,106.95,116.40,6,758,228,317
"Santo Nino, Cagayan, Philippines",17.91267,121.49132,Converge,94890,94458,94.89,94.46,13,747,218,380
"Talisay, Cebu, Philippines",10.25859,123.82413,Globe,174611,136151,174.61,136.15,8,746,183,241
"Butuan City, Agusan Del Norte, Philippines",8.94753,125.54063,PLDT,54006,56039,54.01,56.04,18,740,234,346
"Roxas City, Capiz, Philippines",11.55288,122.74072,Globe,86544,80545,86.54,80.55,11,739,106,160
"SJDM, Bulacan, Philippines",14.82867,121.04324,Globe,184215,148856,184.22,148.86,8,737,175,233
"Legazpi City, Albay, Philippines",13.11288,123.76295,PLDT,96180,113972,96.18,113.97,7,735,191,266
"Mambusao, Capiz, Philippines",11.44257,122.59383,Converge,95874,99275,95.87,99.28,13,735,192,366
"Atok, Benguet, Philippines",16.59745,120.68901,PLDT Home Fiber,93584,94545,93.58,94.55,6,729,301,418
"Gapan City, Nueva Ecija, Philippines",15.29121,121.01057,PLDT Home Fiber,99761,97669,99.76,97.67,12,728,180,271
"Surigao, Surigao del Norte, Philippines",9.79022,125.49311,PLDT Home Fiber,76688,83378,76.69,83.38,11,718,170,219
"Silang, Cavite, Philippines",14.22025,120.96469,Converge,152252,144131,152.25,144.13,6,714,190,283
"Kibungan, Benguet, Philippines",16.68162,120.68901,PLDT Home Fiber,96258,94699,96.26,94.70,5,714,272,421
"Cabiao, Nueva Ecija, Philippines",15.25221,120.85957,PLDT Home Fiber,102829,110835,102.83,110.84,9,713,262,381
"Taal, Batangas, Philippines",13.87826,120.92508,Globe,207028,189512,207.03,189.51,6,705,226,351
"Virac, Catanduanes, Philippines",13.61939,124.17544,PLDT Home Fiber,76224,77900,76.22,77.90,10,704,132,173
"Santa Ana, Pampanga, Philippines",15.09442,120.76623,PLDT Home Fiber,90311,92596,90.31,92.60,8,703,216,358
"Hagonoy, Bulacan, Philippines",14.83564,120.73371,PLDT,81983,85147,81.98,85.15,8,702,155,201
"Puerto Princesa City, Palawan, Philippines",9.78563,118.62648,PLDT,62075,93715,62.08,93.72,19,702,194,287
"Cabuyao City, Laguna, Philippines",14.27433,121.11961,Converge,100251,108106,100.25,108.11,5,700,104,174
"Sindangan, Zamboanga del Norte, Philippines",8.19151,123.05639,PLDT Home Fiber,47550,50402,47.55,50.40,13,693,70,105
"Pili, Camarines Sur, Philippines",13.55521,123.28126,Globe,76742,73005,76.74,73.01,12,692,34,43
"Palo, Leyte, Philippines",11.15847,124.99191,PLDT,63278,56538,63.28,56.54,13,687,147,230
"Catmon, Cebu, Philippines",10.65242,123.9973,PLDT Home Fiber,115640,141579,115.64,141.58,6,683,262,392
"Ligao City, Albay, Philippines",13.17242,123.4944,Converge,82820,84250,82.82,84.25,15,681,137,203
"Minalin, Pampanga, Philippines",14.97052,120.68518,PLDT Home Fiber,99219,96165,99.22,96.17,7,678,232,369
"Magalang, Pampanga, Philippines",15.21394,120.66181,Converge,79083,81915,79.08,81.92,3,670,126,187
"Catarman, Northern Samar, Philippines",12.44271,124.61927,Globe,44327,104374,44.33,104.37,14,670,84,106
"Iligan City, Lanao del Norte, Philippines",8.22707,124.46418,Globe,125847,63841,125.85,63.84,13,669,165,213
"Catmon, Cebu, Philippines",10.65242,123.9973,Globe,118244,106307,118.24,106.31,20,668,218,292
"Meycauayan, Bulacan, Philippines",14.73772,120.96077,PLDT,90405,94132,90.41,94.13,6,668,147,214
"Morong, Rizal, Philippines",14.51286,121.23855,PLDT Home Fiber,145143,144071,145.14,144.07,3,668,175,278
"Mambajao, Camiguin, Philippines",9.22153,124.71882,PLDT Home Fiber,146383,132783,146.38,132.78,9,668,171,245
"Toledo, Cebu, Philippines",10.38705,123.65017,PLDT,29834,39585,29.83,39.59,6,668,76,95
"Taysan, Batangas, Philippines",13.76108,121.2283,Globe,98665,95060,98.67,95.06,8,665,180,246
"Meycauayan, Bulacan, Philippines",14.73772,120.96077,Globe,153841,125022,153.84,125.02,8,664,199,259
"Magalang, Pampanga, Philippines",15.21394,120.66181,PLDT Home Fiber,93258,94480,93.26,94.48,10,664,188,298
"Rosario, Cavite, Philippines",14.41672,120.85471,Converge,194957,203836,194.96,203.84,5,661,168,261
"Talaingod, Davao del Norte, Philippines",7.68339,125.522,Globe,64144,55934,64.14,55.93,4,658,215,349
"Vintar, Ilocos Norte, Philippines",18.31413,120.78097,Converge,94157,104063,94.16,104.06,10,657,213,345
"Navotas, Metro Manila, Philippines",14.65819,120.94743,PLDT,79281,77108,79.28,77.11,6,655,182,266
"Majayjay, Laguna, Philippines",14.14491,121.46983,PLDT Home Fiber,133935,175604,133.94,175.60,8,654,149,242
"Rosario, Batangas, Philippines",13.80433,121.28552,PLDT Home Fiber,99355,103696,99.36,103.70,6,653,163,243
"Naic, Cavite, Philippines",14.29649,120.79246,PLDT Home Fiber,104722,105540,104.72,105.54,7,652,123,168
"Ormoc City, Leyte, Philippines",11.03843,124.61927,Globe,113838,104002,113.84,104.00,17,651,132,174
"Pozorrubio, Pangasinan, Philippines",16.11642,120.54316,PLDT,72295,73731,72.30,73.73,11,646,170,252
"Porac, Pampanga, Philippines",15.06974,120.55007,Converge,133905,122845,133.91,122.85,3,642,178,254
"Cauayan City, Isabela, Philippines",16.91662,121.78792,Converge,93814,108372,93.81,108.37,10,640,145,224
"Legazpi City, Albay, Philippines",13.11288,123.76295,Converge,111235,110804,111.24,110.80,5,635,160,231
"Dumaguete City, Negros Oriental, Philippines",9.29841,123.29249,Globe,109589,94219,109.59,94.22,11,635,162,227
"Sorsogon City, Sorsogon, Philippines",12.97888,123.98477,PLDT,93131,117236,93.13,117.24,13,634,111,151
"San Isidro, Nueva Ecija, Philippines",15.29656,120.9073,PLDT Home Fiber,98969,93789,98.97,93.79,11,632,181,296
"Sariaya, Quezon, Philippines",13.96301,121.52388,PLDT Home Fiber,99257,126708,99.26,126.71,4,628,161,232
"Palayan City, Nueva Ecija, Philippines",15.53906,121.09083,Converge,99223,109009,99.22,109.01,6,625,194,279
"Naga City, Camarines Sur, Philippines",13.6475,123.27003,PLDT,61049,65217,61.05,65.22,14,625,175,268
"Valladolid, Negros Occidental, Philippines",10.46898,122.8423,PLDT Home Fiber,98589,102351,98.59,102.35,11,624,159,267
"Consolacion, Cebu, Philippines",10.37581,123.95694,PLDT,139133,138870,139.13,138.87,4,622,182,236
"Laoag City, Ilocos Norte, Philippines",18.21075,120.58547,Converge,98876,108404,98.88,108.40,10,621,197,309
"Cotabato City, Maguindanao, Philippines",7.20467,124.23104,PLDT Home Fiber,116061,104096,116.06,104.10,13,618,176,238
"San Quintin, Pangasinan, Philippines",15.9754,120.83841,PLDT Home Fiber,93637,94848,93.64,94.85,6,617,196,310
"Tuguegarao City, Cagayan, Philippines",17.60306,121.75374,PLDT Home Fiber,76789,88176,76.79,88.18,13,616,168,261
"Minglanilla, Cebu, Philippines",10.24543,123.79599,PLDT,100973,107701,100.97,107.70,4,615,167,228
"Panabo City, Davao del Norte, Philippines",7.30822,125.68662,PLDT Home Fiber,105866,94004,105.87,94.00,9,615,169,231
"Calatrava, Negros Occidental, Philippines",10.62843,123.39349,PLDT Home Fiber,89548,92521,89.55,92.52,10,611,187,284
"Pililla, Rizal, Philippines",14.44393,121.34273,PLDT,112072,110363,112.07,110.36,3,610,212,319
"Daet, Camarines Norte, Philippines",14.10303,122.9325,Converge,152602,131192,152.60,131.19,5,608,118,181
"Santiago, Isabela, Philippines",16.69679,121.55865,PLDT Home Fiber,80459,83862,80.46,83.86,15,606,155,227
"Bayombong, Nueva Vizcaya, Philippines",16.48042,121.14813,PLDT Home Fiber,92574,93276,92.57,93.28,8,605,108,162
"Infanta, Quezon, Philippines",14.74071,121.6451,PLDT,40482,46368,40.48,46.37,13,603,181,263
"Calapan City, Oriental Mindoro, Philippines",13.36643,121.19395,PLDT,71214,74470,71.21,74.47,12,602,167,248
"Limay, Bataan, Philippines",14.53661,120.56245,PLDT Home Fiber,35993,97406,35.99,97.41,11,600,114,144
"Angat, Bulacan, Philippines",14.92586,121.02204,PLDT Home Fiber,94018,117429,94.02,117.43,8,599,177,269
"Capas, Tarlac, Philippines",15.34633,120.59344,PLDT,77386,78957,77.39,78.96,7,597,98,143
"Pili, Camarines Sur, Philippines",13.55521,123.28126,PLDT Home Fiber,78305,78232,78.31,78.23,8,597,129,175
"Lubao, Pampanga, Philippines",14.92678,120.58795,PLDT Home Fiber,120374,157117,120.37,157.12,10,592,102,134
"Digos, Davao del Sur, Philippines",6.74347,125.35515,Globe,119580,152538,119.58,152.54,4,589,82,115
"San Pedro, Laguna, Philippines",14.36443,121.06192,Globe,119205,132242,119.21,132.24,9,585,170,223
"Bakun, Benguet, Philippines",16.80796,120.68901,PLDT Home Fiber,94021,97677,94.02,97.68,5,583,227,340
"Zamboanga City, Zamboanga del Sur, Philippines",6.90437,122.07612,Converge,96149,95181,96.15,95.18,15,582,130,171
"Carmona, Cavite, Philippines",14.3135,121.05712,Converge,151125,178098,151.13,178.10,6,582,148,227
"San Mateo, Rizal, Philippines",14.69539,121.11767,PLDT,62923,58116,62.92,58.12,12,580,164,253
"Pinamungahan, Cebu, Philippines",10.26958,123.63996,Globe,189818,157505,189.82,157.51,18,576,232,311
"Trece Martires City, Cavite, Philippines",14.28222,120.86837,PLDT Home Fiber,187875,171493,187.88,171.49,4,576,177,230
"Santiago, Ilocos Sur, Philippines",17.28073,120.44729,Converge,95515,104095,95.52,104.10,9,575,158,272
"City of Cabadbaran, Agusan Del Norte, Philippines",9.14092,125.697,PLDT Home Fiber,88137,62439,88.14,62.44,11,573,125,166
"Indang, Cavite, Philippines",14.19204,120.87286,PLDT,104561,123100,104.56,123.10,8,571,139,185
"San Miguel, Bulacan, Philippines",15.14158,120.9751,Globe,120195,109525,120.20,109.53,5,568,140,190
"Enrique B. Magalona, Negros Occidental, Philippines",10.87695,122.98281,PLDT,46405,53693,46.41,53.69,23,567,96,136
"Cadiz City, Negros Occidental, Philippines",10.86192,123.23632,PLDT,49271,57830,49.27,57.83,13,564,123,212
"Dipolog City, Zamboanga del Norte, Philippines",8.58717,123.34035,Globe,62600,42149,62.60,42.15,19,563,70,98
"Plaridel, Bulacan, Philippines",14.88591,120.85932,PLDT Home Fiber,108746,115820,108.75,115.82,7,562,184,263
"Guiguinto, Bulacan, Philippines",14.82832,120.88429,Converge,124126,122582,124.13,122.58,7,562,125,188
"Calabanga, Camarines Sur, Philippines",13.71633,123.28126,PLDT Home Fiber,120189,115038,120.19,115.04,7,558,69,86
"Pagadian City, Zamboanga del Sur, Philippines",7.86265,123.37106,PLDT Home Fiber,116376,112589,116.38,112.59,6,553,128,165
"Marawi City, Lanao del Sur, Philippines",8.0292,124.29772,Globe,32054,46466,32.05,46.47,10,552,80,111
"Los Baños, Laguna, Philippines",14.17731,121.22161,PLDT,97654,93956,97.65,93.96,6,547,182,248
"Santa Lucia, Ilocos Sur, Philippines",17.12888,120.47033,Converge,94312,96668,94.31,96.67,8,545,121,198
"San Leonardo, Nueva Ecija, Philippines",15.37285,120.95321,PLDT Home Fiber,93437,96028,93.44,96.03,12,543,138,226
"Vallehermoso, Negros Oriental, Philippines",10.33905,123.29249,PLDT Home Fiber,92076,94570,92.08,94.57,9,536,200,276
"Orion, Bataan, Philippines",14.61604,120.56431,PLDT Home Fiber,26903,106075,26.90,106.08,11,535,92,110
"Salvador Benedicto, Negros Occidental, Philippines",10.5887,123.23632,PLDT,98506,143600,98.51,143.60,5,531,184,293
"Isabela, Basilan, Philippines",6.70387,121.9799,Globe,117188,77848,117.19,77.85,15,531,43,53
"Libmanan, Camarines Sur, Philippines",13.69376,123.05982,PLDT Home Fiber,35444,37990,35.44,37.99,13,528,77,110
"Gerona, Tarlac, Philippines",15.60489,120.59698,PLDT Home Fiber,86436,94641,86.44,94.64,10,527,119,164
"General Santos City (Dadiangas), South Cotabato, Philippines",6.14327,125.19286,Converge,114344,113970,114.34,113.97,5,525,155,195
"Binangonan, Rizal, Philippines",14.48441,121.1869,Globe,164406,149558,164.41,149.56,4,524,120,152
"Dumanjug, Cebu, Philippines",10.02819,123.47198,PLDT Home Fiber,84369,97676,84.37,97.68,8,524,181,240
"Odiongan, Romblon, Philippines",12.36445,122.01555,PLDT,55990,71314,55.99,71.31,8,522,66,95
"Calapan City, Oriental Mindoro, Philippines",13.36643,121.19395,PLDT Home Fiber,91849,95853,91.85,95.85,9,520,141,196
"Bacolor, Pampanga, Philippines",14.99692,120.65235,Converge,99264,105934,99.26,105.93,4,520,192,249
"Surallah, South Cotabato, Philippines",6.3195,124.75198,PLDT Home Fiber,68182,56269,68.18,56.27,12,519,124,172
"San Pablo City, Laguna, Philippines",14.06422,121.32326,PLDT,88328,94071,88.33,94.07,6,518,154,218
"Cotabato City, Maguindanao, Philippines",7.20467,124.23104,PLDT,64777,49908,64.78,49.91,16,514,131,174
"Liloan, Cebu, Philippines",10.39926,124.00002,PLDT Home Fiber,153918,155734,153.92,155.73,4,513,160,227
"Malasiqui, Pangasinan, Philippines",15.92028,120.41443,PLDT,94768,100886,94.77,100.89,5,513,155,212
"Cavite, Philippines",14.48151,120.90833,PLDT Home Fiber,114085,120752,114.09,120.75,4,512,132,169
"Daraga, Albay, Philippines",13.12278,123.69588,Converge,88697,79034,88.70,79.03,13,512,80,140
"Plaridel, Bulacan, Philippines",14.88591,120.85932,Converge,127569,102377,127.57,102.38,7,510,117,177
"General Tinio (Papaya), Nueva Ecija, Philippines",15.36345,121.21685,PLDT,56859,35541,56.86,35.54,12,509,183,263
"Sagay City, Negros Occidental, Philippines",10.84555,123.37106,PLDT,48719,50151,48.72,50.15,9,508,116,168
"La Carlota City, Negros Occidental, Philippines",10.41437,122.97757,PLDT Home Fiber,149863,166477,149.86,166.48,9,507,214,283
"Cabuyao City, Laguna, Philippines",14.27433,121.11961,Globe,124208,111144,124.21,111.14,5,507,137,198
"Iligan City, Lanao del Norte, Philippines",8.22707,124.46418,PLDT,72268,63176,72.27,63.18,21,505,156,228
"Alcala, Cagayan, Philippines",17.90497,121.65113,Converge,94562,94510,94.56,94.51,13,501,112,211
"Dumaguete City, Negros Oriental, Philippines",9.29841,123.29249,PLDT Home Fiber,161129,189310,161.13,189.31,9,501,115,155
"General Luna, Quezon, Philippines",13.69977,122.23135,PLDT Home Fiber,23613,155797,23.61,155.80,18,500,34,43
"Kabankalan City, Negros Occidental, Philippines",9.91341,122.85358,PLDT,66064,62319,66.06,62.32,10,498,86,119
"Ibaan, Batangas, Philippines",13.81895,121.13082,PLDT Home Fiber,96016,112941,96.02,112.94,5,498,125,167
"Toboso, Negros Occidental, Philippines",10.71769,123.46077,PLDT,60659,62008,60.66,62.01,10,497,125,197
"San Ildefonso, Bulacan, Philippines",15.07717,120.94171,PLDT,55927,52707,55.93,52.71,11,496,90,128
"Atimonan, Quezon, Philippines",13.96507,121.87903,PLDT Home Fiber,110626,119746,110.63,119.75,8,494,112,153
"Liloan, Cebu, Philippines",10.39926,124.00002,PLDT,129028,168254,129.03,168.25,4,493,121,156
"La Carlota City, Negros Occidental, Philippines",10.41437,122.97757,PLDT,39988,53326,39.99,53.33,10,493,66,86
"Pandi, Bulacan, Philippines",14.87572,120.95941,PLDT,70841,66295,70.84,66.30,7,492,152,214
"Legazpi City, Albay, Philippines",13.11288,123.76295,Globe,99012,94936,99.01,94.94,21,489,105,142
"Tanza, Cavite, Philippines",14.34293,120.85032,Globe,171676,145724,171.68,145.72,7,489,158,202
"Trece Martires City, Cavite, Philippines",14.28222,120.86837,Globe,122391,111553,122.39,111.55,6,487,118,154
"San Isidro, Bohol, Philippines",9.84036,123.94155,PLDT,39247,45449,39.25,45.45,19,487,111,187
"Pagadian City, Zamboanga del Sur, Philippines",7.86265,123.37106,Globe,118441,68053,118.44,68.05,7,485,92,124
"Paete, Laguna, Philippines",14.37243,121.54842,PLDT,74674,85910,74.67,85.91,10,483,92,121
"Balamban, Cebu, Philippines",10.48585,123.77412,PLDT,54539,58929,54.54,58.93,7,483,128,178
"San Fernando, Pampanga, Philippines",15.02781,120.69349,Globe,81971,80744,81.97,80.74,5,481,123,164
"Mexico, Pampanga, Philippines",15.06457,120.72033,Globe,119214,117218,119.21,117.22,7,481,111,138
"Compostela, Cebu, Philippines",10.45408,124.013,PLDT Home Fiber,148977,161795,148.98,161.80,5,481,174,240
"Muñoz, Nueva Ecija, Philippines",15.70664,120.9029,PLDT Home Fiber,62117,70903,62.12,70.90,13,480,113,164
"Tanay, Rizal, Philippines",14.61419,121.37703,PLDT,78255,62636,78.26,62.64,9,480,166,236
"Gapan City, Nueva Ecija, Philippines",15.29121,121.01057,Converge,98942,116944,98.94,116.94,6,479,103,149
"Libungan, Cotabato, Philippines",7.31637,124.53068,PLDT Home Fiber,123590,100311,123.59,100.31,12,478,53,72
"Jaen, Nueva Ecija, Philippines",15.39558,120.87286,PLDT Home Fiber,95577,80136,95.58,80.14,10,475,135,209
"Aroroy, Masbate, Philippines",12.38843,123.32617,Converge,141083,125659,141.08,125.66,17,473,26,38
"Olongapo City, Zambales, Philippines",14.88739,120.36661,PLDT Home Fiber,93039,77039,93.04,77.04,8,472,159,205
"Biñan, Laguna, Philippines",14.31456,121.08316,Globe,165576,135055,165.58,135.06,7,471,140,196
"San Luis, Aurora, Philippines",15.63572,121.46847,PLDT,65212,52735,65.21,52.74,13,470,53,66
"Maramag, Bukidnon, Philippines",7.82687,124.97271,Globe,58899,21019,58.90,21.02,20,470,84,139
"Guiguinto, Bulacan, Philippines",14.82832,120.88429,PLDT,93719,94655,93.72,94.66,6,468,143,229
"Tanauan City, Batangas, Philippines",14.08354,121.14762,Globe,151638,143619,151.64,143.62,6,467,152,226
"Daraga, Albay, Philippines",13.12278,123.69588,PLDT,138233,128729,138.23,128.73,8,467,107,124
"Santa Rosa, Nueva Ecija, Philippines",15.42502,120.93838,PLDT Home Fiber,94500,96941,94.50,96.94,11,466,112,155
"Kumalarang, Zamboanga del Sur, Philippines",7.7703,123.1464,PLDT,62785,58402,62.79,58.40,20,464,138,201
"Ozamiz, Misamis Occidental, Philippines",8.15,123.85033,PLDT Home Fiber,75769,73658,75.77,73.66,7,463,69,106
"Barotac Viejo, Iloilo, Philippines",11.10187,122.87613,PLDT,33809,33962,33.81,33.96,11,463,62,88
"Ibaan, Batangas, Philippines",13.81895,121.13082,Globe,133822,123342,133.82,123.34,8,462,181,269
"San Carlos City, Negros Occidental, Philippines",10.48344,123.30371,Converge,56128,55548,56.13,55.55,12,460,40,57
"Umingan, Pangasinan, Philippines",15.90396,120.82692,PLDT Home Fiber,94547,102637,94.55,102.64,8,459,123,213
"Bula, Camarines Sur, Philippines",13.44119,123.23632,PLDT Home Fiber,75825,94025,75.83,94.03,9,458,55,72
"Tanay, Rizal, Philippines",14.61419,121.37703,PLDT Home Fiber,122813,125842,122.81,125.84,5,456,73,117
"Tacloban City, Leyte, Philippines",11.22238,124.99221,Globe,120150,93670,120.15,93.67,15,455,105,133
"Butuan City, Agusan Del Norte, Philippines",8.94753,125.54063,Converge,139460,113966,139.46,113.97,10,455,83,111
"Matalam, Cotabato, Philippines",7.17236,124.92861,PLDT,100144,99235,100.14,99.24,11,455,173,244
"Dona Remedios Trinidad, Bulacan, Philippines",15.11427,121.21685,PLDT,52945,27124,52.95,27.12,11,454,154,210
"San Luis, Pampanga, Philippines",15.03986,120.81544,PLDT Home Fiber,94469,96240,94.47,96.24,8,453,129,211
"Nagcarlan, Laguna, Philippines",14.14903,121.38847,PLDT,85809,87894,85.81,87.89,11,452,146,197
"Cavinti, Laguna, Philippines",14.24907,121.54842,Globe,115300,110885,115.30,110.89,6,452,144,246
"Puerto Princesa City, Palawan, Philippines",9.78563,118.62648,Globe,99193,96309,99.19,96.31,15,450,112,173
"Olongapo City, Zambales, Philippines",14.88739,120.36661,PLDT,111166,81176,111.17,81.18,6,448,130,182
"Santo Tomas, Batangas, Philippines",14.08754,121.17764,PLDT,80511,80736,80.51,80.74,8,445,158,222
"Alcala, Pangasinan, Philippines",15.8546,120.53942,PLDT Home Fiber,145297,153569,145.30,153.57,10,444,134,193
"Bagabag, Nueva Vizcaya, Philippines",16.58337,121.28552,PLDT Home Fiber,90004,94231,90.00,94.23,8,444,57,101
"Consolacion, Cebu, Philippines",10.37581,123.95694,Converge,165075,182869,165.08,182.87,3,441,122,168
"Mangaldan, Pangasinan, Philippines",16.06513,120.40474,PLDT Home Fiber,136455,111401,136.46,111.40,8,440,103,159
"Tanza, Cavite, Philippines",14.34293,120.85032,PLDT,97089,98729,97.09,98.73,7,440,93,128
"Carmona, Cavite, Philippines",14.3135,121.05712,Globe,123555,106999,123.56,107.00,6,440,149,223
"Bamban, Tarlac, Philippines",15.2885,120.57044,PLDT Home Fiber,93968,102023,93.97,102.02,9,438,106,167
"Carmen, Cotabato, Philippines",7.38261,124.81826,PLDT Home Fiber,93376,94514,93.38,94.51,10,436,146,221
"Ozamiz, Misamis Occidental, Philippines",8.15,123.85033,Globe,99853,49155,99.85,49.16,14,436,52,75
"Indang, Cavite, Philippines",14.19204,120.87286,Globe,62543,53642,62.54,53.64,6,436,135,240
"Agoncillo, Batangas, Philippines",13.94675,120.93026,Globe,292773,253263,292.77,253.26,6,435,145,222
"Asingan, Pangasinan, Philippines",16.00318,120.67063,PLDT Home Fiber,157537,151301,157.54,151.30,7,435,127,198
"Rodriguez, Rizal, Philippines",14.73202,121.14516,Globe,139216,116870,139.22,116.87,4,434,99,145
"Urdaneta City, Pangasinan, Philippines",15.98194,120.59698,PLDT Home Fiber,100833,104055,100.83,104.06,8,434,130,192
"Paracale, Camarines Norte, Philippines",14.23721,122.78588,PLDT Home Fiber,57668,52325,57.67,52.33,8,433,45,61
"Bagulin, La Union, Philippines",16.59753,120.49336,PLDT Home Fiber,101050,106380,101.05,106.38,5,433,121,197
"Sultan Kudarat (Nuling), Maguindanao, Philippines",7.26221,124.30883,PLDT Home Fiber,56383,79998,56.38,80.00,13,433,60,92
"Bocaue, Bulacan, Philippines",14.7943,120.93073,PLDT,85905,81099,85.91,81.10,9,431,125,194
"Rodriguez, Rizal, Philippines",14.73202,121.14516,PLDT,61693,57910,61.69,57.91,5,430,84,121
"Mayoyao, Ifugao, Philippines",16.95131,121.21685,PLDT Home Fiber,111358,108051,111.36,108.05,10,430,147,243
"Tiaong, Quezon, Philippines",13.92962,121.34273,PLDT Home Fiber,109198,120423,109.20,120.42,4,429,106,151
"Jaen, Nueva Ecija, Philippines",15.39558,120.87286,PLDT,38471,38479,38.47,38.48,18,428,136,213
"Rosario, Cavite, Philippines",14.41672,120.85471,PLDT Home Fiber,78556,81060,78.56,81.06,5,427,103,142
"Talavera, Nueva Ecija, Philippines",15.58575,120.9197,PLDT Home Fiber,49004,72767,49.00,72.77,11,426,86,127
"Angeles, Pampanga, Philippines",15.16061,120.60908,Globe,119784,111054,119.78,111.05,5,426,152,207
"Consolacion, Cebu, Philippines",10.37581,123.95694,PLDT Home Fiber,123056,146479,123.06,146.48,4,426,106,142
"Lobo, Batangas, Philippines",13.6877,121.23974,PLDT Home Fiber,173297,188550,173.30,188.55,5,425,122,184
"Pilar, Bataan, Philippines",14.60553,120.51639,PLDT Home Fiber,43186,151865,43.19,151.87,10,424,79,108
"Naic, Cavite, Philippines",14.29649,120.79246,Converge,110621,112173,110.62,112.17,5,424,94,133
"Asturias, Cebu, Philippines",10.60209,123.77412,PLDT Home Fiber,87183,89246,87.18,89.25,6,423,56,81
"Paniqui, Tarlac, Philippines",15.66603,120.53942,PLDT Home Fiber,91473,95382,91.47,95.38,11,423,115,147
"Rizal, Laguna, Philippines",14.08408,121.41133,PLDT Home Fiber,163004,196256,163.00,196.26,8,423,151,235
"Trece Martires City, Cavite, Philippines",14.28222,120.86837,Converge,167615,178963,167.62,178.96,5,423,139,171
"Nabua, Camarines Sur, Philippines",13.4069,123.37324,PLDT Home Fiber,93397,93907,93.40,93.91,8,422,97,136
"Cabatuan, Iloilo, Philippines",10.87914,122.48206,PLDT,80631,78826,80.63,78.83,11,422,111,170
"La Paz, Tarlac, Philippines",15.4497,120.7235,PLDT Home Fiber,92445,92753,92.45,92.75,9,421,120,184
"Daraga, Albay, Philippines",13.12278,123.69588,Globe,111175,91086,111.18,91.09,23,421,65,96
"Ormoc City, Leyte, Philippines",11.03843,124.61927,PLDT Home Fiber,75279,73509,75.28,73.51,5,419,102,133
"Lambayong (Mariano Marcos), Sultan Kudarat, Philippines",6.79879,124.61927,PLDT Home Fiber,36019,31236,36.02,31.24,13,417,52,72
"Pili, Camarines Sur, Philippines",13.55521,123.28126,PLDT,33654,32466,33.65,32.47,15,413,65,97
"Mabitac, Laguna, Philippines",14.43383,121.41133,Converge,93446,81826,93.45,81.83,11,412,103,155
"Sapang Dalaga, Misamis Occidental, Philippines",8.52815,123.584,PLDT Home Fiber,125381,129693,125.38,129.69,9,410,47,72
"Himamaylan, Negros Occidental, Philippines",10.10162,122.86995,PLDT Home Fiber,52645,54726,52.65,54.73,13,409,51,70
"Balayan, Batangas, Philippines",13.94995,120.72973,PLDT Home Fiber,99934,174960,99.93,174.96,9,409,60,85
"Baliwag, Bulacan, Philippines",14.96569,120.89431,Globe,192630,180240,192.63,180.24,8,409,90,121
"Samal, Davao del Norte, Philippines",7.08352,125.70578,PLDT Home Fiber,94511,87848,94.51,87.85,9,408,77,102
"Santa Teresita, Batangas, Philippines",13.88153,120.97329,Globe,318971,297319,318.97,297.32,6,408,107,172
"Kalibo, Aklan, Philippines",11.70734,122.36986,Converge,89143,76130,89.14,76.13,14,407,71,102
"Sorsogon City, Sorsogon, Philippines",12.97888,123.98477,Converge,91081,87844,91.08,87.84,16,405,53,87
"Balanga City, Bataan, Philippines",14.67454,120.47033,Converge,160731,178965,160.73,178.97,5,405,104,148
"Guimba, Nueva Ecija, Philippines",15.65641,120.76767,Converge,100449,94654,100.45,94.65,5,404,110,156
"Escalante City, Negros Occidental, Philippines",10.84117,123.49908,PLDT,74124,87530,74.12,87.53,9,402,79,116
"Bamban, Tarlac, Philippines",15.2885,120.57044,Converge,135833,133137,135.83,133.14,3,401,161,195
"San Mateo, Rizal, Philippines",14.69539,121.11767,Globe,160953,121141,160.95,121.14,5,400,110,138
"Toboso, Negros Occidental, Philippines",10.71769,123.46077,Globe,19688,5900,19.69,5.90,43,400,121,254
"Norzagaray, Bulacan, Philippines",14.89659,121.14813,Converge,125154,128117,125.15,128.12,7,398,75,109
"Balete, Batangas, Philippines",14.0092,121.10802,PLDT,193244,156590,193.24,156.59,8,397,135,197
"Antipas, Cotabato, Philippines",7.27386,125.01679,PLDT Home Fiber,99085,95004,99.09,95.00,8,397,128,185
"Malay, Aklan, Philippines",11.93033,121.95191,PLDT Home Fiber,114155,68704,114.16,68.70,27,396,26,43
"Tuba, Benguet, Philippines",16.39277,120.56034,PLDT Home Fiber,95828,97809,95.83,97.81,7,395,106,183
"Puerto Princesa City, Palawan, Philippines",9.78563,118.62648,Converge,87380,96918,87.38,96.92,14,394,122,165
"Binmaley, Pangasinan, Philippines",16.02892,120.26882,PLDT,81805,93622,81.81,93.62,10,394,101,139
"Aringay, La Union, Philippines",16.40163,120.40119,PLDT,53152,56393,53.15,56.39,8,392,107,138
"Kadingilan, Bukidnon, Philippines",7.53321,124.87345,PLDT Home Fiber,92051,94393,92.05,94.39,11,392,76,117
"Baliwag, Bulacan, Philippines",14.96569,120.89431,Converge,106308,94480,106.31,94.48,7,391,103,147
"Oton, Iloilo, Philippines",10.69251,122.47868,PLDT Home Fiber,88700,90605,88.70,90.61,11,391,70,89
"Natividad, Pangasinan, Philippines",16.03821,120.83841,PLDT Home Fiber,92709,94665,92.71,94.67,8,390,105,175
"Laoag City, Ilocos Norte, Philippines",18.21075,120.58547,PLDT Home Fiber,113253,105395,113.25,105.40,9,390,112,162
"San Ildefonso, Bulacan, Philippines",15.07717,120.94171,Globe,281272,238077,281.27,238.08,6,389,137,217
"Dapitan City, Zamboanga del Norte, Philippines",8.58118,123.42714,PLDT Home Fiber,109459,86921,109.46,86.92,9,387,64,93
"Pontevedra, Negros Occidental, Philippines",10.35266,122.92123,PLDT,84434,89229,84.43,89.23,17,386,140,189
"Malvar, Batangas, Philippines",14.04329,121.15875,PLDT,98463,95328,98.46,95.33,10,386,115,171
"General Mariano Alvarez, Cavite, Philippines",14.29525,121.0071,Converge,216437,194978,216.44,194.98,6,384,88,144
"Midsayap, Cotabato, Philippines",7.19181,124.53474,PLDT Home Fiber,90809,94291,90.81,94.29,13,384,108,142
"Pavia, Iloilo, Philippines",10.7748,122.54261,PLDT,91211,98883,91.21,98.88,11,384,143,192
"San Carlos City, Pangasinan, Philippines",15.92589,120.34827,Converge,97026,107756,97.03,107.76,6,383,79,97
"Valencia City, Bukidnon, Philippines",7.86319,125.17087,Converge,101518,106221,101.52,106.22,10,381,93,131
"Alabel, Sarangani, Philippines",6.10416,125.28792,PLDT Home Fiber,81190,88038,81.19,88.04,11,380,90,138
"Camiling, Tarlac, Philippines",15.67495,120.41272,PLDT Home Fiber,54543,71876,54.54,71.88,12,379,38,59
"San Rafael, Bulacan, Philippines",15.00184,120.93141,Converge,94421,91721,94.42,91.72,7,378,71,115
"Carmen, Cebu, Philippines",10.58876,123.96385,PLDT,73198,86549,73.20,86.55,12,378,84,105
"Floridablanca, Pampanga, Philippines",14.9619,120.49471,Converge,109134,108364,109.13,108.36,4,377,99,131
"City Of Bislig, Surigao del Sur, Philippines",8.21006,126.28478,PLDT Home Fiber,50712,114078,50.71,114.08,11,376,59,78
"Bula, Camarines Sur, Philippines",13.44119,123.23632,PLDT,28522,35442,28.52,35.44,18,376,20,25
"Mambusao, Capiz, Philippines",11.44257,122.59383,PLDT,92373,95512,92.37,95.51,11,376,114,165
"Trece Martires City, Cavite, Philippines",14.28222,120.86837,PLDT,83191,91367,83.19,91.37,6,375,102,134
"Guimba, Nueva Ecija, Philippines",15.65641,120.76767,PLDT Home Fiber,78806,87417,78.81,87.42,12,374,111,180
"Pantukan, Davao de Oro, Philippines",7.20012,126.04584,PLDT Home Fiber,34785,44070,34.79,44.07,14,374,45,64
"Binangonan, Rizal, Philippines",14.48441,121.1869,Converge,149210,178531,149.21,178.53,4,374,134,165
"San Miguel, Bulacan, Philippines",15.14158,120.9751,Converge,90669,105613,90.67,105.61,6,373,87,119
"Baras, Rizal, Philippines",14.53656,121.27408,PLDT Home Fiber,63896,78234,63.90,78.23,4,372,58,78
"Nasugbu, Batangas, Philippines",14.09404,120.68901,PLDT,92386,94798,92.39,94.80,10,371,99,158
"Moises Padilla, Negros Occidental, Philippines",10.26269,123.11266,PLDT Home Fiber,88213,93939,88.21,93.94,11,371,62,103
"Tagbilaran City, Bohol, Philippines",9.6534,123.86703,Converge,143133,150551,143.13,150.55,26,371,112,149
"Kidapawan, Cotabato, Philippines",7.02127,125.09019,Converge,100492,97467,100.49,97.47,5,371,90,115
"Sibalom, Antique, Philippines",10.76502,122.06102,PLDT Home Fiber,102195,88364,102.20,88.36,11,369,36,44
"Tagbilaran City, Bohol, Philippines",9.6534,123.86703,Globe,157913,127826,157.91,127.83,12,368,84,100
"Valencia City, Bukidnon, Philippines",7.86319,125.17087,PLDT Home Fiber,97439,91632,97.44,91.63,5,368,68,89
"Toledo, Cebu, Philippines",10.38705,123.65017,PLDT Home Fiber,72021,89886,72.02,89.89,6,368,100,136
"Pateros, Metro Manila, Philippines",14.54838,121.07077,PLDT Home Fiber,160971,155500,160.97,155.50,3,367,121,148
"Lambunao, Iloilo, Philippines",11.12265,122.37876,PLDT,63517,52156,63.52,52.16,10,366,126,179
"Tubungan, Iloilo, Philippines",10.80645,122.29941,PLDT,37402,48032,37.40,48.03,16,366,112,162
"Labason, Zamboanga del Norte, Philippines",8.01373,122.51464,PLDT Home Fiber,34852,28511,34.85,28.51,15,365,23,28
"Cotabato City, Maguindanao, Philippines",7.20467,124.23104,Globe,97137,36726,97.14,36.73,13,363,42,60
"Cauayan City, Isabela, Philippines",16.91662,121.78792,PLDT Home Fiber,95410,118478,95.41,118.48,13,363,112,152
"Nasugbu, Batangas, Philippines",14.09404,120.68901,PLDT Home Fiber,91678,99096,91.68,99.10,9,362,75,105
"City of Mati, Davao Oriental, Philippines",6.95722,126.15454,Globe,79410,66727,79.41,66.73,15,361,57,84
"Noveleta, Cavite, Philippines",14.42785,120.88009,PLDT Home Fiber,131635,135938,131.64,135.94,7,361,131,180
"Siniloan, Laguna, Philippines",14.43831,121.48561,Converge,169737,199444,169.74,199.44,10,360,73,117
"Victorias, Negros Occidental, Philippines",10.901,123.07045,PLDT Home Fiber,128645,94352,128.65,94.35,11,360,89,141
"Tigaon, Camarines Sur, Philippines",13.61703,123.47198,PLDT Home Fiber,98052,94109,98.05,94.11,7,360,35,45
"Rosario, Cavite, Philippines",14.41672,120.85471,PLDT,58728,68976,58.73,68.98,7,359,122,157
"Isabela, Negros Occidental, Philippines",10.22566,123.01136,PLDT Home Fiber,157528,156151,157.53,156.15,12,358,58,80
"Aliaga, Nueva Ecija, Philippines",15.51204,120.86138,PLDT Home Fiber,80235,92116,80.24,92.12,11,358,112,164
"Naval, Biliran, Philippines",11.56681,124.44201,Globe,136078,117974,136.08,117.97,12,358,55,63
"Amadeo, Cavite, Philippines",14.18985,120.92452,PLDT,178088,195438,178.09,195.44,9,358,98,134
"Polomolok, South Cotabato, Philippines",6.22451,125.06084,Globe,82975,90346,82.98,90.35,13,357,71,85
"Sogod, Southern Leyte, Philippines",10.44929,125.01679,PLDT Home Fiber,78144,106359,78.14,106.36,7,357,34,41
"Limay, Bataan, Philippines",14.53661,120.56245,Converge,98577,116491,98.58,116.49,12,355,94,134
"Pulilan, Bulacan, Philippines",14.90243,120.8459,PLDT,93334,94245,93.33,94.25,6,355,98,155
"Moalboal, Cebu, Philippines",9.93681,123.42714,Globe,72083,70423,72.08,70.42,12,353,85,136
"Bambang, Nueva Vizcaya, Philippines",16.40415,121.10229,PLDT Home Fiber,98500,89852,98.50,89.85,7,353,47,62
"Naga, Cebu, Philippines",10.20764,123.75821,PLDT,78291,78422,78.29,78.42,4,352,91,126
"Alaminos City, Pangasinan, Philippines",16.15053,119.98562,PLDT Home Fiber,83562,96880,83.56,96.88,8,351,82,107
"Palayan City, Nueva Ecija, Philippines",15.53906,121.09083,PLDT Home Fiber,100049,94172,100.05,94.17,11,351,51,82
"Arakan, Cotabato, Philippines",7.35122,125.17087,Globe,140891,159423,140.89,159.42,3,350,141,171
"Tacloban City, Leyte, Philippines",11.22238,124.99221,PLDT Home Fiber,98389,93445,98.39,93.45,6,348,78,108
"San Jose, Batangas, Philippines",13.87868,121.09942,PLDT Home Fiber,114839,124219,114.84,124.22,7,348,96,154
"Naujan, Oriental Mindoro, Philippines",13.24381,121.19395,PLDT Home Fiber,84952,93985,84.95,93.99,7,347,61,81
"Kiamba, Sarangani, Philippines",6.00076,124.70777,PLDT,16525,16922,16.53,16.92,19,347,35,47
"Aguinaldo, Ifugao, Philippines",16.95291,121.33129,PLDT Home Fiber,92657,94169,92.66,94.17,11,345,81,148
"Santa Cruz, Laguna, Philippines",14.26911,121.41133,PLDT,97671,99759,97.67,99.76,11,344,112,154
"Marilao, Bulacan, Philippines",14.77237,120.96001,PLDT,57793,49714,57.79,49.71,9,344,131,193
"Naga, Cebu, Philippines",10.20764,123.75821,Globe,225458,173938,225.46,173.94,17,344,145,179
"Bauang, La Union, Philippines",16.51433,120.35508,PLDT Home Fiber,91010,93772,91.01,93.77,3,343,59,74
"Mabalacat City, Pampanga, Philippines",15.24525,120.56567,Globe,117531,105826,117.53,105.83,4,343,79,107
"Gapan City, Nueva Ecija, Philippines",15.29121,121.01057,Globe,118308,105875,118.31,105.88,4,343,123,172
"General Mariano Alvarez, Cavite, Philippines",14.29525,121.0071,Globe,136894,114907,136.89,114.91,5,342,90,144
"Maramag, Bukidnon, Philippines",7.82687,124.97271,PLDT Home Fiber,103018,97615,103.02,97.62,8,342,118,166
"San Mateo, Isabela, Philippines",16.87673,121.59408,PLDT Home Fiber,56802,47108,56.80,47.11,13,342,60,84
"San Fabian, Pangasinan, Philippines",16.14188,120.44729,PLDT,89356,91854,89.36,91.85,5,342,81,131
"Sogod, Cebu, Philippines",10.77419,123.9527,Globe,109699,102582,109.70,102.58,20,341,140,192
"Alimodian, Iloilo, Philippines",10.85495,122.39009,PLDT,57483,67618,57.48,67.62,8,341,29,41
"Santa Cruz, Davao del Sur, Philippines",6.83551,125.41659,PLDT Home Fiber,111491,94654,111.49,94.65,9,341,61,82
"Rizal, Nueva Ecija, Philippines",15.69357,121.10229,PLDT,56245,60164,56.25,60.16,7,340,81,128
"Maasin, Southern Leyte, Philippines",10.13272,124.84081,PLDT Home Fiber,164666,160896,164.67,160.90,9,339,57,74
"Samal, Bataan, Philippines",14.77188,120.51639,PLDT Home Fiber,61946,50036,61.95,50.04,9,338,41,50
"Brooke's Point, Palawan, Philippines",8.78617,117.83817,PLDT Home Fiber,58202,56271,58.20,56.27,18,336,40,55
"Baao, Camarines Sur, Philippines",13.49319,123.35984,PLDT,53625,60056,53.63,60.06,12,336,37,53
"Abucay, Bataan, Philippines",14.73361,120.49336,PLDT Home Fiber,22265,149301,22.27,149.30,12,334,56,73
"Dinalupihan, Bataan, Philippines",14.88605,120.44729,Converge,103960,103228,103.96,103.23,6,334,82,117
"Dumaguete City, Negros Oriental, Philippines",9.29841,123.29249,Converge,156686,94189,156.69,94.19,21,332,85,120
"Isulan, Sultan Kudarat, Philippines",6.6318,124.44201,PLDT,99012,93752,99.01,93.75,14,330,78,111
"Bayombong, Nueva Vizcaya, Philippines",16.48042,121.14813,Converge,92873,94344,92.87,94.34,11,330,101,159
"Pavia, Iloilo, Philippines",10.7748,122.54261,PLDT Home Fiber,174844,186651,174.84,186.65,10,328,105,137
"Alfonso Lista, Ifugao, Philippines",16.98852,121.49132,PLDT Home Fiber,87969,96837,87.97,96.84,12,325,83,146
"Bokod, Benguet, Philippines",16.45641,120.78097,PLDT,85229,94307,85.23,94.31,6,322,101,160
"Sagbayan, Bohol, Philippines",9.91005,124.08641,PLDT,46133,35172,46.13,35.17,19,321,64,92
"Pili, Camarines Sur, Philippines",13.55521,123.28126,Converge,97791,91067,97.79,91.07,4,321,86,133
"Gingoog City, Misamis Oriental, Philippines",8.81446,125.10406,PLDT Home Fiber,63278,70190,63.28,70.19,7,320,58,76
"Natividad, Pangasinan, Philippines",16.03821,120.83841,PLDT,93757,94082,93.76,94.08,6,320,100,174
"Malaybalay City, Bukidnon, Philippines",8.15775,125.17087,PLDT,84173,50712,84.17,50.71,9,320,116,169
"Moncada, Tarlac, Philippines",15.73756,120.55094,PLDT Home Fiber,92376,90692,92.38,90.69,11,319,86,123
"Pinamungahan, Cebu, Philippines",10.26958,123.63996,PLDT,94350,93721,94.35,93.72,6,319,35,43
"San Carlos City, Pangasinan, Philippines",15.92589,120.34827,Globe,92197,98637,92.20,98.64,4,319,33,44
"Calatrava, Negros Occidental, Philippines",10.62843,123.39349,Globe,24492,5845,24.49,5.85,37,319,60,153
"Calauan, Laguna, Philippines",14.14551,121.3146,PLDT,43605,46083,43.61,46.08,18,318,42,61
"Tagbina, Surigao del Sur, Philippines",8.43879,126.19798,PLDT Home Fiber,70435,70009,70.44,70.01,8,317,78,105
"Calumpit, Bulacan, Philippines",14.91518,120.7662,Converge,112581,106190,112.58,106.19,6,316,91,129
"San Pascual, Batangas, Philippines",13.81044,121.02204,PLDT Home Fiber,104713,105927,104.71,105.93,7,316,84,118
"Manapla, Negros Occidental, Philippines",10.95795,123.12428,PLDT Home Fiber,90457,93776,90.46,93.78,8,316,59,89
"Boac, Marinduque, Philippines",13.39413,121.87903,PLDT Home Fiber,81064,95892,81.06,95.89,9,316,66,91
"Batangas City, Batangas, Philippines",13.75641,121.05833,Converge,182343,179580,182.34,179.58,7,314,96,161
"Kalibo, Aklan, Philippines",11.70734,122.36986,Globe,117327,96436,117.33,96.44,15,314,70,96
"Panglao, Bohol, Philippines",9.56947,123.78721,PLDT,56037,62457,56.04,62.46,12,314,66,110
"Bayambang, Pangasinan, Philippines",15.80947,120.45714,PLDT Home Fiber,132266,134071,132.27,134.07,13,314,92,125
"Panabo City, Davao del Norte, Philippines",7.30822,125.68662,Globe,129894,123146,129.89,123.15,6,313,58,72
"Old Kaabakan, Philippines",7.22147,124.85635,PLDT Home Fiber,100248,96690,100.25,96.69,9,313,100,157
"Mabalacat City, Pampanga, Philippines",15.24525,120.56567,PLDT,69200,80480,69.20,80.48,9,313,77,106
"Pagbilao, Quezon, Philippines",13.99683,121.73095,PLDT Home Fiber,105210,128123,105.21,128.12,3,313,96,132
"Teresa, Rizal, Philippines",14.5597,121.20593,PLDT Home Fiber,167789,123848,167.79,123.85,4,313,84,131
"Tagaytay City, Cavite, Philippines",14.11541,120.96202,PLDT Home Fiber,41106,24710,41.11,24.71,7,312,118,161
"Angat, Bulacan, Philippines",14.92586,121.02204,Converge,94842,94552,94.84,94.55,7,312,43,71
"Nasugbu, Batangas, Philippines",14.09404,120.68901,Converge,107633,113463,107.63,113.46,6,311,94,142
"Santo Domingo, Nueva Ecija, Philippines",15.61284,120.88434,PLDT,94264,79072,94.26,79.07,14,311,85,122
"Balanga City, Bataan, Philippines",14.67454,120.47033,PLDT,91737,90145,91.74,90.15,8,311,95,130
"Malolos, Bulacan, Philippines",14.86049,120.80916,Globe,123631,108976,123.63,108.98,7,310,93,119
"Carcar, Cebu, Philippines",10.10478,123.64147,PLDT Home Fiber,97868,88902,97.87,88.90,4,310,49,70
"Kumalarang, Zamboanga del Sur, Philippines",7.7703,123.1464,PLDT Home Fiber,93365,94587,93.37,94.59,8,309,79,121
"Victoria, Laguna, Philippines",14.19678,121.34273,PLDT Home Fiber,155552,168740,155.55,168.74,6,309,57,77
"Tupi, South Cotabato, Philippines",6.33849,124.97271,PLDT Home Fiber,77721,79870,77.72,79.87,12,309,50,74
"Camalig, Albay, Philippines",13.14101,123.63996,Converge,78055,82492,78.06,82.49,13,308,46,76
"Bustos, Bulacan, Philippines",14.95239,120.91735,PLDT,99901,83082,99.90,83.08,11,308,86,131
"Molave, Zamboanga del Sur, Philippines",8.10419,123.4944,PLDT Home Fiber,44535,47904,44.54,47.90,11,308,55,76
"Zamboanga City, Zamboanga del Sur, Philippines",6.90437,122.07612,PLDT,46114,47167,46.11,47.17,21,305,75,122
"Minglanilla, Cebu, Philippines",10.24543,123.79599,Globe,171703,136515,171.70,136.52,9,305,97,121
"Pulilan, Bulacan, Philippines",14.90243,120.8459,Converge,62101,56068,62.10,56.07,6,305,100,137
"Sasmuan, Pampanga, Philippines",14.88764,120.61424,PLDT,72417,76865,72.42,76.87,10,303,92,139
"Ormoc City, Leyte, Philippines",11.03843,124.61927,PLDT,24239,28336,24.24,28.34,6,303,48,82
"San Andres, Catanduanes, Philippines",13.6332,124.08641,PLDT,46175,51511,46.18,51.51,11,303,47,56
"Alangalang, Leyte, Philippines",11.23565,124.88449,PLDT,28816,27615,28.82,27.62,23,303,89,135
"El Nido, Palawan, Philippines",11.19892,119.42317,PLDT,47375,53471,47.38,53.47,32,301,47,91
"Hinigaran, Negros Occidental, Philippines",10.27479,122.92123,PLDT Home Fiber,81711,85478,81.71,85.48,13,301,51,67
"Talisay, Negros Occidental, Philippines",10.74828,122.98012,Globe,184918,140781,184.92,140.78,8,301,87,124
"City of Baybay, Leyte, Philippines",10.66858,124.80409,Globe,93758,86142,93.76,86.14,11,300,59,72
"Marawi City, Lanao del Sur, Philippines",8.0292,124.29772,PLDT,49560,35761,49.56,35.76,21,300,91,143
"Tanauan City, Batangas, Philippines",14.08354,121.14762,Converge,122820,119680,122.82,119.68,7,299,81,121
"Hinunangan, Southern Leyte, Philippines",10.39458,125.14888,PLDT,54136,75370,54.14,75.37,8,298,44,57
"Roxas City, Capiz, Philippines",11.55288,122.74072,Converge,87035,80951,87.04,80.95,12,298,67,109
"Norala, South Cotabato, Philippines",6.5061,124.66353,PLDT Home Fiber,40121,39843,40.12,39.84,14,298,28,37
"Noveleta, Cavite, Philippines",14.42785,120.88009,PLDT,87796,92858,87.80,92.86,8,298,56,101
"Mallig, Isabela, Philippines",17.15803,121.61307,PLDT Home Fiber,33948,47996,33.95,48.00,13,297,61,78
"Aritao, Nueva Vizcaya, Philippines",16.2515,121.01057,PLDT,78182,93093,78.18,93.09,7,297,67,117
"Lala, Lanao del Norte, Philippines",7.9486,123.76295,PLDT Home Fiber,37532,37414,37.53,37.41,8,295,49,58
"Sariaya, Quezon, Philippines",13.96301,121.52388,PLDT,90936,68886,90.94,68.89,8,295,98,152
"San Juan, Batangas, Philippines",13.75044,121.37703,Converge,120014,108622,120.01,108.62,7,294,92,140
"Sibulan, Negros Oriental, Philippines",9.35972,123.28476,Globe,75509,71296,75.51,71.30,10,293,76,98
"San Leonardo, Nueva Ecija, Philippines",15.37285,120.95321,PLDT,45589,49172,45.59,49.17,12,293,76,119
"Orani, Bataan, Philippines",14.80086,120.53616,PLDT Home Fiber,40472,146538,40.47,146.54,10,293,52,63
"Tagum, Davao del Norte, Philippines",7.44742,125.80246,PLDT,87987,75636,87.99,75.64,9,293,77,113
"Santo Tomas, Batangas, Philippines",14.08754,121.17764,Globe,91378,80035,91.38,80.04,8,292,92,115
"Talavera, Nueva Ecija, Philippines",15.58575,120.9197,Globe,134304,217837,134.30,217.84,6,292,81,126
"San Isidro, Nueva Ecija, Philippines",15.29656,120.9073,Globe,123939,112005,123.94,112.01,5,291,70,98
"Catarman, Northern Samar, Philippines",12.44271,124.61927,PLDT Home Fiber,90125,106517,90.13,106.52,10,290,68,92
"City of Catbalogan, Samar, Philippines",11.85683,124.88449,Globe,86309,83454,86.31,83.45,14,290,74,105
"Ipil, Zamboanga Sibugay, Philippines",7.77318,122.57121,PLDT,77074,81059,77.07,81.06,21,290,61,81
"Guimba, Nueva Ecija, Philippines",15.65641,120.76767,PLDT,85575,93697,85.58,93.70,12,290,37,55
"Nabua, Camarines Sur, Philippines",13.4069,123.37324,Converge,134289,143866,134.29,143.87,4,290,29,54
"Cuyapo, Nueva Ecija, Philippines",15.79995,120.68901,PLDT Home Fiber,126252,111046,126.25,111.05,11,290,58,93
"Ipil, Zamboanga Sibugay, Philippines",7.77318,122.57121,Globe,59474,66689,59.47,66.69,12,290,46,62
"Canaman, Camarines Sur, Philippines",13.64758,123.13515,PLDT,67451,85771,67.45,85.77,14,289,31,39
"Rizal, Nueva Ecija, Philippines",15.69357,121.10229,PLDT Home Fiber,75361,81084,75.36,81.08,7,289,56,86
"Maitum, Sarangani, Philippines",6.12408,124.48636,PLDT,11005,15587,11.01,15.59,14,289,32,55
"Cordon, Isabela, Philippines",16.67835,121.46847,PLDT Home Fiber,102485,94286,102.49,94.29,13,287,70,124
"Norzagaray, Bulacan, Philippines",14.89659,121.14813,PLDT,69801,55046,69.80,55.05,6,287,77,104
"Masbate City, Masbate, Philippines",12.31777,123.55041,PLDT,62233,56628,62.23,56.63,20,287,70,99
"Santo Nino, South Cotabato, Philippines",6.44221,124.67459,PLDT Home Fiber,62675,44905,62.68,44.91,12,287,37,55
"Sorsogon City, Sorsogon, Philippines",12.97888,123.98477,Globe,105519,58612,105.52,58.61,22,286,23,30
"Malay, Aklan, Philippines",11.93033,121.95191,Converge,74463,55544,74.46,55.54,15,286,76,132
"Floridablanca, Pampanga, Philippines",14.9619,120.49471,PLDT,47469,48946,47.47,48.95,15,286,84,123
"Gattaran, Cagayan, Philippines",18.07365,121.87903,PLDT,54586,60686,54.59,60.69,17,285,57,79
"Penaranda, Nueva Ecija, Philippines",15.36229,121.02204,PLDT Home Fiber,89493,79273,89.49,79.27,12,284,65,109
"Padre Garcia, Batangas, Philippines",13.87668,121.24547,Globe,108863,105844,108.86,105.84,7,284,97,150
"Burauen, Leyte, Philippines",10.97109,124.84034,PLDT,51499,51842,51.50,51.84,17,282,50,67
"Imelda, Zamboanga Sibugay, Philippines",7.62787,122.95503,PLDT Home Fiber,94050,51744,94.05,51.74,9,282,23,26
"General Mariano Alvarez, Cavite, Philippines",14.29525,121.0071,PLDT Home Fiber,152671,159525,152.67,159.53,6,281,78,89
"San Fernando City, La Union, Philippines",16.61592,120.32102,Converge,115454,120086,115.45,120.09,4,281,87,123
"Labo, Camarines Norte, Philippines",14.13903,122.7633,PLDT,38406,36305,38.41,36.31,13,280,49,63
"Muñoz, Nueva Ecija, Philippines",15.70664,120.9029,Converge,100628,122795,100.63,122.80,5,280,57,83
"Polanco, Zamboanga del Norte, Philippines",8.49106,123.38228,PLDT Home Fiber,95937,92889,95.94,92.89,10,279,50,64
"Rosales, Pangasinan, Philippines",15.86126,120.63149,PLDT,53132,44578,53.13,44.58,19,279,69,103
"Alaminos City, Pangasinan, Philippines",16.15053,119.98562,Converge,163478,158046,163.48,158.05,6,279,69,85
"Zaragoza, Nueva Ecija, Philippines",15.46003,120.79246,PLDT Home Fiber,94001,106613,94.00,106.61,10,279,84,117
"Floridablanca, Pampanga, Philippines",14.9619,120.49471,PLDT Home Fiber,98700,96593,98.70,96.59,11,277,76,104
"Lucban, Quezon, Philippines",14.1144,121.55472,Converge,95203,96455,95.20,96.46,7,276,69,104
"San Simon, Pampanga, Philippines",14.98432,120.75127,PLDT,62320,71049,62.32,71.05,12,276,80,122
"Tuburan, Cebu, Philippines",10.66879,123.86345,PLDT Home Fiber,47159,52572,47.16,52.57,6,275,44,59
"City of Batac, Ilocos Norte, Philippines",18.04961,120.59698,PLDT Home Fiber,124561,142311,124.56,142.31,8,275,54,78
"San Jose, Batangas, Philippines",13.87868,121.09942,PLDT,144314,114383,144.31,114.38,7,273,92,125
"Argao, Cebu, Philippines",9.88114,123.60535,PLDT,74001,53711,74.00,53.71,8,273,44,66
"Toledo, Cebu, Philippines",10.38705,123.65017,Converge,208733,217096,208.73,217.10,4,272,51,75
"Villasis, Pangasinan, Philippines",15.90523,120.55094,PLDT Home Fiber,98671,94964,98.67,94.96,7,272,78,126
"Apalit, Pampanga, Philippines",14.95255,120.76688,PLDT,57514,74361,57.51,74.36,13,272,82,114
"Cordova, Cebu, Philippines",10.25278,123.9494,PLDT Home Fiber,175673,154857,175.67,154.86,3,272,35,55
"Obando, Bulacan, Philippines",14.70986,120.93674,Converge,98983,89990,98.98,89.99,5,272,60,82
"Binalbagan, Negros Occidental, Philippines",10.10918,123.01136,PLDT,53836,61404,53.84,61.40,15,271,42,62
"Hermosa, Bataan, Philippines",14.83566,120.47709,PLDT Home Fiber,49475,114827,49.48,114.83,11,271,59,70
"Paracale, Camarines Norte, Philippines",14.23721,122.78588,PLDT,16495,19045,16.50,19.05,13,268,43,80
"Iriga City, Camarines Sur, Philippines",13.42095,123.41361,PLDT Home Fiber,103329,108484,103.33,108.48,8,268,57,78
"Santa Cruz, Laguna, Philippines",14.26911,121.41133,PLDT Home Fiber,156754,152416,156.75,152.42,12,268,75,108
"Santa Cruz, Laguna, Philippines",14.26911,121.41133,Converge,174757,149744,174.76,149.74,8,268,48,76
"Tigaon, Camarines Sur, Philippines",13.61703,123.47198,Converge,91352,55954,91.35,55.95,11,267,22,30
"General Mamerto Natividad, Nueva Ecija, Philippines",15.58788,121.04498,PLDT Home Fiber,52372,94361,52.37,94.36,11,267,61,85
"Tagkawayan, Quezon, Philippines",13.96843,122.53376,PLDT,57860,53312,57.86,53.31,10,267,49,74
"Balanga City, Bataan, Philippines",14.67454,120.47033,Globe,159077,123416,159.08,123.42,9,266,41,59
"Lucena City, Quezon, Philippines",13.94139,121.62345,Globe,113134,103952,113.13,103.95,9,266,45,61
"Santo Tomas, Batangas, Philippines",14.08754,121.17764,Converge,172678,158741,172.68,158.74,7,265,80,106
"Tagum, Davao del Norte, Philippines",7.44742,125.80246,Converge,143995,128164,144.00,128.16,4,264,81,108
"Hagonoy, Bulacan, Philippines",14.83564,120.73371,PLDT Home Fiber,118400,107120,118.40,107.12,8,263,80,115
"Baler, Aurora, Philippines",15.73361,121.57125,PLDT,40175,47236,40.18,47.24,14,262,75,116
"Mabitac, Laguna, Philippines",14.43383,121.41133,PLDT,95700,122862,95.70,122.86,4,262,85,144
"Valencia, Negros Oriental, Philippines",9.28494,123.1464,PLDT Home Fiber,130996,136927,131.00,136.93,9,261,54,73
"Pitogo, Quezon, Philippines",13.80951,122.10647,PLDT Home Fiber,47866,192599,47.87,192.60,14,261,18,26
"Solano, Nueva Vizcaya, Philippines",16.51774,121.18012,PLDT Home Fiber,92703,96859,92.70,96.86,7,260,59,70
"Pavia, Iloilo, Philippines",10.7748,122.54261,Globe,112031,94337,112.03,94.34,4,260,76,104
"Hermosa, Bataan, Philippines",14.83566,120.47709,Converge,106498,135046,106.50,135.05,6,259,64,82
"Binmaley, Pangasinan, Philippines",16.02892,120.26882,PLDT Home Fiber,133198,93906,133.20,93.91,12,259,65,106
"Guiguinto, Bulacan, Philippines",14.82832,120.88429,Globe,120519,109723,120.52,109.72,7,258,72,95
"Tanjay City, Negros Oriental, Philippines",9.49579,122.9663,PLDT,59851,74700,59.85,74.70,9,258,41,66
"Norzagaray, Bulacan, Philippines",14.89659,121.14813,PLDT Home Fiber,102564,93270,102.56,93.27,6,257,68,97
"Oton, Iloilo, Philippines",10.69251,122.47868,Globe,117100,114073,117.10,114.07,4,256,64,83
"Vinzons, Camarines Norte, Philippines",14.21145,122.88741,PLDT,22327,39944,22.33,39.94,12,256,22,33
"Bataraza, Palawan, Philippines",8.5878,117.43215,PLDT Home Fiber,86041,106335,86.04,106.34,22,256,23,28
"Bayawan City, Negros Oriental, Philippines",9.53644,122.7633,PLDT,42763,60989,42.76,60.99,10,255,67,89
"Vigan City, Ilocos Sur, Philippines",17.56485,120.38781,PLDT,53183,52594,53.18,52.59,13,255,64,93
"Santa Cruz, Zambales, Philippines",15.77308,120.04341,Converge,84879,82646,84.88,82.65,6,255,37,52
"Sariaya, Quezon, Philippines",13.96301,121.52388,Converge,210767,232316,210.77,232.32,7,255,59,81
"Tagaytay City, Cavite, Philippines",14.11541,120.96202,Globe,88897,80703,88.90,80.70,6,255,88,125
"New Corella, Davao del Norte, Philippines",7.59777,125.84981,PLDT Home Fiber,62006,68607,62.01,68.61,13,254,58,85
"Guagua, Pampanga, Philippines",14.96374,120.63244,PLDT,72391,63451,72.39,63.45,11,254,76,96
"Carles, Iloilo, Philippines",11.55216,123.13515,PLDT,30219,37339,30.22,37.34,14,253,18,29
"Gasan, Marinduque, Philippines",13.32138,121.89041,PLDT Home Fiber,77172,70768,77.17,70.77,8,252,28,33
"Balayan, Batangas, Philippines",13.94995,120.72973,Converge,79019,81374,79.02,81.37,7,252,51,70
"Echague, Isabela, Philippines",16.66606,121.78792,PLDT,33032,29557,33.03,29.56,17,251,24,38
"Miagao, Iloilo, Philippines",10.64201,122.23632,PLDT,77020,89666,77.02,89.67,9,251,38,54
"Victoria, Tarlac, Philippines",15.59077,120.68901,PLDT Home Fiber,94016,97057,94.02,97.06,11,251,74,102
"Borbon, Cebu, Philippines",10.84627,123.9973,Globe,90221,103272,90.22,103.27,19,251,76,102
"Narra, Palawan, Philippines",9.229,118.33047,PLDT,74379,133471,74.38,133.47,35,251,32,56
"Dumangas, Iloilo, Philippines",10.82109,122.71167,PLDT Home Fiber,97065,102072,97.07,102.07,11,251,52,67
"Echague, Isabela, Philippines",16.66606,121.78792,PLDT Home Fiber,66075,76463,66.08,76.46,14,251,58,75
"Anao, Tarlac, Philippines",15.7435,120.61424,PLDT,53115,58109,53.12,58.11,18,251,67,110
"City of Mati, Davao Oriental, Philippines",6.95722,126.15454,PLDT Home Fiber,81886,87385,81.89,87.39,14,251,55,87
"Igbaras, Iloilo, Philippines",10.74408,122.2427,PLDT,47852,53775,47.85,53.78,10,250,65,101
"Urdaneta City, Pangasinan, Philippines",15.98194,120.59698,Globe,115977,105654,115.98,105.65,5,250,39,48
"Pagadian City, Zamboanga del Sur, Philippines",7.86265,123.37106,PLDT,81336,79458,81.34,79.46,16,249,71,92
"Cardona, Rizal, Philippines",14.48493,121.232,PLDT Home Fiber,153650,148080,153.65,148.08,4,248,85,123
"San Antonio, Zambales, Philippines",14.92751,120.08963,PLDT Home Fiber,184331,139188,184.33,139.19,11,248,33,40
"Paniqui, Tarlac, Philippines",15.66603,120.53942,Converge,65269,70502,65.27,70.50,4,248,100,150
"Danao, Cebu, Philippines",10.52013,124.02712,Converge,90391,107153,90.39,107.15,3,248,48,65
"Matalam, Cotabato, Philippines",7.17236,124.92861,Globe,93931,124392,93.93,124.39,5,247,82,111
"Murcia, Negros Occidental, Philippines",10.60643,123.03944,Converge,55612,53189,55.61,53.19,12,247,33,50
"Roxas, Isabela, Philippines",17.12035,121.61915,PLDT Home Fiber,52244,42456,52.24,42.46,14,246,49,60
"Buldon, Maguindanao, Philippines",7.47483,124.39764,PLDT Home Fiber,84052,92489,84.05,92.49,11,246,69,111
"Subic Bay Freeport Zone, Philippines",14.80319,120.30033,PLDT Home Fiber,93419,94858,93.42,94.86,7,246,61,102
"Mariveles, Bataan, Philippines",14.4354,120.49003,Globe,99422,85835,99.42,85.84,11,246,40,54
"Los Baños, Laguna, Philippines",14.17731,121.22161,Converge,159409,160028,159.41,160.03,6,244,58,100
"Taysan, Batangas, Philippines",13.76108,121.2283,PLDT Home Fiber,91065,108206,91.07,108.21,6,244,70,114
"Tuguegarao City, Cagayan, Philippines",17.60306,121.75374,Globe,120858,117596,120.86,117.60,10,243,50,69
"Masantol, Pampanga, Philippines",14.85669,120.68326,PLDT,45896,51844,45.90,51.84,10,243,62,88
"Pandi, Bulacan, Philippines",14.87572,120.95941,Globe,113370,94962,113.37,94.96,7,243,57,76
"Apalit, Pampanga, Philippines",14.95255,120.76688,Converge,89750,86939,89.75,86.94,4,240,74,108
"Balagtas, Bulacan, Philippines",14.81784,120.90646,Converge,144078,149907,144.08,149.91,7,240,80,108
"Santa Barbara, Pangasinan, Philippines",15.9774,120.42424,PLDT Home Fiber,108655,125362,108.66,125.36,6,240,53,75
"Sagay City, Negros Occidental, Philippines",10.84555,123.37106,Globe,58370,63362,58.37,63.36,11,240,35,47
"Goa, Camarines Sur, Philippines",13.73619,123.41593,Converge,97780,17666,97.78,17.67,13,240,38,61
"Burauen, Leyte, Philippines",10.97109,124.84034,PLDT Home Fiber,104728,115553,104.73,115.55,9,240,55,68
"Ipil, Zamboanga Sibugay, Philippines",7.77318,122.57121,PLDT Home Fiber,106942,93713,106.94,93.71,20,239,60,71
"Canaman, Camarines Sur, Philippines",13.64758,123.13515,Converge,54966,54858,54.97,54.86,3,239,40,50
"San Fernando City, La Union, Philippines",16.61592,120.32102,PLDT,81199,81021,81.20,81.02,4,238,85,120
"New Washington, Aklan, Philippines",11.6466,122.39009,Converge,45438,25601,45.44,25.60,14,237,33,42
"Carcar, Cebu, Philippines",10.10478,123.64147,Globe,117366,116056,117.37,116.06,8,237,55,74
"Manaoag, Pangasinan, Philippines",16.04627,120.4876,PLDT Home Fiber,71460,90386,71.46,90.39,8,237,72,91
"Plaridel, Misamis Occidental, Philippines",8.61148,123.69588,PLDT Home Fiber,59429,47460,59.43,47.46,9,236,28,33
"Porac, Pampanga, Philippines",15.06974,120.55007,PLDT,56251,59167,56.25,59.17,10,236,80,112
"Tayug, Pangasinan, Philippines",16.01085,120.74649,PLDT Home Fiber,85215,94470,85.22,94.47,10,236,67,110
"Guimba, Nueva Ecija, Philippines",15.65641,120.76767,Globe,118896,105700,118.90,105.70,6,236,64,100
"Irosin, Sorsogon, Philippines",12.72398,124.04187,PLDT,72248,48549,72.25,48.55,17,236,35,39
"Santa Barbara, Iloilo, Philippines",10.82707,122.53265,Globe,88138,93044,88.14,93.04,5,235,54,64
"Pagalungan, Maguindanao, Philippines",6.93298,124.75198,PLDT Home Fiber,93807,94118,93.81,94.12,10,234,69,109
"Sibulan, Negros Oriental, Philippines",9.35972,123.28476,PLDT Home Fiber,123128,167082,123.13,167.08,10,234,44,53
"Maria Aurora, Aurora, Philippines",15.75061,121.3999,PLDT,92480,93640,92.48,93.64,11,234,45,59
"Sibonga, Cebu, Philippines",10.01547,123.584,PLDT Home Fiber,97492,115713,97.49,115.71,4,233,57,83
"Lavezares, Northern Samar, Philippines",12.5257,124.38654,PLDT Home Fiber,57011,65000,57.01,65.00,9,233,15,23
"Urdaneta City, Pangasinan, Philippines",15.98194,120.59698,PLDT,90530,79634,90.53,79.63,5,233,67,104
"Los Baños, Laguna, Philippines",14.17731,121.22161,Globe,270338,224292,270.34,224.29,5,232,96,122
"City of Borongan, Eastern Samar, Philippines",11.61739,125.34663,Globe,74587,79260,74.59,79.26,24,232,52,72
"Gandara, Samar, Philippines",12.06444,124.79617,PLDT Home Fiber,42413,36854,42.41,36.85,9,231,20,26
"Panglao, Bohol, Philippines",9.56947,123.78721,PLDT Home Fiber,79146,71901,79.15,71.90,11,231,61,94
