Location Name,Latitude,Longitude,Provider,Download Speed,Upload Speed,Download Speed Mbps,Upload Speed Mbps,Minimum Latency,Test Count,Sample Count,User Count
"Quezon City, Metro Manila, Philippines",14.64879,121.05094,PLDT Home Fiber,144251,153705,144.25,153.71,3,150997,33473,51601
"Manila, Metro Manila, Philippines",14.59951,120.98423,SpaceX Starlink,57833,17026,57.83,17.03,26,108969,17824,27830
"Quezon City, Metro Manila, Philippines",14.64879,121.05094,Globe,203947,190698,203.95,190.70,5,103990,26318,40892
"Davao City, Davao del Sur, Philippines",7.06475,125.60884,PLDT Home Fiber,95312,94390,95.31,94.39,10,67248,14091,20883
"Cebu City, Cebu, Philippines",10.29261,123.90219,PLDT Home Fiber,95495,108606,95.50,108.61,7,57218,11463,16966
"Manila, Metro Manila, Philippines",14.59951,120.98423,PLDT Home Fiber,97433,96244,97.43,96.24,6,55715,13436,20823
"Quezon City, Metro Manila, Philippines",14.64879,121.05094,PLDT,73318,72431,73.32,72.43,9,48893,12395,18263
"Cagayan De Oro City, Misamis Oriental, Philippines",8.48029,124.64975,PLDT Home Fiber,93765,94314,93.77,94.31,9,44037,9674,14509
"Pasig, Metro Manila, Philippines",14.56082,121.0776,PLDT Home Fiber,138830,133284,138.83,133.28,3,42450,10287,15798
"Cebu City, Cebu, Philippines",10.29261,123.90219,PLDT,82954,90852,82.95,90.85,9,42312,9225,13383
"Davao City, Davao del Sur, Philippines",7.06475,125.60884,Globe,170507,160384,170.51,160.38,4,40596,10534,14080
"Cebu City, Cebu, Philippines",10.29261,123.90219,Globe,170458,158044,170.46,158.04,6,39895,10451,14998
"Manila, Metro Manila, Philippines",14.59951,120.98423,PLDT,87593,88528,87.59,88.53,6,36669,9046,13396
"Biñan, Laguna, Philippines",14.31456,121.08316,PLDT,104787,105316,104.79,105.32,9,35771,8121,13615
"Cagayan De Oro City, Misamis Oriental, Philippines",8.48029,124.64975,Globe,109370,82376,109.37,82.38,8,35242,8013,11802
"Antipolo, Rizal, Philippines",14.58584,121.17569,PLDT Home Fiber,129294,133242,129.29,133.24,3,31907,6901,10146
"Parañaque, Metro Manila, Philippines",14.47929,121.01985,PLDT,107950,97429,107.95,97.43,5,31601,8487,13443
"Parañaque, Metro Manila, Philippines",14.47929,121.01985,PLDT Home Fiber,145675,131685,145.68,131.69,4,28824,6785,9987
"Iligan City, Lanao del Norte, Philippines",8.22707,124.46418,PLDT Home Fiber,93350,93593,93.35,93.59,7,28729,6014,9241
"Makati City, Metro Manila, Philippines",14.55474,121.02444,PLDT,68573,66844,68.57,66.84,12,27112,7255,10859
"Cainta, Rizal, Philippines",14.58056,121.11565,PLDT Home Fiber,152698,155509,152.70,155.51,3,26716,6429,9669
"Taguig, Metro Manila, Philippines",14.53063,121.05755,Globe,210296,183012,210.30,183.01,4,25948,7309,11538
"Makati City, Metro Manila, Philippines",14.55474,121.02444,PLDT Home Fiber,156872,140767,156.87,140.77,4,24268,6237,9433
"Baguio, Benguet, Philippines",16.41297,120.5914,PLDT Home Fiber,93819,94332,93.82,94.33,7,23402,5880,8995
"Calamba, Laguna, Philippines",14.19488,121.15974,PLDT Home Fiber,114964,115715,114.96,115.72,8,22324,5468,8597
"Caloocan, Metro Manila, Philippines",14.65136,120.99022,PLDT Home Fiber,150084,164315,150.08,164.32,4,21948,4836,7025
"Pasig, Metro Manila, Philippines",14.56082,121.0776,Globe,284759,257703,284.76,257.70,5,21283,5109,7361
"San Carlos City, Negros Occidental, Philippines",10.48344,123.30371,PLDT,133024,146593,133.02,146.59,5,20067,5611,8587
"Bacoor, Cavite, Philippines",14.43122,120.96567,PLDT Home Fiber,144209,135341,144.21,135.34,6,20026,4304,5980
"Imus, Cavite, Philippines",14.42764,120.93724,PLDT Home Fiber,163753,172114,163.75,172.11,4,19984,4873,7560
"Davao City, Davao del Sur, Philippines",7.06475,125.60884,PLDT,85418,91380,85.42,91.38,10,19915,4242,6163
"Muntinlupa, Metro Manila, Philippines",14.39453,121.04483,PLDT,98871,95778,98.87,95.78,6,19055,4584,6694
"Dasmariñas, Cavite, Philippines",14.33385,120.95423,PLDT Home Fiber,118245,140743,118.25,140.74,5,18510,4137,6066
"Iloilo City, Iloilo, Philippines",10.73019,122.55911,Globe,115140,104412,115.14,104.41,8,18294,4224,6621
"Pasay City, Metro Manila, Philippines",14.53767,121.00081,PLDT Home Fiber,132050,118461,132.05,118.46,4,17783,4733,6969
"Pasig, Metro Manila, Philippines",14.56082,121.0776,PLDT,78380,76969,78.38,76.97,8,17362,4722,6905
"Batangas City, Batangas, Philippines",13.75641,121.05833,Globe,117327,103678,117.33,103.68,10,17221,3887,6405
"San Juan City, Metro Manila, Philippines",14.60196,121.0355,Globe,233183,209132,233.18,209.13,5,17042,4106,6080
"San Fernando, Pampanga, Philippines",15.02781,120.69349,PLDT Home Fiber,139728,96905,139.73,96.91,8,16806,4188,6141
"Valenzuela, Metro Manila, Philippines",14.69247,120.96991,PLDT Home Fiber,123436,135384,123.44,135.38,4,16597,4069,6057
"Dasmariñas, Cavite, Philippines",14.33385,120.95423,PLDT,99975,104134,99.98,104.13,10,15970,3959,6431
"Las Piñas, Metro Manila, Philippines",14.44934,120.98186,PLDT Home Fiber,155884,146777,155.88,146.78,5,15890,3583,4876
"Magpet, Cotabato, Philippines",7.1332,125.17087,PLDT,98850,94689,98.85,94.69,10,15372,4496,6406
"Tanauan City, Batangas, Philippines",14.08354,121.14762,PLDT Home Fiber,111998,100277,112.00,100.28,7,15232,3899,5954
"Silang, Cavite, Philippines",14.22025,120.96469,PLDT Home Fiber,123180,149125,123.18,149.13,5,15191,3819,5928
"Bacolod, Negros Occidental, Philippines",10.66764,122.94556,PLDT Home Fiber,89076,89258,89.08,89.26,9,14593,3045,4574
"Taguig, Metro Manila, Philippines",14.53063,121.05755,PLDT Home Fiber,159761,153960,159.76,153.96,4,14095,3362,4701
"Taguig, Metro Manila, Philippines",14.53063,121.05755,PLDT,87977,91778,87.98,91.78,6,13958,3767,5097
"Caloocan, Metro Manila, Philippines",14.65136,120.99022,Globe,204804,192024,204.80,192.02,5,13716,3084,4366
"Mandaluyong City, Metro Manila, Philippines",14.57627,121.03924,Globe,265447,231144,265.45,231.14,5,13179,3526,5417
"Pasay City, Metro Manila, Philippines",14.53767,121.00081,PLDT,93408,93942,93.41,93.94,6,13178,3827,5965
"Malabon, Metro Manila, Philippines",14.65793,120.95118,PLDT Home Fiber,105716,117354,105.72,117.35,3,13143,3197,4812
"Cabanatuan City, Nueva Ecija, Philippines",15.49943,121.01057,Globe,169331,138559,169.33,138.56,6,12115,3042,4484
"San Antonio, Nueva Ecija, Philippines",15.31921,120.82692,Globe,249988,226039,249.99,226.04,5,12068,3388,5335
"Makati City, Metro Manila, Philippines",14.55474,121.02444,Globe,201429,174338,201.43,174.34,4,11720,3048,4385
"Calamba, Laguna, Philippines",14.19488,121.15974,PLDT,94005,94581,94.01,94.58,9,11108,3046,4602
"Magpet, Cotabato, Philippines",7.1332,125.17087,PLDT Home Fiber,114359,97342,114.36,97.34,10,11020,3288,4710
"Itogon, Benguet, Philippines",16.36116,120.6787,PLDT,95601,95396,95.60,95.40,6,10946,2696,4468
"Binangonan, Rizal, Philippines",14.48441,121.1869,PLDT,129224,135481,129.22,135.48,4,10823,3051,4832
"Los Baños, Laguna, Philippines",14.17731,121.22161,PLDT Home Fiber,126952,123328,126.95,123.33,8,10795,2874,4532
"General Trias, Cavite, Philippines",14.38159,120.87915,PLDT Home Fiber,161253,136779,161.25,136.78,4,10572,2131,3057
"San Juan City, Metro Manila, Philippines",14.60196,121.0355,PLDT Home Fiber,162239,159585,162.24,159.59,3,10371,2526,3682
"Iloilo City, Iloilo, Philippines",10.73019,122.55911,PLDT,81852,81925,81.85,81.93,11,10131,1778,2540
"Tanauan City, Batangas, Philippines",14.08354,121.14762,PLDT,102613,100104,102.61,100.10,7,10126,2467,3842
"Parañaque, Metro Manila, Philippines",14.47929,121.01985,Globe,193771,163776,193.77,163.78,4,10090,2526,3526
"Muntinlupa, Metro Manila, Philippines",14.39453,121.04483,PLDT Home Fiber,160090,113800,160.09,113.80,4,9969,1983,2857
"Baguio, Benguet, Philippines",16.41297,120.5914,PLDT,93034,93611,93.03,93.61,6,9549,2237,3432
"Antipolo, Rizal, Philippines",14.58584,121.17569,PLDT,62496,60265,62.50,60.27,9,9445,2318,3423
"San Juan City, Metro Manila, Philippines",14.60196,121.0355,PLDT,65866,62946,65.87,62.95,13,9411,2654,3939
"Bacolod, Negros Occidental, Philippines",10.66764,122.94556,Globe,116755,107107,116.76,107.11,9,9327,2213,3099
"Dasmariñas, Cavite, Philippines",14.33385,120.95423,Globe,177281,148540,177.28,148.54,5,8856,2580,3685
"Magpet, Cotabato, Philippines",7.1332,125.17087,Globe,63205,96651,63.21,96.65,6,8837,2668,4028
"La Paz, Tarlac, Philippines",15.4497,120.7235,Globe,61830,53922,61.83,53.92,5,8586,1977,4251
"Bacoor, Cavite, Philippines",14.43122,120.96567,PLDT,94655,91447,94.66,91.45,8,8547,2032,2977
"Itogon, Benguet, Philippines",16.36116,120.6787,PLDT Home Fiber,99007,97280,99.01,97.28,7,8517,2234,3583
"Caloocan, Metro Manila, Philippines",14.65136,120.99022,PLDT,92084,94100,92.08,94.10,4,8516,1947,3009
"Balamban, Cebu, Philippines",10.48585,123.77412,Globe,124305,107368,124.31,107.37,8,8449,2395,3753
"Taytay, Rizal, Philippines",14.55288,121.12571,PLDT,90970,93335,90.97,93.34,6,8322,2229,3418
"Bacolor, Pampanga, Philippines",14.99692,120.65235,PLDT Home Fiber,136597,96113,136.60,96.11,9,8303,2259,3509
"San Carlos City, Negros Occidental, Philippines",10.48344,123.30371,PLDT Home Fiber,115343,148206,115.34,148.21,5,8210,2424,3653
"Talakag, Bukidnon, Philippines",8.05293,124.72988,PLDT Home Fiber,93547,94497,93.55,94.50,6,7991,2251,3402
"Marikina, Metro Manila, Philippines",14.63493,121.10195,PLDT Home Fiber,159837,153627,159.84,153.63,3,7983,1921,2719
"San Pablo City, Laguna, Philippines",14.06422,121.32326,PLDT Home Fiber,144124,150356,144.12,150.36,6,7899,1877,3059
"Iloilo City, Iloilo, Philippines",10.73019,122.55911,PLDT Home Fiber,97928,100013,97.93,100.01,9,7843,1633,2563
"Mandaluyong City, Metro Manila, Philippines",14.57627,121.03924,PLDT Home Fiber,182409,173013,182.41,173.01,3,7695,1760,2398
"Murcia, Negros Occidental, Philippines",10.60643,123.03944,PLDT Home Fiber,120749,114437,120.75,114.44,7,7655,2136,3300
"Taytay, Rizal, Philippines",14.55288,121.12571,PLDT Home Fiber,152330,161315,152.33,161.32,4,7519,1995,2793
"Butuan City, Agusan del Norte, Philippines",8.94753,125.54063,Globe,121694,64586,121.69,64.59,12,7115,1774,2595
"Tarlac City, Tarlac, Philippines",15.48808,120.58719,Globe,118076,106232,118.08,106.23,5,7033,1764,2661
"Murcia, Negros Occidental, Philippines",10.60643,123.03944,Globe,120456,106933,120.46,106.93,7,6930,2065,2971
"Lipa City, Batangas, Philippines",13.94047,121.19395,PLDT Home Fiber,144894,143611,144.89,143.61,6,6720,1705,2375
"Mandaluyong City, Metro Manila, Philippines",14.57627,121.03924,PLDT,60651,51751,60.65,51.75,11,6662,1909,2902
"Canlaon City, Negros Oriental, Philippines",10.36048,123.19137,PLDT Home Fiber,126364,157494,126.36,157.49,5,6452,1983,2998
"Kawit, Cavite, Philippines",14.44588,120.90871,PLDT Home Fiber,91039,93540,91.04,93.54,8,6295,1557,2467
"Naga City, Camarines Sur, Philippines",13.6475,123.27003,PLDT Home Fiber,108458,118132,108.46,118.13,8,6045,1422,2276
"Kitaotao, Bukidnon, Philippines",7.59444,125.10487,Globe,123094,109203,123.09,109.20,5,5786,1904,2731
"Las Piñas, Metro Manila, Philippines",14.44934,120.98186,PLDT,66747,73055,66.75,73.06,10,5649,1460,2098
"Malabon, Metro Manila, Philippines",14.65793,120.95118,PLDT,78863,86075,78.86,86.08,6,5587,1406,2102
"Cainta, Rizal, Philippines",14.58056,121.11565,Globe,231418,194543,231.42,194.54,5,5537,1320,1770
"San Rafael, Bulacan, Philippines",15.00184,120.93141,PLDT Home Fiber,117513,105543,117.51,105.54,7,5456,1313,1993
"Antipolo, Rizal, Philippines",14.58584,121.17569,Globe,222588,212980,222.59,212.98,5,5455,1058,1368
"Kawit, Cavite, Philippines",14.44588,120.90871,PLDT,92204,93933,92.20,93.93,10,5437,1447,2387
"Manila, Metro Manila, Philippines",14.59951,120.98423,Globe,244379,195396,244.38,195.40,5,5340,1258,1687
"General Santos City (Dadiangas), South Cotabato, Philippines",6.14327,125.19286,PLDT Home Fiber,75749,88165,75.75,88.17,12,5226,819,1063
"Cainta, Rizal, Philippines",14.58056,121.11565,PLDT,82085,82268,82.09,82.27,6,5216,1325,1998
"Meycauayan, Bulacan, Philippines",14.73772,120.96077,PLDT Home Fiber,125430,111266,125.43,111.27,7,5163,1361,1999
"Lucena City, Quezon, Philippines",13.94139,121.62345,PLDT Home Fiber,101291,111668,101.29,111.67,6,5140,1199,1903
"Compostela, Cebu, Philippines",10.45408,124.013,Globe,114419,107566,114.42,107.57,6,5134,1652,2596
"Butuan City, Agusan del Norte, Philippines",8.94753,125.54063,PLDT Home Fiber,84628,87637,84.63,87.64,9,5111,1024,1497
"Santo Domingo, Nueva Ecija, Philippines",15.61284,120.88434,Globe,126070,107908,126.07,107.91,6,5063,1390,2052
"San Mateo, Rizal, Philippines",14.69539,121.11767,PLDT Home Fiber,126823,166677,126.82,166.68,4,5028,942,1206
"Valenzuela, Metro Manila, Philippines",14.69247,120.96991,PLDT,63231,70563,63.23,70.56,10,4980,1325,1920
"Zamboanga City, Zamboanga del Sur, Philippines",6.90437,122.07612,PLDT Home Fiber,101427,79194,101.43,79.19,13,4886,788,1136
"Rodriguez, Rizal, Philippines",14.73202,121.14516,PLDT Home Fiber,111254,162135,111.25,162.14,4,4793,755,978
"Danao, Cebu, Philippines",10.52013,124.02712,PLDT Home Fiber,126733,165691,126.73,165.69,6,4793,1325,2016
"Kidapawan, Cotabato, Philippines",7.02127,125.09019,PLDT Home Fiber,94117,96481,94.12,96.48,11,4780,1202,1787
"Danao, Cebu, Philippines",10.52013,124.02712,Globe,65050,60811,65.05,60.81,7,4693,1358,2208
"Tarlac City, Tarlac, Philippines",15.48808,120.58719,PLDT,84133,84374,84.13,84.37,10,4679,1221,1862
"Dagupan City, Pangasinan, Philippines",16.03375,120.33202,PLDT Home Fiber,92736,92845,92.74,92.85,8,4664,1023,1576
"Binangonan, Rizal, Philippines",14.48441,121.1869,PLDT Home Fiber,138584,130543,138.58,130.54,4,4663,1146,1804
"Angeles, Pampanga, Philippines",15.16061,120.60908,PLDT Home Fiber,99167,93904,99.17,93.90,9,4654,1012,1446
"Valenzuela, Metro Manila, Philippines",14.69247,120.96991,Globe,224502,193484,224.50,193.48,5,4653,822,1042
"Tarlac City, Tarlac, Philippines",15.48808,120.58719,PLDT Home Fiber,94769,94316,94.77,94.32,10,4619,1151,1733
"Bacolod, Negros Occidental, Philippines",10.66764,122.94556,PLDT,74190,75104,74.19,75.10,9,4593,1032,1450
"SJDM, Bulacan, Philippines",14.82867,121.04324,PLDT,67569,67238,67.57,67.24,11,4567,1090,1582
"Marikina, Metro Manila, Philippines",14.63493,121.10195,Globe,199789,174299,199.79,174.30,5,4558,1014,1448
"Bago, Negros Occidental, Philippines",10.53757,122.83609,Globe,113297,103954,113.30,103.95,5,4479,1418,2093
"Santo Tomas, Batangas, Philippines",14.08754,121.17764,PLDT Home Fiber,143185,148491,143.19,148.49,9,4461,1001,1416
"City of Santa Rosa, Laguna, Philippines",14.31471,121.11232,PLDT Home Fiber,122769,113264,122.77,113.26,7,4377,904,1269
"Asturias, Cebu, Philippines",10.60209,123.77412,Globe,101810,100132,101.81,100.13,7,4358,1296,2022
"City of Santa Rosa, Laguna, Philippines",14.31471,121.11232,PLDT,77492,75626,77.49,75.63,10,4262,1159,1571
"Batangas City, Batangas, Philippines",13.75641,121.05833,PLDT Home Fiber,101266,103299,101.27,103.30,6,4215,1056,1517
"Bansalan, Davao del Sur, Philippines",6.84825,125.22584,PLDT Home Fiber,100758,96807,100.76,96.81,10,4092,1217,1819
"Koronadal, South Cotabato, Philippines",6.50044,124.84333,PLDT Home Fiber,61094,74773,61.09,74.77,12,3994,523,751
"Imus, Cavite, Philippines",14.42764,120.93724,Globe,217824,196560,217.82,196.56,5,3982,1070,1530
"Silay, Negros Occidental, Philippines",10.79968,122.97605,PLDT,80029,82008,80.03,82.01,21,3918,837,1400
"Carmen, Cebu, Philippines",10.58876,123.96385,PLDT Home Fiber,136182,183526,136.18,183.53,5,3885,1111,1768
"La Castellana, Negros Occidental, Philippines",10.33198,123.10141,PLDT Home Fiber,127414,136324,127.41,136.32,7,3878,1189,1784
"Baliwag, Bulacan, Philippines",14.96569,120.89431,PLDT Home Fiber,94891,97347,94.89,97.35,7,3849,1000,1497
"Malolos, Bulacan, Philippines",14.86049,120.80916,PLDT Home Fiber,138871,114316,138.87,114.32,7,3839,973,1433
"Marilao, Bulacan, Philippines",14.77237,120.96001,PLDT Home Fiber,117291,103955,117.29,103.96,9,3665,1038,1470
"Talaingod, Davao del Norte, Philippines",7.68339,125.522,Globe,64295,56090,64.30,56.09,5,3554,1152,1730
"Navotas, Metro Manila, Philippines",14.65819,120.94743,PLDT Home Fiber,112697,112452,112.70,112.45,4,3502,864,1266
"SJDM, Bulacan, Philippines",14.82867,121.04324,PLDT Home Fiber,102351,101266,102.35,101.27,6,3470,877,1241
"San Pedro, Laguna, Philippines",14.36443,121.06192,PLDT Home Fiber,140973,122258,140.97,122.26,4,3457,829,1051
"Navotas, Metro Manila, Philippines",14.65819,120.94743,PLDT,73408,79928,73.41,79.93,10,3450,921,1381
"San Nicolas, Pangasinan, Philippines",16.12066,120.78097,PLDT,94320,94572,94.32,94.57,6,3447,1011,1674
"Lipa City, Batangas, Philippines",13.94047,121.19395,PLDT,100181,95552,100.18,95.55,7,3423,878,1229
"Cabuyao City, Laguna, Philippines",14.27433,121.11961,PLDT Home Fiber,156178,170730,156.18,170.73,7,3415,842,1250
"Angeles, Pampanga, Philippines",15.16061,120.60908,PLDT,56516,57850,56.52,57.85,11,3413,910,1484
"Nasugbu, Batangas, Philippines",14.09404,120.68901,Globe,144683,122842,144.68,122.84,8,3323,790,1087
"San Antonio, Nueva Ecija, Philippines",15.31921,120.82692,PLDT Home Fiber,115128,101507,115.13,101.51,10,3273,971,1527
"Digos, Davao del Sur, Philippines",6.74347,125.35515,PLDT Home Fiber,94680,94601,94.68,94.60,10,3271,866,1354
"Zamboanga City, Zamboanga del Sur, Philippines",6.90437,122.07612,Globe,107008,63719,107.01,63.72,14,3271,395,531
"Tanauan, Leyte, Philippines",11.07765,124.98373,PLDT,90382,90962,90.38,90.96,31,3271,55,75
"San Quintin, Pangasinan, Philippines",15.9754,120.83841,Globe,61395,53575,61.40,53.58,6,3257,801,1610
"Pandi, Bulacan, Philippines",14.87572,120.95941,PLDT Home Fiber,100557,96693,100.56,96.69,7,3233,781,1156
"Cardona, Rizal, Philippines",14.48493,121.232,PLDT,100934,114132,100.93,114.13,4,3226,929,1593
"Bacoor, Cavite, Philippines",14.43122,120.96567,Globe,204291,186531,204.29,186.53,5,3223,696,917
"Bago, Negros Occidental, Philippines",10.53757,122.83609,PLDT Home Fiber,105473,119468,105.47,119.47,6,3220,959,1478
"Lapu-Lapu, Cebu, Philippines",10.31838,123.96395,Globe,167884,169180,167.88,169.18,5,3195,573,724
"Santa Maria, Bulacan, Philippines",14.82898,120.97616,PLDT Home Fiber,135851,99799,135.85,99.80,8,3180,770,1148
"City of Tayabas, Quezon, Philippines",14.01135,121.55983,PLDT Home Fiber,148331,168558,148.33,168.56,8,3172,821,1315
"Mexico, Pampanga, Philippines",15.06457,120.72033,PLDT Home Fiber,98857,94598,98.86,94.60,9,3156,855,1344
"Arakan, Cotabato, Philippines",7.35122,125.17087,PLDT Home Fiber,94861,94504,94.86,94.50,10,3146,868,1232
"Biñan, Laguna, Philippines",14.31456,121.08316,PLDT Home Fiber,102842,104740,102.84,104.74,7,3145,800,1154
"Tagum, Davao del Norte, Philippines",7.44742,125.80246,PLDT Home Fiber,77319,91339,77.32,91.34,9,3103,590,821
"Matalam, Cotabato, Philippines",7.17236,124.92861,PLDT,95385,94700,95.39,94.70,9,3092,866,1263
"Bustos, Bulacan, Philippines",14.95239,120.91735,PLDT Home Fiber,124894,103207,124.89,103.21,7,3072,958,1436
"Las Piñas, Metro Manila, Philippines",14.44934,120.98186,Globe,233709,206972,233.71,206.97,5,2990,689,883
"Kawit, Cavite, Philippines",14.44588,120.90871,Globe,159738,144026,159.74,144.03,5,2977,710,1011
"Candaba, Pampanga, Philippines",15.09289,120.8277,PLDT Home Fiber,97934,100297,97.93,100.30,7,2962,867,1365
"Cadiz City, Negros Occidental, Philippines",10.86192,123.23632,PLDT Home Fiber,73985,85385,73.99,85.39,8,2934,681,1070
"Cabiao, Nueva Ecija, Philippines",15.25221,120.85957,PLDT Home Fiber,94168,94551,94.17,94.55,10,2914,780,1281
"Cabuyao City, Laguna, Philippines",14.27433,121.11961,PLDT,91810,93296,91.81,93.30,11,2902,699,1047
"Marilao, Bulacan, Philippines",14.77237,120.96001,PLDT,64853,67122,64.85,67.12,10,2879,818,1233
"Marikina, Metro Manila, Philippines",14.63493,121.10195,PLDT,78277,80008,78.28,80.01,10,2872,762,1091
"Bocaue, Bulacan, Philippines",14.7943,120.93073,PLDT Home Fiber,106551,98474,106.55,98.47,8,2816,679,982
"Concepcion, Tarlac, Philippines",15.324,120.65596,PLDT Home Fiber,89184,80462,89.18,80.46,11,2815,785,1154
"Tanza, Cavite, Philippines",14.34293,120.85032,PLDT Home Fiber,161352,186815,161.35,186.82,4,2781,605,729
"General Santos City (Dadiangas), South Cotabato, Philippines",6.14327,125.19286,PLDT,48715,58185,48.72,58.19,12,2762,544,757
"Cabanatuan City, Nueva Ecija, Philippines",15.49943,121.01057,PLDT Home Fiber,84312,83663,84.31,83.66,11,2750,645,1065
"Candelaria, Quezon, Philippines",13.94899,121.42276,PLDT Home Fiber,100011,109892,100.01,109.89,7,2738,648,972
"City of Guihulngan, Negros Oriental, Philippines",10.18323,123.21385,PLDT Home Fiber,92889,94572,92.89,94.57,7,2680,759,1135
"Navotas, Metro Manila, Philippines",14.65819,120.94743,Globe,185375,184109,185.38,184.11,5,2673,722,1081
"Pandi, Bulacan, Philippines",14.87572,120.95941,PLDT,83158,74928,83.16,74.93,8,2663,620,945
"Calamba, Laguna, Philippines",14.19488,121.15974,Globe,218586,181415,218.59,181.42,5,2576,722,1050
"Plaridel, Bulacan, Philippines",14.88591,120.85932,PLDT Home Fiber,127253,110979,127.25,110.98,7,2573,727,1076
"Bokod, Benguet, Philippines",16.45641,120.78097,PLDT,94138,94516,94.14,94.52,7,2556,724,1143
"La Trinidad, Benguet, Philippines",16.44844,120.59047,PLDT Home Fiber,95363,96417,95.36,96.42,9,2537,550,838
"Arayat, Pampanga, Philippines",15.15443,120.771,PLDT Home Fiber,92842,93761,92.84,93.76,10,2515,703,1162
"Muntinlupa, Metro Manila, Philippines",14.39453,121.04483,Globe,237418,174292,237.42,174.29,6,2510,442,586
"General Trias, Cavite, Philippines",14.38159,120.87915,Globe,195832,167589,195.83,167.59,5,2446,516,656
"Mandaue, Cebu, Philippines",10.3279,123.94273,Globe,191764,179469,191.76,179.47,5,2442,465,591
"Lipa City, Batangas, Philippines",13.94047,121.19395,Globe,172025,142927,172.03,142.93,7,2435,746,1069
"Lapu-Lapu, Cebu, Philippines",10.31838,123.96395,PLDT Home Fiber,151544,161401,151.54,161.40,4,2429,509,648
"Malolos, Bulacan, Philippines",14.86049,120.80916,PLDT,73873,75193,73.87,75.19,8,2414,529,786
"Tuguegarao City, Cagayan, Philippines",17.60306,121.75374,PLDT,78815,88142,78.82,88.14,13,2386,590,833
"San Pedro, Laguna, Philippines",14.36443,121.06192,PLDT,112378,96427,112.38,96.43,7,2376,555,757
"Polomolok, South Cotabato, Philippines",6.22451,125.06084,PLDT Home Fiber,92481,92911,92.48,92.91,13,2356,474,701
"Kibungan, Benguet, Philippines",16.68162,120.68901,PLDT Home Fiber,93181,94227,93.18,94.23,7,2326,615,1048
"Kidapawan, Cotabato, Philippines",7.02127,125.09019,PLDT,94974,94521,94.97,94.52,10,2295,747,1063
"Bokod, Benguet, Philippines",16.45641,120.78097,PLDT Home Fiber,93947,94627,93.95,94.63,6,2287,723,1145
"Lucena City, Quezon, Philippines",13.94139,121.62345,PLDT,102150,99977,102.15,99.98,5,2243,530,791
"Calapan City, Oriental Mindoro, Philippines",13.36643,121.19395,PLDT Home Fiber,149401,146277,149.40,146.28,8,2213,613,962
"Bulakan, Bulacan, Philippines",14.79484,120.87889,PLDT Home Fiber,110310,97730,110.31,97.73,6,2192,406,562
"Mandaue, Cebu, Philippines",10.3279,123.94273,PLDT Home Fiber,150704,165499,150.70,165.50,3,2167,505,644
"Valencia City, Bukidnon, Philippines",7.86319,125.17087,PLDT Home Fiber,77466,84071,77.47,84.07,8,2152,409,599
"Kayapa, Nueva Vizcaya, Philippines",16.49326,120.94174,PLDT Home Fiber,94791,94751,94.79,94.75,7,2146,642,1070
"Cabanatuan City, Nueva Ecija, Philippines",15.49943,121.01057,PLDT,93562,90853,93.56,90.85,10,2127,471,697
"Isabela, Basilan, Philippines",6.70387,121.9799,Globe,187469,87421,187.47,87.42,15,2125,110,139
"City of Santa Rosa, Laguna, Philippines",14.31471,121.11232,Globe,198793,181616,198.79,181.62,6,2117,529,769
"San Fernando, Pampanga, Philippines",15.02781,120.69349,PLDT,64795,62331,64.80,62.33,12,2107,569,878
"Naga, Cebu, Philippines",10.20764,123.75821,Globe,157990,144617,157.99,144.62,18,2099,696,936
"San Juan, Batangas, Philippines",13.75044,121.37703,PLDT Home Fiber,97364,103771,97.36,103.77,8,2096,467,701
"Concepcion, Tarlac, Philippines",15.324,120.65596,PLDT,62699,61509,62.70,61.51,11,2085,498,721
"Vallehermoso, Negros Oriental, Philippines",10.33905,123.29249,PLDT Home Fiber,100261,141289,100.26,141.29,5,2079,659,983
"Baguio, Benguet, Philippines",16.41297,120.5914,Globe,132703,126025,132.70,126.03,6,2064,392,534
"Talisay, Cebu, Philippines",10.25859,123.82413,PLDT,91276,93558,91.28,93.56,4,2063,374,507
"San Ildefonso, Bulacan, Philippines",15.07717,120.94171,PLDT,73692,73253,73.69,73.25,8,2057,451,747
"Imus, Cavite, Philippines",14.42764,120.93724,PLDT,113272,91887,113.27,91.89,8,2054,426,574
"Lubao, Pampanga, Philippines",14.92678,120.58795,PLDT Home Fiber,114577,105263,114.58,105.26,8,2048,551,871
"Subic Bay Freeport Zone, Philippines",14.80319,120.30033,PLDT,46394,51968,46.39,51.97,12,2037,500,826
"General Santos City (Dadiangas), South Cotabato, Philippines",6.14327,125.19286,Globe,113354,74269,113.35,74.27,11,2013,327,446
"Sagay City, Negros Occidental, Philippines",10.84555,123.37106,PLDT Home Fiber,80796,92375,80.80,92.38,8,2007,480,785
"Sariaya, Quezon, Philippines",13.96301,121.52388,PLDT Home Fiber,93473,94359,93.47,94.36,5,1983,506,843
"Talisay, Cebu, Philippines",10.25859,123.82413,PLDT Home Fiber,132619,155841,132.62,155.84,4,1977,294,382
"Bago, Negros Occidental, Philippines",10.53757,122.83609,PLDT,94395,107062,94.40,107.06,6,1974,465,675
"Legazpi City, Albay, Philippines",13.11288,123.76295,PLDT,63518,59122,63.52,59.12,16,1966,371,506
"Sagay City, Negros Occidental, Philippines",10.84555,123.37106,Globe,142745,133076,142.75,133.08,13,1942,389,608
"Lapu-Lapu, Cebu, Philippines",10.31838,123.96395,PLDT,91608,93192,91.61,93.19,3,1939,429,653
"Candaba, Pampanga, Philippines",15.09289,120.8277,Globe,164746,136386,164.75,136.39,7,1935,539,787
"Tagaytay City, Cavite, Philippines",14.11541,120.96202,PLDT,104331,98544,104.33,98.54,9,1915,483,713
"Silang, Cavite, Philippines",14.22025,120.96469,PLDT,154672,147892,154.67,147.89,7,1910,564,776
"General Trias, Cavite, Philippines",14.38159,120.87915,PLDT,92212,82855,92.21,82.86,8,1906,402,566
"Surallah, South Cotabato, Philippines",6.3195,124.75198,PLDT Home Fiber,46144,54455,46.14,54.46,13,1855,281,418
"Calumpit, Bulacan, Philippines",14.91518,120.7662,PLDT Home Fiber,96546,94353,96.55,94.35,7,1835,395,570
"Arayat, Pampanga, Philippines",15.15443,120.771,Globe,153081,123921,153.08,123.92,6,1821,482,775
"Atok, Benguet, Philippines",16.59745,120.68901,PLDT Home Fiber,94560,94338,94.56,94.34,7,1810,507,857
"Carmona, Cavite, Philippines",14.3135,121.05712,PLDT,173020,172346,173.02,172.35,7,1808,375,485
"San Nicolas, Pangasinan, Philippines",16.12066,120.78097,PLDT Home Fiber,96052,99042,96.05,99.04,8,1792,495,808
"Obando, Bulacan, Philippines",14.70986,120.93674,PLDT,54337,68475,54.34,68.48,13,1792,366,624
"Salvador Benedicto, Negros Occidental, Philippines",10.5887,123.23632,PLDT Home Fiber,103336,100965,103.34,100.97,8,1791,618,930
"City of Tacurong, Sultan Kudarat, Philippines",6.6866,124.66353,PLDT Home Fiber,83644,68619,83.64,68.62,12,1777,162,247
"Tacloban City, Leyte, Philippines",11.22238,124.99221,PLDT,80949,87538,80.95,87.54,11,1740,359,504
"Angono, Rizal, Philippines",14.52592,121.15321,PLDT,94812,100926,94.81,100.93,4,1718,539,880
"Liloan, Cebu, Philippines",10.39926,124.00002,Globe,116579,106735,116.58,106.74,5,1717,421,620
"Consolacion, Cebu, Philippines",10.37581,123.95694,Globe,266870,246595,266.87,246.60,5,1716,504,688
"Bustos, Bulacan, Philippines",14.95239,120.91735,PLDT,100773,94503,100.77,94.50,7,1691,469,697
"Nagcarlan, Laguna, Philippines",14.14903,121.38847,PLDT Home Fiber,156347,166167,156.35,166.17,8,1688,430,732
"San Pedro, Laguna, Philippines",14.36443,121.06192,Globe,219903,115934,219.90,115.93,8,1686,292,370
"Tublay, Benguet, Philippines",16.52924,120.62073,PLDT Home Fiber,93068,94497,93.07,94.50,7,1661,433,733
"Taytay, Rizal, Philippines",14.55288,121.12571,Globe,244505,218358,244.51,218.36,5,1660,327,420
"San Jose City, Nueva Ecija, Philippines",15.79188,120.99008,PLDT Home Fiber,90117,90011,90.12,90.01,12,1641,411,600
"Pili, Camarines Sur, Philippines",13.55521,123.28126,PLDT,51311,56194,51.31,56.19,12,1629,192,249
"Bakun, Benguet, Philippines",16.80796,120.68901,PLDT Home Fiber,93297,94351,93.30,94.35,7,1618,511,831
"Minglanilla, Cebu, Philippines",10.24543,123.79599,Globe,128111,131908,128.11,131.91,16,1618,495,683
"Naic, Cavite, Philippines",14.29649,120.79246,PLDT Home Fiber,83527,97692,83.53,97.69,8,1589,218,291
"Danao, Cebu, Philippines",10.52013,124.02712,PLDT,44627,47933,44.63,47.93,8,1564,300,427
"Digos, Davao del Sur, Philippines",6.74347,125.35515,Globe,59867,127190,59.87,127.19,9,1549,169,216
"Guagua, Pampanga, Philippines",14.96374,120.63244,PLDT Home Fiber,118053,110082,118.05,110.08,8,1548,456,704
"Guiguinto, Bulacan, Philippines",14.82832,120.88429,PLDT Home Fiber,133448,131680,133.45,131.68,8,1536,383,544
"Magalang, Pampanga, Philippines",15.21394,120.66181,PLDT,66448,61463,66.45,61.46,12,1532,377,557
"Tanauan City, Batangas, Philippines",14.08354,121.14762,Globe,116702,101033,116.70,101.03,6,1515,485,765
"Batangas City, Batangas, Philippines",13.75641,121.05833,PLDT,112537,106948,112.54,106.95,6,1510,412,630
"Tuba, Benguet, Philippines",16.39277,120.56034,PLDT Home Fiber,93751,96704,93.75,96.70,7,1509,406,648
"Naga City, Camarines Sur, Philippines",13.6475,123.27003,PLDT,74829,84252,74.83,84.25,12,1502,317,471
"City of Lamitan, Basilan, Philippines",6.66152,122.10647,SpaceX Starlink,22961,10655,22.96,10.66,33,1495,69,100
"Naic, Cavite, Philippines",14.29649,120.79246,PLDT,78601,89689,78.60,89.69,9,1491,428,578
"Dumaguete City, Negros Oriental, Philippines",9.29841,123.29249,PLDT,94788,98082,94.79,98.08,5,1484,181,279
"Santa Maria, Bulacan, Philippines",14.82898,120.97616,Globe,181119,172070,181.12,172.07,8,1476,285,361
"Indang, Cavite, Philippines",14.19204,120.87286,PLDT,81350,79136,81.35,79.14,9,1475,322,433
"San Ildefonso, Bulacan, Philippines",15.07717,120.94171,PLDT Home Fiber,94284,94710,94.28,94.71,6,1459,422,627
"Dipolog City, Zamboanga del Norte, Philippines",8.58717,123.34035,PLDT Home Fiber,92931,90175,92.93,90.18,11,1456,218,290
"Dumaguete City, Negros Oriental, Philippines",9.29841,123.29249,Globe,115866,113452,115.87,113.45,11,1443,233,314
"Angeles, Pampanga, Philippines",15.16061,120.60908,Globe,126415,127722,126.42,127.72,5,1435,303,396
"Santa Maria, Bulacan, Philippines",14.82898,120.97616,PLDT,88571,84528,88.57,84.53,7,1422,399,631
"Tanay, Rizal, Philippines",14.61419,121.37703,PLDT,51917,66418,51.92,66.42,14,1422,296,416
"Talisay, Cebu, Philippines",10.25859,123.82413,Globe,202231,159005,202.23,159.01,7,1417,361,469
"Salvador Benedicto, Negros Occidental, Philippines",10.5887,123.23632,PLDT,94540,106467,94.54,106.47,5,1417,429,655
"Malabon, Metro Manila, Philippines",14.65793,120.95118,Globe,256095,229054,256.10,229.05,5,1407,271,330
"Kayapa, Nueva Vizcaya, Philippines",16.49326,120.94174,PLDT,94707,94349,94.71,94.35,7,1402,415,692
"Apalit, Pampanga, Philippines",14.95255,120.76688,PLDT Home Fiber,116160,101231,116.16,101.23,6,1396,330,501
"Carmen, Agusan del Norte, Philippines",8.9574,125.24781,PLDT Home Fiber,145914,101995,145.91,102.00,7,1395,288,460
"Dumaguete City, Negros Oriental, Philippines",9.29841,123.29249,PLDT Home Fiber,175936,179000,175.94,179.00,5,1391,209,260
"Minglanilla, Cebu, Philippines",10.24543,123.79599,PLDT,129985,140427,129.99,140.43,4,1385,219,290
"Cagayan De Oro City, Misamis Oriental, Philippines",8.48029,124.64975,PLDT,41470,43925,41.47,43.93,16,1380,320,502
"Dolores, Quezon, Philippines",14.00193,121.41133,PLDT Home Fiber,93926,99800,93.93,99.80,6,1379,285,442
"Cadiz City, Negros Occidental, Philippines",10.86192,123.23632,PLDT,47449,50527,47.45,50.53,14,1374,305,504
"Meycauayan, Bulacan, Philippines",14.73772,120.96077,Globe,175332,158128,175.33,158.13,8,1362,305,383
"Rizal, Laguna, Philippines",14.08408,121.41133,PLDT Home Fiber,156710,177464,156.71,177.46,7,1361,329,547
"Gapan City, Nueva Ecija, Philippines",15.29121,121.01057,PLDT Home Fiber,89057,91609,89.06,91.61,12,1359,308,508
"Carranglan, Nueva Ecija, Philippines",15.97584,121.03351,PLDT Home Fiber,89835,91225,89.84,91.23,7,1350,349,596
"Angono, Rizal, Philippines",14.52592,121.15321,PLDT Home Fiber,143412,130417,143.41,130.42,3,1339,288,414
"City of Santiago, Isabela, Philippines",16.69679,121.55865,PLDT Home Fiber,98774,78645,98.77,78.65,14,1338,202,300
"Bocaue, Bulacan, Philippines",14.7943,120.93073,PLDT,96434,96219,96.43,96.22,7,1328,327,534
"Puerto Princesa City, Palawan, Philippines",9.78563,118.62648,PLDT Home Fiber,88648,89335,88.65,89.34,21,1326,251,377
"Cotabato City, Maguindanao del Norte, Philippines",7.20467,124.23104,PLDT Home Fiber,92540,121319,92.54,121.32,11,1322,186,286
"Toledo, Cebu, Philippines",10.38705,123.65017,Globe,127424,121692,127.42,121.69,13,1314,397,566
"Pagadian City, Zamboanga del Sur, Philippines",7.86265,123.37106,Globe,111388,73647,111.39,73.65,7,1312,143,182
"Naga City, Camarines Sur, Philippines",13.6475,123.27003,Globe,120351,111617,120.35,111.62,12,1312,228,307
"Dumanjug, Cebu, Philippines",10.02819,123.47198,PLDT Home Fiber,94131,105845,94.13,105.85,7,1297,312,479
"Mandaue, Cebu, Philippines",10.3279,123.94273,PLDT,68972,76456,68.97,76.46,5,1297,348,502
"Marilao, Bulacan, Philippines",14.77237,120.96001,Globe,229012,204451,229.01,204.45,8,1291,263,337
"Kapangan, Benguet, Philippines",16.61238,120.59698,PLDT Home Fiber,93648,94616,93.65,94.62,6,1275,317,510
"Tacloban City, Leyte, Philippines",11.22238,124.99221,Globe,107518,130659,107.52,130.66,22,1273,203,268
"Matalam, Cotabato, Philippines",7.17236,124.92861,PLDT Home Fiber,123719,105627,123.72,105.63,10,1273,391,574
"Cardona, Rizal, Philippines",14.48493,121.232,PLDT Home Fiber,126713,139835,126.71,139.84,4,1258,388,624
"Consolacion, Cebu, Philippines",10.37581,123.95694,PLDT,76928,79367,76.93,79.37,7,1258,309,454
"Calatrava, Negros Occidental, Philippines",10.62843,123.39349,PLDT,92185,94351,92.19,94.35,7,1255,368,552
"Pagadian City, Zamboanga del Sur, Philippines",7.86265,123.37106,PLDT Home Fiber,100882,97315,100.88,97.32,6,1250,220,293
"Trece Martires City, Cavite, Philippines",14.28222,120.86837,PLDT Home Fiber,154771,170294,154.77,170.29,4,1248,331,474
"Mexico, Pampanga, Philippines",15.06457,120.72033,Globe,180390,170702,180.39,170.70,6,1244,317,425
"Mabalacat City, Pampanga, Philippines",15.24525,120.56567,PLDT Home Fiber,111453,97473,111.45,97.47,8,1242,309,450
"Ormoc City, Leyte, Philippines",11.03843,124.61927,Globe,92435,104935,92.44,104.94,22,1233,197,257
"Santo Tomas, Davao del Norte, Philippines",7.50929,125.63142,PLDT Home Fiber,80807,76628,80.81,76.63,11,1233,183,234
"Surigao, Surigao del Norte, Philippines",9.79022,125.49311,PLDT Home Fiber,78657,91705,78.66,91.71,11,1210,176,257
"Jose Abad Santos (Trinidad), Davao Occidental, Philippines",5.83407,125.5439,SpaceX Starlink,53083,17563,53.08,17.56,32,1208,24,31
"Calapan City, Oriental Mindoro, Philippines",13.36643,121.19395,PLDT,59210,63700,59.21,63.70,16,1206,291,420
"Calauan, Laguna, Philippines",14.14551,121.3146,PLDT Home Fiber,112963,117465,112.96,117.47,8,1201,201,316
"Talisay, Negros Occidental, Philippines",10.74828,122.98012,PLDT Home Fiber,89769,83941,89.77,83.94,9,1197,287,442
"Malasiqui, Pangasinan, Philippines",15.92028,120.41443,PLDT Home Fiber,95973,118412,95.97,118.41,10,1195,297,448
"Burauen, Leyte, Philippines",10.97109,124.84034,PLDT Home Fiber,96583,106687,96.58,106.69,11,1191,252,409
"Muñoz, Nueva Ecija, Philippines",15.70664,120.9029,Globe,107054,97553,107.05,97.55,7,1189,341,589
"Arakan, Cotabato, Philippines",7.35122,125.17087,Globe,229907,192855,229.91,192.86,5,1187,436,596
"Daet, Camarines Norte, Philippines",14.10303,122.9325,PLDT,54227,55891,54.23,55.89,9,1187,189,276
"Iligan City, Lanao del Norte, Philippines",8.22707,124.46418,Globe,130591,65899,130.59,65.90,10,1183,191,251
"Pasay City, Metro Manila, Philippines",14.53767,121.00081,Globe,172930,154305,172.93,154.31,4,1165,312,439
"San Fernando City, La Union, Philippines",16.61592,120.32102,PLDT Home Fiber,157006,144645,157.01,144.65,3,1164,225,315
"SJDM, Bulacan, Philippines",14.82867,121.04324,Globe,142448,122842,142.45,122.84,8,1163,257,322
"Mayoyao, Ifugao, Philippines",16.95131,121.21685,PLDT Home Fiber,90007,94865,90.01,94.87,10,1162,319,522
"Palo, Leyte, Philippines",11.15847,124.99191,PLDT,68259,77531,68.26,77.53,23,1154,266,396
"Balanga City, Bataan, Philippines",14.67454,120.47033,PLDT Home Fiber,181909,156106,181.91,156.11,7,1154,192,275
"Calatrava, Negros Occidental, Philippines",10.62843,123.39349,PLDT Home Fiber,77252,91087,77.25,91.09,7,1151,299,480
"Talisay, Negros Occidental, Philippines",10.74828,122.98012,PLDT,83287,82412,83.29,82.41,19,1145,199,280
"Cabiao, Nueva Ecija, Philippines",15.25221,120.85957,PLDT,92873,86493,92.87,86.49,11,1128,313,521
"Bulakan, Bulacan, Philippines",14.79484,120.87889,PLDT,85957,81458,85.96,81.46,7,1120,283,447
"Roxas City, Capiz, Philippines",11.55288,122.74072,PLDT Home Fiber,74260,89405,74.26,89.41,10,1116,191,275
"Santa Ana, Pampanga, Philippines",15.09442,120.76623,PLDT Home Fiber,87306,92200,87.31,92.20,9,1115,266,447
"Tagum, Davao del Norte, Philippines",7.44742,125.80246,Globe,120777,106333,120.78,106.33,5,1106,210,267
"Roxas, Oriental Mindoro, Philippines",12.62617,121.47989,PLDT Home Fiber,45303,46978,45.30,46.98,9,1100,53,68
"Ormoc City, Leyte, Philippines",11.03843,124.61927,PLDT Home Fiber,82514,81710,82.51,81.71,5,1096,146,184
"M'lang, Cotabato, Philippines",6.93822,124.90655,PLDT Home Fiber,82888,93433,82.89,93.43,11,1093,279,404
"Jaen, Nueva Ecija, Philippines",15.39558,120.87286,PLDT Home Fiber,94012,93794,94.01,93.79,8,1086,283,455
"Pagadian City, Zamboanga del Sur, Philippines",7.86265,123.37106,PLDT,57509,56649,57.51,56.65,17,1085,283,396
"Cabiao, Nueva Ecija, Philippines",15.25221,120.85957,Globe,134951,113644,134.95,113.64,6,1075,232,326
"Laoag City, Ilocos Norte, Philippines",18.21075,120.58547,PLDT,93072,92619,93.07,92.62,14,1073,109,164
"Kapalawan, Cotabato, Philippines",7.21567,124.75942,PLDT,94962,97026,94.96,97.03,10,1070,379,536
"Rosario, Batangas, Philippines",13.80433,121.28552,PLDT Home Fiber,94157,94540,94.16,94.54,5,1065,236,310
"Porac, Pampanga, Philippines",15.06974,120.55007,PLDT Home Fiber,103857,94143,103.86,94.14,8,1057,269,389
"Roxas City, Capiz, Philippines",11.55288,122.74072,Globe,88400,83627,88.40,83.63,13,1056,123,162
"Trento, Agusan del Sur, Philippines",8.05257,126.21969,PLDT,56502,53843,56.50,53.84,18,1056,248,366
"Pagbilao, Quezon, Philippines",13.99683,121.73095,PLDT Home Fiber,94960,109854,94.96,109.85,6,1054,269,415
"Mariveles, Bataan, Philippines",14.4354,120.49003,PLDT Home Fiber,84677,81044,84.68,81.04,9,1052,172,228
"Catarman, Northern Samar, Philippines",12.44271,124.61927,PLDT Home Fiber,69658,191282,69.66,191.28,23,1049,116,152
"Rosario, Cavite, Philippines",14.41672,120.85471,PLDT,75813,74275,75.81,74.28,8,1040,219,310
"Legazpi City, Albay, Philippines",13.11288,123.76295,Globe,118985,103423,118.99,103.42,24,1037,147,223
"San Carlos City, Negros Occidental, Philippines",10.48344,123.30371,Globe,130436,132854,130.44,132.85,11,1033,295,429
"San Pablo City, Laguna, Philippines",14.06422,121.32326,PLDT,89901,90608,89.90,90.61,8,1024,284,419
"Mabalacat City, Pampanga, Philippines",15.24525,120.56567,PLDT,78015,90524,78.02,90.52,10,1016,269,406
"San Isidro, Nueva Ecija, Philippines",15.29656,120.9073,PLDT Home Fiber,93937,91020,93.94,91.02,11,1016,260,437
"Rodriguez, Rizal, Philippines",14.73202,121.14516,Globe,203481,187848,203.48,187.85,4,1015,193,246
"Concepcion, Tarlac, Philippines",15.324,120.65596,Globe,250779,227471,250.78,227.47,4,1006,270,436
"San Ildefonso, Bulacan, Philippines",15.07717,120.94171,Globe,193886,169777,193.89,169.78,6,1003,298,436
"Virac, Catanduanes, Philippines",13.61939,124.17544,PLDT Home Fiber,74326,69011,74.33,69.01,13,1002,180,240
"Malaybalay City, Bukidnon, Philippines",8.15775,125.17087,PLDT Home Fiber,110148,108509,110.15,108.51,11,994,223,327
"Banga, South Cotabato, Philippines",6.38791,124.79617,PLDT Home Fiber,53142,48181,53.14,48.18,14,984,142,208
"Vigan City, Ilocos Sur, Philippines",17.56485,120.38781,PLDT,71610,72743,71.61,72.74,11,981,87,144
"Puerto Princesa City, Palawan, Philippines",9.78563,118.62648,SpaceX Starlink,42325,17826,42.33,17.83,25,980,114,172
"Rosario, Batangas, Philippines",13.80433,121.28552,Globe,214202,191041,214.20,191.04,7,974,302,483
"Biñan, Laguna, Philippines",14.31456,121.08316,Globe,218740,136193,218.74,136.19,6,969,216,302
"San Miguel, Bulacan, Philippines",15.14158,120.9751,PLDT Home Fiber,90577,85838,90.58,85.84,10,962,203,284
"Sindangan, Zamboanga del Norte, Philippines",8.19151,123.05639,PLDT Home Fiber,45779,49192,45.78,49.19,12,959,80,117
"Laurel, Batangas, Philippines",14.05302,120.9073,Globe,62289,54347,62.29,54.35,6,959,280,479
"Cotabato City, Maguindanao del Norte, Philippines",7.20467,124.23104,PLDT,68677,83546,68.68,83.55,18,954,224,323
"Malvar, Batangas, Philippines",14.04329,121.15875,PLDT Home Fiber,126627,147175,126.63,147.18,9,948,216,315
"Magsaysay, Davao del Sur, Philippines",6.75271,125.15221,PLDT Home Fiber,93153,93039,93.15,93.04,10,947,319,474
"Cavite, Philippines",14.48151,120.90833,PLDT Home Fiber,110504,145245,110.50,145.25,7,947,173,239
"Santo Nino, South Cotabato, Philippines",6.44221,124.67459,PLDT Home Fiber,35892,41889,35.89,41.89,14,944,60,87
"Obando, Bulacan, Philippines",14.70986,120.93674,PLDT Home Fiber,120867,104255,120.87,104.26,4,943,236,340
"Tagbilaran City, Bohol, Philippines",9.6534,123.86703,PLDT Home Fiber,92037,123979,92.04,123.98,9,943,208,307
"Hagonoy, Bulacan, Philippines",14.83564,120.73371,PLDT,73481,72279,73.48,72.28,7,939,174,243
"Agoncillo, Batangas, Philippines",13.94675,120.93026,Globe,62508,55374,62.51,55.37,7,939,287,508
"Bay, Laguna, Philippines",14.14064,121.26836,PLDT Home Fiber,183354,186524,183.35,186.52,6,937,328,471
"Laoag City, Ilocos Norte, Philippines",18.21075,120.58547,PLDT Home Fiber,98117,93612,98.12,93.61,11,934,196,293
"Infanta, Quezon, Philippines",14.74071,121.6451,PLDT Home Fiber,79485,75851,79.49,75.85,11,932,183,312
"Salvador Benedicto, Negros Occidental, Philippines",10.5887,123.23632,Globe,139948,128924,139.95,128.92,12,932,300,460
"San Rafael, Bulacan, Philippines",15.00184,120.93141,PLDT,94190,90458,94.19,90.46,6,931,259,410
"Kiamba, Sarangani, Philippines",6.00076,124.70777,PLDT,14442,14996,14.44,15.00,15,930,49,64
"Naujan, Oriental Mindoro, Philippines",13.24381,121.19395,PLDT Home Fiber,93438,93950,93.44,93.95,8,930,175,272
"San Fernando, Cebu, Philippines",10.16316,123.70738,Globe,139490,135534,139.49,135.53,17,930,319,452
"La Paz, Tarlac, Philippines",15.4497,120.7235,PLDT Home Fiber,94614,93831,94.61,93.83,9,929,282,420
"Guimba, Nueva Ecija, Philippines",15.65641,120.76767,Globe,200524,173287,200.52,173.29,6,923,292,449
"Panabo, Davao del Norte, Philippines",7.30822,125.68662,PLDT,80236,66021,80.24,66.02,9,921,154,203
"Pulilan, Bulacan, Philippines",14.90243,120.8459,PLDT Home Fiber,136679,130743,136.68,130.74,5,914,269,403
"Padre Garcia, Batangas, Philippines",13.87668,121.24547,Globe,170312,157262,170.31,157.26,6,914,269,414
"Oas, Albay, Philippines",13.14041,123.37106,PLDT,36013,33784,36.01,33.78,13,913,25,38
"La Carlota City, Negros Occidental, Philippines",10.41437,122.97757,PLDT,77000,68721,77.00,68.72,9,912,97,130
"Baliwag, Bulacan, Philippines",14.96569,120.89431,PLDT,90873,96053,90.87,96.05,9,911,200,289
"Dona Remedios Trinidad, Bulacan, Philippines",15.11427,121.21685,PLDT,56622,32254,56.62,32.25,13,908,320,454
"Ipil, Zamboanga Sibugay, Philippines",7.77318,122.57121,PLDT,78264,76387,78.26,76.39,20,907,103,150
"Lucban, Quezon, Philippines",14.1144,121.55472,PLDT Home Fiber,125705,131948,125.71,131.95,7,903,286,433
"Magalang, Pampanga, Philippines",15.21394,120.66181,PLDT Home Fiber,90878,90025,90.88,90.03,11,902,249,374
"Sultan Kudarat, Maguindanao, Philippines",7.26221,124.30883,PLDT Home Fiber,73861,76366,73.86,76.37,12,901,138,204
"Santa Cruz, Davao del Sur, Philippines",6.83551,125.41659,PLDT Home Fiber,103468,77282,103.47,77.28,9,899,179,289
"Tiaong, Quezon, Philippines",13.92962,121.34273,PLDT Home Fiber,94431,113257,94.43,113.26,7,893,230,375
"Sorsogon City, Sorsogon, Philippines",12.97888,123.98477,PLDT,106706,68784,106.71,68.78,16,878,157,217
"Barili, Cebu, Philippines",10.1254,123.55041,PLDT Home Fiber,83154,99569,83.15,99.57,8,876,227,378
"Puerto Princesa City, Palawan, Philippines",9.78563,118.62648,PLDT,60467,74649,60.47,74.65,21,874,201,323
"Panabo, Davao del Norte, Philippines",7.30822,125.68662,PLDT Home Fiber,86405,68898,86.41,68.90,9,870,179,254
"Alfonso, Cavite, Philippines",14.1214,120.86138,PLDT Home Fiber,87831,106192,87.83,106.19,7,863,165,208
"Alcala, Pangasinan, Philippines",15.8546,120.53942,PLDT Home Fiber,100314,114118,100.31,114.12,12,859,202,315
"Villasis, Pangasinan, Philippines",15.90523,120.55094,PLDT Home Fiber,82695,94654,82.70,94.65,11,858,227,363
"Kabankalan City, Negros Occidental, Philippines",9.91341,122.85358,PLDT,48167,70754,48.17,70.75,7,856,107,161
"Gerona, Tarlac, Philippines",15.60489,120.59698,PLDT Home Fiber,110334,107357,110.33,107.36,11,856,163,224
"Nabua, Camarines Sur, Philippines",13.4069,123.37324,PLDT Home Fiber,90813,116714,90.81,116.71,10,850,99,144
"Goa, Camarines Sur, Philippines",13.73619,123.41593,PLDT Home Fiber,72122,89180,72.12,89.18,9,850,90,124
"Nasugbu, Batangas, Philippines",14.09404,120.68901,PLDT Home Fiber,100478,95821,100.48,95.82,9,848,144,225
"San Fernando, Pampanga, Philippines",15.02781,120.69349,Globe,117730,108155,117.73,108.16,6,847,209,276
"General Tinio (Papaya), Nueva Ecija, Philippines",15.36345,121.21685,PLDT,53592,38887,53.59,38.89,13,845,245,358
"Moises Padilla, Negros Occidental, Philippines",10.26269,123.11266,PLDT Home Fiber,74810,83969,74.81,83.97,8,842,126,174
"Aritao, Nueva Vizcaya, Philippines",16.2515,121.01057,PLDT Home Fiber,94283,94569,94.28,94.57,7,836,214,356
"Bayombong, Nueva Vizcaya, Philippines",16.48042,121.14813,PLDT Home Fiber,64904,75211,64.90,75.21,8,824,133,210
"Calasiao, Pangasinan, Philippines",16.00949,120.35759,PLDT Home Fiber,104513,100714,104.51,100.71,7,823,181,282
"Ibaan, Batangas, Philippines",13.81895,121.13082,Globe,253932,215512,253.93,215.51,7,821,223,317
"Samal, Davao del Norte, Philippines",7.08352,125.70578,PLDT Home Fiber,58185,57597,58.19,57.60,9,816,124,170
"El Nido, Palawan, Philippines",11.19892,119.42317,SpaceX Starlink,70927,16498,70.93,16.50,28,815,125,219
"Tubod, Lanao del Norte, Philippines",7.99427,123.87462,PLDT Home Fiber,96259,94329,96.26,94.33,7,813,204,293
"Santa Fe, Nueva Vizcaya, Philippines",16.18249,120.91878,PLDT Home Fiber,104662,96981,104.66,96.98,7,811,245,396
"City of Mati, Davao Oriental, Philippines",6.95722,126.15454,PLDT Home Fiber,146138,190275,146.14,190.28,19,805,103,152
"Dapitan City, Zamboanga del Norte, Philippines",8.58118,123.42714,PLDT Home Fiber,164424,105611,164.42,105.61,9,804,88,121
"City of Cabadbaran, Agusan del Norte, Philippines",9.14092,125.697,PLDT Home Fiber,100801,94675,100.80,94.68,11,803,187,271
"Catmon, Cebu, Philippines",10.65242,123.9973,PLDT Home Fiber,177368,176440,177.37,176.44,6,798,205,327
"Toboso, Negros Occidental, Philippines",10.71769,123.46077,PLDT Home Fiber,52889,61077,52.89,61.08,7,791,171,275
"Kabacan, Cotabato, Philippines",7.10719,124.84034,PLDT Home Fiber,81267,78801,81.27,78.80,13,790,117,168
"Baliwag, Bulacan, Philippines",14.96569,120.89431,Globe,117309,108318,117.31,108.32,8,787,158,211
"Tanay, Rizal, Philippines",14.61419,121.37703,PLDT Home Fiber,110110,129821,110.11,129.82,4,785,119,197
"Liliw, Laguna, Philippines",14.12617,121.4399,PLDT Home Fiber,152454,199200,152.45,199.20,9,779,203,346
"Carmona, Cavite, Philippines",14.3135,121.05712,Globe,228173,207172,228.17,207.17,6,778,210,313
"Magalang, Pampanga, Philippines",15.21394,120.66181,Globe,224006,219622,224.01,219.62,5,772,257,388
"Bacoor, Cavite, Philippines",14.43122,120.96567,SpaceX Starlink,119402,20458,119.40,20.46,23,772,61,84
"President Roxas, Cotabato, Philippines",7.37928,125.06084,PLDT Home Fiber,137293,100526,137.29,100.53,11,772,276,396
"Rosario, Cavite, Philippines",14.41672,120.85471,PLDT Home Fiber,105259,116241,105.26,116.24,5,764,169,245
"Toledo, Cebu, Philippines",10.38705,123.65017,PLDT,40820,35121,40.82,35.12,8,763,111,145
"Marawi City, Lanao del Sur, Philippines",8.0292,124.29772,Globe,49892,45142,49.89,45.14,9,760,93,127
"Rodriguez, Rizal, Philippines",14.73202,121.14516,PLDT,36598,47911,36.60,47.91,9,760,174,232
"Capas, Tarlac, Philippines",15.34633,120.59344,PLDT,71527,83384,71.53,83.38,7,757,144,214
"San Jose, Batangas, Philippines",13.87868,121.09942,Globe,144690,125529,144.69,125.53,7,755,238,366
"Dipolog City, Zamboanga del Norte, Philippines",8.58717,123.34035,Globe,84277,40269,84.28,40.27,12,750,106,152
"Olongapo City, Zambales, Philippines",14.88739,120.36661,PLDT Home Fiber,100954,73276,100.95,73.28,8,748,193,269
"Iriga City, Camarines Sur, Philippines",13.42095,123.41361,PLDT Home Fiber,57163,116445,57.16,116.45,13,748,95,142
"San Rafael, Bulacan, Philippines",15.00184,120.93141,Globe,215906,159473,215.91,159.47,7,743,241,346
"Sariaya, Quezon, Philippines",13.96301,121.52388,PLDT,92303,93325,92.30,93.33,9,739,193,265
"Santa Rita, Pampanga, Philippines",14.99762,120.61451,PLDT Home Fiber,126752,129785,126.75,129.79,7,738,221,333
"Muñoz, Nueva Ecija, Philippines",15.70664,120.9029,PLDT Home Fiber,94744,102696,94.74,102.70,13,738,132,189
"Isabela, Basilan, Philippines",6.70387,121.9799,SpaceX Starlink,28744,12783,28.74,12.78,29,737,90,134
"Madamba, Lanao del Sur, Philippines",7.86931,124.06971,PLDT Home Fiber,96864,94982,96.86,94.98,6,737,244,341
"City Of Bislig, Surigao del Sur, Philippines",8.21006,126.28478,PLDT Home Fiber,50218,67710,50.22,67.71,11,733,66,92
"Pateros, Metro Manila, Philippines",14.54838,121.07077,PLDT Home Fiber,196542,194747,196.54,194.75,3,731,171,236
"Sogod, Cebu, Philippines",10.77419,123.9527,Globe,115947,102517,115.95,102.52,19,729,271,347
"General Mariano Alvarez, Cavite, Philippines",14.29525,121.0071,PLDT,137878,147691,137.88,147.69,7,722,144,191
"Noveleta, Cavite, Philippines",14.42785,120.88009,PLDT Home Fiber,92931,118363,92.93,118.36,7,720,151,233
"Santa Cruz, Laguna, Philippines",14.26911,121.41133,PLDT Home Fiber,111280,96537,111.28,96.54,11,718,133,174
"Dagupan City, Pangasinan, Philippines",16.03375,120.33202,PLDT,58112,54065,58.11,54.07,8,716,142,225
"Bambang, Nueva Vizcaya, Philippines",16.40415,121.10229,PLDT Home Fiber,77116,91258,77.12,91.26,9,716,153,234
"Guimba, Nueva Ecija, Philippines",15.65641,120.76767,PLDT Home Fiber,93896,93847,93.90,93.85,11,715,176,279
"Trece Martires City, Cavite, Philippines",14.28222,120.86837,Globe,102814,104939,102.81,104.94,6,713,140,192
"Trento, Agusan del Sur, Philippines",8.05257,126.21969,PLDT Home Fiber,81623,78766,81.62,78.77,15,713,174,246
"San Mateo, Rizal, Philippines",14.69539,121.11767,PLDT,75403,87339,75.40,87.34,7,709,207,278
"Porac, Pampanga, Philippines",15.06974,120.55007,PLDT,56946,58935,56.95,58.94,10,708,181,263
"General Mariano Alvarez, Cavite, Philippines",14.29525,121.0071,PLDT Home Fiber,134125,190253,134.13,190.25,7,704,140,177
"Pagalungan, Maguindanao, Philippines",6.93298,124.75198,PLDT Home Fiber,80236,87735,80.24,87.74,13,704,194,305
"Floridablanca, Pampanga, Philippines",14.9619,120.49471,PLDT Home Fiber,96489,92585,96.49,92.59,10,699,157,214
"Bula, Camarines Sur, Philippines",13.44119,123.23632,SpaceX Starlink,22715,7485,22.72,7.49,32,698,9,14
"Olongapo City, Zambales, Philippines",14.88739,120.36661,PLDT,124903,65102,124.90,65.10,7,697,185,265
"Bauang, La Union, Philippines",16.51433,120.35508,PLDT Home Fiber,92733,95240,92.73,95.24,4,695,136,201
"Lupao, Nueva Ecija, Philippines",15.84768,120.91878,Globe,93136,85269,93.14,85.27,8,691,196,368
"Tagbilaran City, Bohol, Philippines",9.6534,123.86703,Globe,112104,91805,112.10,91.81,8,690,98,136
"Binangonan, Rizal, Philippines",14.48441,121.1869,Globe,176182,158903,176.18,158.90,4,690,152,188
"Gandara, Samar, Philippines",12.06444,124.79617,PLDT Home Fiber,30031,25658,30.03,25.66,18,690,29,34
"President Roxas, Cotabato, Philippines",7.37928,125.06084,PLDT,72860,84386,72.86,84.39,11,687,198,285
"San Simon, Pampanga, Philippines",14.98432,120.75127,PLDT Home Fiber,93751,94531,93.75,94.53,7,687,149,245
"Buguias, Benguet, Philippines",16.74318,120.82692,PLDT Home Fiber,93778,94678,93.78,94.68,7,685,143,236
"Polomolok, South Cotabato, Philippines",6.22451,125.06084,Globe,103738,59984,103.74,59.98,13,684,108,139
"Tanza, Cavite, Philippines",14.34293,120.85032,Globe,111693,94012,111.69,94.01,6,682,167,207
"Labason, Zamboanga del Norte, Philippines",8.01373,122.51464,PLDT Home Fiber,73692,56356,73.69,56.36,11,681,33,41
"Balagtas, Bulacan, Philippines",14.81784,120.90646,PLDT Home Fiber,98951,97726,98.95,97.73,8,680,145,204
"Kabayan, Benguet, Philippines",16.61702,120.82692,PLDT Home Fiber,109918,107944,109.92,107.94,6,676,109,170
"San Mateo, Rizal, Philippines",14.69539,121.11767,Globe,181944,156357,181.94,156.36,5,675,160,206
"Pantukan, Davao de Oro, Philippines",7.20012,126.04584,PLDT Home Fiber,52737,48315,52.74,48.32,12,675,59,79
"Lagawe, Ifugao, Philippines",16.80825,121.19395,PLDT Home Fiber,93243,96962,93.24,96.96,8,675,172,306
"San Miguel, Bulacan, Philippines",15.14158,120.9751,Globe,203142,195227,203.14,195.23,6,673,194,289
"Liloan, Cebu, Philippines",10.39926,124.00002,PLDT,133821,174019,133.82,174.02,4,670,134,174
"Silay, Negros Occidental, Philippines",10.79968,122.97605,PLDT Home Fiber,81712,94165,81.71,94.17,9,670,179,280
"Santo Tomas, Batangas, Philippines",14.08754,121.17764,Globe,132902,109241,132.90,109.24,7,667,167,243
"Jasaan, Misamis Oriental, Philippines",8.65161,124.78513,PLDT Home Fiber,59390,56737,59.39,56.74,4,666,33,41
"Davao City, Davao del Sur, Philippines",7.06475,125.60884,SpaceX Starlink,66647,17276,66.65,17.28,35,666,127,190
"City of Borongan, Eastern Samar, Philippines",11.61739,125.34663,Globe,97371,114667,97.37,114.67,26,663,96,126
"Digos, Davao del Sur, Philippines",6.74347,125.35515,PLDT,67877,75956,67.88,75.96,11,659,146,211
"Tadian, Mountain Province, Philippines",16.96608,120.81544,PLDT Home Fiber,93770,94339,93.77,94.34,7,657,122,183
"Tuguegarao City, Cagayan, Philippines",17.60306,121.75374,PLDT Home Fiber,86475,85769,86.48,85.77,13,657,175,252
"Carcar, Cebu, Philippines",10.10478,123.64147,PLDT,43457,41633,43.46,41.63,16,651,169,261
"Balagtas, Bulacan, Philippines",14.81784,120.90646,PLDT,95622,94561,95.62,94.56,5,651,199,312
"Minalin, Pampanga, Philippines",14.97052,120.68518,PLDT Home Fiber,94247,91977,94.25,91.98,7,647,152,237
"Kapalong, Davao del Norte, Philippines",7.82951,125.522,PLDT Home Fiber,87744,117979,87.74,117.98,10,644,84,106
"Iligan City, Lanao del Norte, Philippines",8.22707,124.46418,PLDT,49450,50554,49.45,50.55,22,640,213,314
"Dagupan City, Pangasinan, Philippines",16.03375,120.33202,Globe,127682,119069,127.68,119.07,6,639,69,86
"Santo Domingo, Nueva Ecija, Philippines",15.61284,120.88434,PLDT,27555,59228,27.56,59.23,16,638,115,190
"Nabunturan, Davao de Oro, Philippines",7.54501,126.02409,PLDT Home Fiber,75681,78251,75.68,78.25,12,635,160,235
"Malolos, Bulacan, Philippines",14.86049,120.80916,Globe,131559,145886,131.56,145.89,7,633,127,172
"Barotac Viejo, Iloilo, Philippines",11.10187,122.87613,PLDT,31956,42774,31.96,42.77,14,633,63,85
"Tacloban City, Leyte, Philippines",11.22238,124.99221,PLDT Home Fiber,111366,131165,111.37,131.17,9,633,120,164
"Pavia, Iloilo, Philippines",10.7748,122.54261,PLDT Home Fiber,160834,169894,160.83,169.89,8,632,168,232
"Oroquieta City, Misamis Occidental, Philippines",8.48597,123.79825,PLDT Home Fiber,89646,69743,89.65,69.74,7,631,67,85
"Tagum, Davao del Norte, Philippines",7.44742,125.80246,PLDT,89886,94892,89.89,94.89,10,631,116,173
"Ormoc City, Leyte, Philippines",11.03843,124.61927,PLDT,18868,30182,18.87,30.18,12,624,73,134
"Bayawan City, Negros Oriental, Philippines",9.53644,122.7633,PLDT,79347,92012,79.35,92.01,10,623,126,164
"Calabanga, Camarines Sur, Philippines",13.71633,123.28126,PLDT Home Fiber,102688,129128,102.69,129.13,12,622,109,150
"Cotabato City, Maguindanao del Norte, Philippines",7.20467,124.23104,Globe,121143,53769,121.14,53.77,11,620,81,97
"Cauayan City, Isabela, Philippines",16.91662,121.78792,PLDT Home Fiber,94066,95261,94.07,95.26,11,619,140,200
"Mexico, Pampanga, Philippines",15.06457,120.72033,PLDT,48561,53600,48.56,53.60,12,619,137,201
"Butuan City, Agusan del Norte, Philippines",8.94753,125.54063,PLDT,59960,54464,59.96,54.46,12,616,166,234
"Los Baños, Laguna, Philippines",14.17731,121.22161,PLDT,83188,92246,83.19,92.25,7,616,157,217
"Daraga, Albay, Philippines",13.12278,123.69588,Globe,124876,100682,124.88,100.68,25,615,84,123
"Hagonoy, Bulacan, Philippines",14.83564,120.73371,PLDT Home Fiber,122649,123793,122.65,123.79,8,614,124,181
"Ragay, Camarines Sur, Philippines",13.83123,122.78588,PLDT,27247,28333,27.25,28.33,22,613,11,13
"Hinunangan, Southern Leyte, Philippines",10.39458,125.14888,SpaceX Starlink,28768,9606,28.77,9.61,42,612,42,56
"Daraga, Albay, Philippines",13.12278,123.69588,PLDT,73291,64028,73.29,64.03,10,612,159,212
"Alaminos City, Pangasinan, Philippines",16.15053,119.98562,PLDT Home Fiber,108236,130617,108.24,130.62,9,611,111,161
"Isabela, Negros Occidental, Philippines",10.22566,123.01136,PLDT Home Fiber,91463,93969,91.46,93.97,8,607,117,178
"Kiamba, Sarangani, Philippines",6.00076,124.70777,PLDT Home Fiber,73542,83145,73.54,83.15,14,607,19,35
"Talavera, Nueva Ecija, Philippines",15.58575,120.9197,PLDT,75406,75595,75.41,75.60,10,607,77,97
"La Carlota City, Negros Occidental, Philippines",10.41437,122.97757,PLDT Home Fiber,128894,120962,128.89,120.96,7,606,169,284
"Catarman, Northern Samar, Philippines",12.44271,124.61927,Globe,100205,105700,100.21,105.70,13,605,87,118
"Santa Rita, Pampanga, Philippines",14.99762,120.61451,PLDT,57506,74862,57.51,74.86,16,604,134,186
"Caluya, Antique, Philippines",12.01176,121.38847,SpaceX Starlink,34407,10389,34.41,10.39,30,603,58,76
"Silang, Cavite, Philippines",14.22025,120.96469,Globe,179773,141778,179.77,141.78,6,602,137,192
"Buhi, Camarines Sur, Philippines",13.40951,123.51681,PLDT Home Fiber,83523,159528,83.52,159.53,18,601,45,58
"Candelaria, Quezon, Philippines",13.94899,121.42276,PLDT,76922,85379,76.92,85.38,8,597,193,279
"Sibulan, Negros Oriental, Philippines",9.35972,123.28476,Globe,107287,87119,107.29,87.12,9,596,80,111
"Bongao, Tawi-Tawi, Philippines",5.09323,119.8468,SpaceX Starlink,34124,11910,34.12,11.91,51,595,64,96
"Ozamiz, Misamis Occidental, Philippines",8.15,123.85033,PLDT Home Fiber,74844,60212,74.84,60.21,6,595,80,114
"Rosales, Pangasinan, Philippines",15.86126,120.63149,PLDT Home Fiber,93492,108245,93.49,108.25,11,593,134,225
"Kalibo, Aklan, Philippines",11.70734,122.36986,Globe,117313,105535,117.31,105.54,15,593,87,114
"Santo Tomas, Batangas, Philippines",14.08754,121.17764,PLDT,66526,61520,66.53,61.52,11,589,187,223
"Masbate City, Masbate, Philippines",12.31777,123.55041,PLDT,105331,46710,105.33,46.71,18,589,124,178
"Gigaquit, Surigao del Norte, Philippines",9.48544,125.70792,SpaceX Starlink,76916,19766,76.92,19.77,43,589,3,3
"Dinalupihan, Bataan, Philippines",14.88605,120.44729,PLDT Home Fiber,126139,97560,126.14,97.56,8,589,132,168
"Polanco, Zamboanga del Norte, Philippines",8.49106,123.38228,PLDT Home Fiber,90018,92761,90.02,92.76,9,587,61,89
"Talavera, Nueva Ecija, Philippines",15.58575,120.9197,PLDT Home Fiber,88470,94740,88.47,94.74,10,587,101,147
"Paniqui, Tarlac, Philippines",15.66603,120.53942,PLDT Home Fiber,113994,94173,113.99,94.17,11,586,128,177
"Naval, Biliran, Philippines",11.56681,124.44201,Globe,72407,65294,72.41,65.29,14,586,85,107
"Guiguinto, Bulacan, Philippines",14.82832,120.88429,PLDT,113772,111527,113.77,111.53,7,586,150,220
"San Jose, Batangas, Philippines",13.87868,121.09942,PLDT,97254,134154,97.25,134.15,7,585,148,191
"Marawi City, Lanao del Sur, Philippines",8.0292,124.29772,PLDT,44997,37469,45.00,37.47,25,584,146,243
"Cebu City, Cebu, Philippines",10.29261,123.90219,SpaceX Starlink,89526,16982,89.53,16.98,32,582,101,172
"Alicia, Isabela, Philippines",16.80691,121.69674,PLDT,47011,51124,47.01,51.12,14,580,145,211
"Orion, Bataan, Philippines",14.61604,120.56431,PLDT Home Fiber,100072,80934,100.07,80.93,8,577,70,95
"Borbon, Cebu, Philippines",10.84627,123.9973,Globe,117420,104368,117.42,104.37,19,576,181,238
"Tupi, South Cotabato, Philippines",6.33849,124.97271,PLDT Home Fiber,87800,69211,87.80,69.21,12,575,73,105
"San Manuel, Pangasinan, Philippines",16.10561,120.67751,PLDT,106208,96880,106.21,96.88,8,571,181,289
"Aguinaldo, Ifugao, Philippines",16.95291,121.33129,PLDT Home Fiber,89997,97330,90.00,97.33,12,570,131,248
"Baras, Rizal, Philippines",14.53656,121.27408,PLDT Home Fiber,82105,79029,82.11,79.03,4,569,105,152
"Gasan, Marinduque, Philippines",13.32138,121.89041,PLDT Home Fiber,78587,104172,78.59,104.17,12,568,43,62
"Tanza, Cavite, Philippines",14.34293,120.85032,PLDT,81832,90507,81.83,90.51,8,568,115,163
"Pandan, Antique, Philippines",11.75185,122.10647,SpaceX Starlink,119868,17773,119.87,17.77,30,567,16,22
"Cadiz City, Negros Occidental, Philippines",10.86192,123.23632,Globe,119422,106843,119.42,106.84,10,565,160,228
"Pilar, Sorsogon, Philippines",12.97477,123.6847,PLDT,76961,74532,76.96,74.53,16,564,45,58
"City of Catbalogan, Samar, Philippines",11.85683,124.88449,Globe,116369,117592,116.37,117.59,12,562,100,139
"Abucay, Bataan, Philippines",14.73361,120.49336,PLDT Home Fiber,76837,86969,76.84,86.97,9,562,119,175
"Zamboanga City, Zamboanga del Sur, Philippines",6.90437,122.07612,SpaceX Starlink,44325,16386,44.33,16.39,36,562,76,119
"Dumangas, Iloilo, Philippines",10.82109,122.71167,PLDT Home Fiber,53806,76051,53.81,76.05,10,561,92,124
"Argao, Cebu, Philippines",9.88114,123.60535,PLDT,85364,100311,85.36,100.31,8,559,90,118
"San Carlos City, Pangasinan, Philippines",15.92589,120.34827,PLDT Home Fiber,94404,98792,94.40,98.79,7,559,195,302
"Bayombong, Nueva Vizcaya, Philippines",16.48042,121.14813,PLDT,57161,61294,57.16,61.29,8,557,115,153
"Pilar, Sorsogon, Philippines",12.97477,123.6847,PLDT Home Fiber,21532,13658,21.53,13.66,60,557,3,4
"Carcar, Cebu, Philippines",10.10478,123.64147,PLDT Home Fiber,82665,82423,82.67,82.42,4,554,71,105
"Aleosan, Cotabato, Philippines",7.18894,124.63034,PLDT Home Fiber,75908,87365,75.91,87.37,15,553,136,204
"San Antonio, Quezon, Philippines",13.89506,121.29697,PLDT Home Fiber,110746,104784,110.75,104.78,6,553,105,154
"Laurel, Batangas, Philippines",14.05302,120.9073,PLDT Home Fiber,74075,90641,74.08,90.64,7,553,80,125
"Tanay, Rizal, Philippines",14.61419,121.37703,SpaceX Starlink,18586,8640,18.59,8.64,25,550,142,271
"Dingalan, Aurora, Philippines",15.43523,121.42276,PLDT Home Fiber,82219,44718,82.22,44.72,13,546,46,71
"Pateros, Metro Manila, Philippines",14.54838,121.07077,PLDT,99679,116158,99.68,116.16,18,546,170,202
"Hinunangan, Southern Leyte, Philippines",10.39458,125.14888,PLDT,68207,54608,68.21,54.61,10,545,66,79
"Tanjay City, Negros Oriental, Philippines",9.49579,122.9663,PLDT Home Fiber,67361,67859,67.36,67.86,10,545,97,122
"Enrique B. Magalona, Negros Occidental, Philippines",10.87695,122.98281,PLDT Home Fiber,93307,94572,93.31,94.57,8,542,140,216
"Plaridel, Bulacan, Philippines",14.88591,120.85932,PLDT,133184,96498,133.18,96.50,5,541,147,219
"Zamboanga City, Zamboanga del Sur, Philippines",6.90437,122.07612,PLDT,60828,57231,60.83,57.23,22,541,93,192
"Lala, Lanao del Norte, Philippines",7.9486,123.76295,PLDT Home Fiber,54444,53028,54.44,53.03,9,540,95,130
"Odiongan, Romblon, Philippines",12.36445,122.01555,PLDT,88460,93926,88.46,93.93,13,540,109,151
"Isulan, Sultan Kudarat, Philippines",6.6318,124.44201,PLDT,49774,64099,49.77,64.10,13,540,91,134
"Naga, Cebu, Philippines",10.20764,123.75821,PLDT,89760,96637,89.76,96.64,4,539,80,115
"Jaen, Nueva Ecija, Philippines",15.39558,120.87286,PLDT,80966,90768,80.97,90.77,14,538,135,215
"Norzagaray, Bulacan, Philippines",14.89659,121.14813,PLDT,89335,60321,89.34,60.32,11,536,126,169
"San Nicolas, Batangas, Philippines",13.99452,120.99337,PLDT Home Fiber,57696,74974,57.70,74.97,8,535,115,178
"Pagsanjan, Laguna, Philippines",14.26244,121.45704,PLDT,47735,49591,47.74,49.59,12,535,126,184
"Salug, Zamboanga del Norte, Philippines",8.06518,122.78588,PLDT,75730,69942,75.73,69.94,19,534,25,36
"Ozamiz, Misamis Occidental, Philippines",8.15,123.85033,Globe,122739,52665,122.74,52.67,13,532,90,120
"Ipil, Zamboanga Sibugay, Philippines",7.77318,122.57121,PLDT Home Fiber,75134,61772,75.13,61.77,20,532,89,116
"Lambayong (Mariano Marcos), Sultan Kudarat, Philippines",6.79879,124.61927,PLDT Home Fiber,56823,47823,56.82,47.82,15,531,51,72
"Bais City, Negros Oriental, Philippines",9.56801,123.01136,SpaceX Starlink,53305,19687,53.31,19.69,31,531,13,23
"Bagumbayan, Sultan Kudarat, Philippines",6.4606,124.55284,PLDT Home Fiber,49402,42187,49.40,42.19,19,530,32,46
"Sibutad, Zamboanga del Norte, Philippines",8.61241,123.4944,PLDT,43633,76762,43.63,76.76,13,530,41,73
"San Andres, Catanduanes, Philippines",13.6332,124.08641,PLDT,47991,78133,47.99,78.13,13,529,47,63
"Libmanan, Camarines Sur, Philippines",13.69376,123.05982,PLDT Home Fiber,34403,33741,34.40,33.74,35,526,62,81
"Asipulo, Ifugao, Philippines",16.66328,121.05644,Globe,90938,67622,90.94,67.62,8,526,139,262
"Tuguegarao City, Cagayan, Philippines",17.60306,121.75374,Globe,118617,108219,118.62,108.22,11,524,91,124
"Pozorrubio, Pangasinan, Philippines",16.11642,120.54316,PLDT,74009,87171,74.01,87.17,9,523,123,182
"Santa Catalina, Negros Oriental, Philippines",9.28676,122.94377,PLDT,52611,70908,52.61,70.91,10,523,51,67
"Mangaldan, Pangasinan, Philippines",16.06513,120.40474,PLDT,82312,65092,82.31,65.09,9,523,73,95
"Penablanca, Cagayan, Philippines",17.66268,121.94731,PLDT,38261,81256,38.26,81.26,13,521,137,198
"Boac, Marinduque, Philippines",13.39413,121.87903,PLDT,73097,59034,73.10,59.03,10,520,121,169
"San Pascual, Batangas, Philippines",13.81044,121.02204,PLDT Home Fiber,130384,127212,130.38,127.21,6,520,144,192
"Titay, Zamboanga Sibugay, Philippines",7.84847,122.57121,PLDT Home Fiber,94036,94500,94.04,94.50,11,518,87,113
"Kapatagan, Lanao del Norte, Philippines",7.86776,123.72942,PLDT Home Fiber,94025,109321,94.03,109.32,8,518,58,82
"San Simon, Pampanga, Philippines",14.98432,120.75127,PLDT,74502,59421,74.50,59.42,11,518,167,240
"Malita, Davao Occidental, Philippines",6.41184,125.61321,PLDT Home Fiber,144317,141280,144.32,141.28,11,517,92,130
"Pandi, Bulacan, Philippines",14.87572,120.95941,Globe,109169,95037,109.17,95.04,8,517,92,116
"Santa Maria, Pangasinan, Philippines",15.95523,120.7005,Globe,61379,53882,61.38,53.88,7,517,124,279
"Cuyapo, Nueva Ecija, Philippines",15.79995,120.68901,PLDT Home Fiber,109146,114919,109.15,114.92,11,516,149,216
"Sipalay City, Negros Occidental, Philippines",9.71979,122.49201,PLDT,42929,43785,42.93,43.79,8,514,67,126
"Alabel, Sarangani, Philippines",6.10416,125.28792,PLDT Home Fiber,78295,71946,78.30,71.95,12,513,90,145
"Liloy, Zamboanga del Norte, Philippines",8.07325,122.69555,PLDT,52543,58464,52.54,58.46,22,513,47,68
"General Tinio (Papaya), Nueva Ecija, Philippines",15.36345,121.21685,PLDT Home Fiber,142449,93934,142.45,93.93,11,511,142,206
"Panganiban, Catanduanes, Philippines",13.89356,124.2755,SpaceX Starlink,12290,7709,12.29,7.71,30,509,20,30
"Midsayap, Cotabato, Philippines",7.19181,124.53474,PLDT Home Fiber,86620,93704,86.62,93.70,12,508,93,126
"Malaybalay City, Bukidnon, Philippines",8.15775,125.17087,PLDT,65211,52428,65.21,52.43,22,506,88,145
"San Luis, Pampanga, Philippines",15.03986,120.81544,Globe,260385,227147,260.39,227.15,6,506,182,258
"San Fernando, Bukidnon, Philippines",7.84637,125.34663,Globe,64353,55956,64.35,55.96,4,505,200,294
"Santo Domingo, Nueva Ecija, Philippines",15.61284,120.88434,PLDT Home Fiber,93504,78366,93.50,78.37,11,505,121,162
"Tagaytay City, Cavite, Philippines",14.11541,120.96202,PLDT Home Fiber,43756,32911,43.76,32.91,6,504,150,235
"Oton, Iloilo, Philippines",10.69251,122.47868,PLDT Home Fiber,63461,93309,63.46,93.31,8,504,98,131
"General Luna, Surigao del Norte, Philippines",9.78375,126.15657,SpaceX Starlink,71214,13305,71.21,13.31,39,503,99,173
"Maitum, Sarangani, Philippines",6.12408,124.48636,PLDT,12851,9978,12.85,9.98,14,503,46,66
"Parañaque, Metro Manila, Philippines",14.47929,121.01985,SpaceX Starlink,92081,19577,92.08,19.58,22,501,51,77
"San Fabian, Pangasinan, Philippines",16.14188,120.44729,PLDT,69325,73373,69.33,73.37,7,500,140,195
"Baler, Aurora, Philippines",15.73361,121.57125,PLDT,66202,57444,66.20,57.44,14,500,130,205
"San Juan, Batangas, Philippines",13.75044,121.37703,Globe,175154,162625,175.15,162.63,7,499,166,265
"City of Tabuk, Kalinga, Philippines",17.42402,121.3999,PLDT Home Fiber,60594,59459,60.59,59.46,14,498,102,150
"San Pascual, Batangas, Philippines",13.81044,121.02204,Globe,136332,115224,136.33,115.22,6,497,110,158
"Bayambang, Pangasinan, Philippines",15.80947,120.45714,PLDT Home Fiber,75783,81760,75.78,81.76,13,496,75,98
"Guagua, Pampanga, Philippines",14.96374,120.63244,PLDT,112963,135063,112.96,135.06,12,496,82,114
"Isulan, Sultan Kudarat, Philippines",6.6318,124.44201,PLDT Home Fiber,79335,51486,79.34,51.49,13,495,52,81
"Balanga City, Bataan, Philippines",14.67454,120.47033,PLDT,58963,61867,58.96,61.87,15,495,138,205
"Urdaneta City, Pangasinan, Philippines",15.98194,120.59698,PLDT,80888,77812,80.89,77.81,7,494,127,193
"Gubat, Sorsogon, Philippines",12.92415,124.09755,PLDT,78662,46856,78.66,46.86,16,494,32,46
"Carles, Iloilo, Philippines",11.55216,123.13515,PLDT Home Fiber,48041,57987,48.04,57.99,11,493,34,52
"Paracale, Camarines Norte, Philippines",14.23721,122.78588,PLDT,44748,24626,44.75,24.63,12,493,82,157
"Jolo, Sulu, Philippines",6.04533,121.01631,SpaceX Starlink,12587,9080,12.59,9.08,40,492,57,92
"Trece Martires City, Cavite, Philippines",14.28222,120.86837,PLDT,82614,92679,82.61,92.68,5,492,134,182
"Villareal, Samar, Philippines",11.53963,124.92861,PLDT Home Fiber,202172,153769,202.17,153.77,8,490,14,17
"San Leonardo, Nueva Ecija, Philippines",15.37285,120.95321,PLDT Home Fiber,85048,94235,85.05,94.24,10,490,116,194
"Orani, Bataan, Philippines",14.80086,120.53616,PLDT,61958,84889,61.96,84.89,9,489,168,213
"Infanta, Quezon, Philippines",14.74071,121.6451,PLDT,32801,35277,32.80,35.28,13,488,129,197
"Quezon City, Metro Manila, Philippines",14.64879,121.05094,SpaceX Starlink,77355,16233,77.36,16.23,23,486,110,172
"Mabalacat City, Pampanga, Philippines",15.24525,120.56567,Globe,133461,131298,133.46,131.30,4,486,124,161
"Kadingilan, Bukidnon, Philippines",7.53321,124.87345,PLDT Home Fiber,96190,94090,96.19,94.09,10,486,132,179
"Gapan City, Nueva Ecija, Philippines",15.29121,121.01057,Globe,216928,208438,216.93,208.44,5,483,132,181
"Bayambang, Pangasinan, Philippines",15.80947,120.45714,PLDT,42133,38773,42.13,38.77,18,483,105,151
"Malvar, Batangas, Philippines",14.04329,121.15875,PLDT,84430,91025,84.43,91.03,14,483,133,188
"San Joaquin, Iloilo, Philippines",10.64155,122.10647,PLDT Home Fiber,43276,44446,43.28,44.45,8,482,30,44
"City of Mati, Davao Oriental, Philippines",6.95722,126.15454,SpaceX Starlink,21605,14119,21.61,14.12,38,482,48,67
"Clarin, Misamis Occidental, Philippines",8.19969,123.86237,PLDT Home Fiber,66922,60377,66.92,60.38,9,482,97,157
"Mambajao, Camiguin, Philippines",9.22153,124.71882,PLDT Home Fiber,46427,40511,46.43,40.51,5,481,75,96
"Meycauayan, Bulacan, Philippines",14.73772,120.96077,PLDT,78173,87278,78.17,87.28,7,481,121,197
"Banate, Iloilo, Philippines",11.06503,122.77459,PLDT,55673,54006,55.67,54.01,13,480,57,70
"Datu Odin Sinsuat (Dinaig), Maguindanao del Norte, Philippines",7.08286,124.26439,PLDT Home Fiber,67876,71955,67.88,71.96,12,477,52,72
"Molave, Zamboanga del Sur, Philippines",8.10419,123.4944,PLDT Home Fiber,55148,61673,55.15,61.67,10,477,58,88
"Norala, South Cotabato, Philippines",6.5061,124.66353,PLDT Home Fiber,52972,47095,52.97,47.10,17,476,36,55
"City of Baybay, Leyte, Philippines",10.66858,124.80409,Globe,117897,98740,117.90,98.74,22,475,65,85
"San Manuel, Tarlac, Philippines",15.82906,120.60273,PLDT Home Fiber,92957,118249,92.96,118.25,12,473,134,231
"Basey, Samar, Philippines",11.40967,125.17087,PLDT,32477,32630,32.48,32.63,33,472,41,54
"Tayug, Pangasinan, Philippines",16.01085,120.74649,PLDT Home Fiber,94516,94516,94.52,94.52,11,472,124,208
"Sagay City, Negros Occidental, Philippines",10.84555,123.37106,PLDT,62830,61996,62.83,62.00,16,471,96,161
"San Luis, Pampanga, Philippines",15.03986,120.81544,PLDT Home Fiber,93125,80995,93.13,81.00,8,471,99,157
"Manaoag, Pangasinan, Philippines",16.04627,120.4876,PLDT Home Fiber,109925,118636,109.93,118.64,9,470,115,161
"Ajuy, Iloilo, Philippines",11.13583,123.0001,PLDT,29255,30680,29.26,30.68,17,470,38,67
"Echague, Isabela, Philippines",16.66606,121.78792,PLDT Home Fiber,85643,86545,85.64,86.55,13,470,95,140
"Bangued, Abra, Philippines",17.58818,120.63149,PLDT Home Fiber,88280,80754,88.28,80.75,13,468,91,123
"Arakan, Cotabato, Philippines",7.35122,125.17087,PLDT,76445,92426,76.45,92.43,11,466,136,182
"Lobo, Batangas, Philippines",13.6877,121.23974,PLDT Home Fiber,94214,94734,94.21,94.73,5,466,136,195
"Goa, Camarines Sur, Philippines",13.73619,123.41593,PLDT,89874,101718,89.87,101.72,10,465,68,105
"Polomolok, South Cotabato, Philippines",6.22451,125.06084,PLDT,44949,47688,44.95,47.69,20,463,130,198
"Balamban, Cebu, Philippines",10.48585,123.77412,PLDT,43308,48040,43.31,48.04,5,463,80,122
"Maria Aurora, Aurora, Philippines",15.75061,121.3999,PLDT,48136,48091,48.14,48.09,12,463,63,95
"Leganes, Iloilo, Philippines",10.78605,122.5888,PLDT Home Fiber,101337,116281,101.34,116.28,7,462,42,53
"Balayan, Batangas, Philippines",13.94995,120.72973,PLDT Home Fiber,82793,68004,82.79,68.00,9,461,80,106
"Kalayaan, Laguna, Philippines",14.32356,121.47757,PLDT,90197,92049,90.20,92.05,8,460,44,58
"Bagabag, Nueva Vizcaya, Philippines",16.58337,121.28552,PLDT Home Fiber,119719,108048,119.72,108.05,10,459,126,184
"San Mateo, Isabela, Philippines",16.87673,121.59408,PLDT Home Fiber,42847,55719,42.85,55.72,13,459,86,123
"Maria Aurora, Aurora, Philippines",15.75061,121.3999,PLDT Home Fiber,90355,92162,90.36,92.16,12,458,94,137
"San Leonardo, Nueva Ecija, Philippines",15.37285,120.95321,PLDT,62456,74734,62.46,74.73,11,458,113,173
"Angat, Bulacan, Philippines",14.92586,121.02204,PLDT Home Fiber,94234,95165,94.23,95.17,6,457,144,223
"Pavia, Iloilo, Philippines",10.7748,122.54261,Globe,171018,148657,171.02,148.66,4,456,103,139
"Lubao, Pampanga, Philippines",14.92678,120.58795,PLDT,63238,65092,63.24,65.09,11,456,115,165
"T'boli, South Cotabato, Philippines",6.14683,124.90655,PLDT Home Fiber,57018,44454,57.02,44.45,15,456,54,72
"San Remigio, Antique, Philippines",10.90711,122.19731,PLDT,89420,87812,89.42,87.81,12,454,77,120
"Iriga City, Camarines Sur, Philippines",13.42095,123.41361,PLDT,81862,90110,81.86,90.11,12,452,81,115
"Sibulan, Negros Oriental, Philippines",9.35972,123.28476,PLDT Home Fiber,149725,146067,149.73,146.07,6,452,65,86
"Rizal, Nueva Ecija, Philippines",15.69357,121.10229,PLDT Home Fiber,49138,50791,49.14,50.79,13,452,80,113
"Burauen, Leyte, Philippines",10.97109,124.84034,PLDT,43524,47855,43.52,47.86,22,452,80,137
"Santa Fe, Nueva Vizcaya, Philippines",16.18249,120.91878,PLDT,89619,91038,89.62,91.04,7,451,119,191
"Makilala, Cotabato, Philippines",6.92343,125.08286,PLDT Home Fiber,50894,63824,50.89,63.82,16,451,51,71
"El Nido, Palawan, Philippines",11.19892,119.42317,PLDT,81355,70186,81.36,70.19,27,451,92,155
"San Fernando City, La Union, Philippines",16.61592,120.32102,PLDT,75573,71527,75.57,71.53,4,451,107,183
"Taysan, Batangas, Philippines",13.76108,121.2283,Globe,248201,183101,248.20,183.10,7,451,104,140
"Miagao, Iloilo, Philippines",10.64201,122.23632,PLDT,51135,63470,51.14,63.47,9,450,75,92
"Palanan, Isabela, Philippines",16.99692,122.40142,SpaceX Starlink,7095,5683,7.10,5.68,39,450,20,23
"Maitum, Sarangani, Philippines",6.12408,124.48636,PLDT Home Fiber,47629,40256,47.63,40.26,15,449,26,44
"Libungan, Cotabato, Philippines",7.31637,124.53068,PLDT Home Fiber,74608,54038,74.61,54.04,17,449,36,53
"Taguig, Metro Manila, Philippines",14.53063,121.05755,SpaceX Starlink,60483,12950,60.48,12.95,24,448,59,81
"Midsalip, Zamboanga del Sur, Philippines",8.02462,123.23632,Globe,84582,75582,84.58,75.58,9,448,50,70
"Mangaldan, Pangasinan, Philippines",16.06513,120.40474,PLDT Home Fiber,149355,127375,149.36,127.38,9,448,97,136
"Panabo, Davao del Norte, Philippines",7.30822,125.68662,Globe,154507,96264,154.51,96.26,7,447,82,98
"Manapla, Negros Occidental, Philippines",10.95795,123.12428,PLDT Home Fiber,66815,72930,66.82,72.93,7,447,136,206
"Hinigaran, Negros Occidental, Philippines",10.27479,122.92123,PLDT Home Fiber,81645,86526,81.65,86.53,14,447,80,108
"Brooke's Point, Palawan, Philippines",8.78617,117.83817,PLDT Home Fiber,58263,51915,58.26,51.92,21,446,46,60
"Panglao, Bohol, Philippines",9.56947,123.78721,PLDT,68020,63504,68.02,63.50,10,446,94,158
"Liloy, Zamboanga del Norte, Philippines",8.07325,122.69555,PLDT Home Fiber,36476,28417,36.48,28.42,28,446,35,47
"Talitay, Maguindanao del Norte, Philippines",7.04528,124.38654,PLDT,54320,59442,54.32,59.44,19,444,126,181
"Cabuyao City, Laguna, Philippines",14.27433,121.11961,Globe,135041,118163,135.04,118.16,6,444,120,173
"Limay, Bataan, Philippines",14.53661,120.56245,PLDT Home Fiber,76087,71818,76.09,71.82,8,444,89,116
"Pulilan, Bulacan, Philippines",14.90243,120.8459,PLDT,109363,114106,109.36,114.11,6,444,123,195
"Tubungan, Iloilo, Philippines",10.80645,122.29941,PLDT,28823,28150,28.82,28.15,10,443,41,59
"Teresa, Rizal, Philippines",14.5597,121.20593,PLDT Home Fiber,131056,120624,131.06,120.62,4,441,96,145
"Natividad, Pangasinan, Philippines",16.03821,120.83841,Globe,78222,77600,78.22,77.60,6,439,128,270
"Murcia, Negros Occidental, Philippines",10.60643,123.03944,PLDT,31518,29580,31.52,29.58,12,437,52,72
"Aurora, Zamboanga del Sur, Philippines",7.95458,123.59519,PLDT,24794,31321,24.79,31.32,10,436,12,20
"Palapag, Northern Samar, Philippines",12.52175,125.14888,SpaceX Starlink,19772,11966,19.77,11.97,33,435,33,52
"City of Batac, Ilocos Norte, Philippines",18.04961,120.59698,PLDT Home Fiber,104068,96803,104.07,96.80,11,435,83,121
"Badian, Cebu, Philippines",9.83209,123.41593,PLDT Home Fiber,88099,103941,88.10,103.94,7,435,39,60
"Narra, Palawan, Philippines",9.229,118.33047,PLDT,91460,92373,91.46,92.37,25,435,58,84
"San Jose, Camarines Sur, Philippines",13.68724,123.53921,PLDT Home Fiber,62598,80922,62.60,80.92,35,435,38,61
"Balingasag, Misamis Oriental, Philippines",8.72993,124.84034,PLDT Home Fiber,96207,93414,96.21,93.41,7,434,92,148
"Panglao, Bohol, Philippines",9.56947,123.78721,PLDT Home Fiber,75547,89819,75.55,89.82,7,433,102,143
"Asuncion (Saug), Davao del Norte, Philippines",7.60603,125.76252,PLDT Home Fiber,66304,74597,66.30,74.60,8,433,72,110
"Carles, Iloilo, Philippines",11.55216,123.13515,PLDT,25970,23883,25.97,23.88,19,431,41,54
"Dumangas, Iloilo, Philippines",10.82109,122.71167,PLDT,37015,34385,37.02,34.39,13,431,27,40
"Siaton, Negros Oriental, Philippines",9.12425,123.03388,PLDT Home Fiber,57531,60344,57.53,60.34,10,430,47,65
"General Nakar, Quezon, Philippines",14.90678,121.49132,PLDT Home Fiber,190605,214877,190.61,214.88,4,430,131,185
"General Mariano Alvarez, Cavite, Philippines",14.29525,121.0071,Globe,317392,256484,317.39,256.48,5,430,143,220
"Montevista, Davao de Oro, Philippines",7.69422,125.98055,PLDT Home Fiber,54086,45881,54.09,45.88,16,429,25,29
"Calaca, Batangas, Philippines",13.93129,120.80724,PLDT,76318,64173,76.32,64.17,11,429,92,132
"Dona Remedios Trinidad, Bulacan, Philippines",15.11427,121.21685,PLDT Home Fiber,58589,49091,58.59,49.09,8,428,122,181
"Malidegao, Cotabato, Philippines",7.12941,124.67431,PLDT Home Fiber,91614,94521,91.61,94.52,12,428,87,141
"Escalante City, Negros Occidental, Philippines",10.84117,123.49908,PLDT,55293,66832,55.29,66.83,16,426,121,162
"Basud, Camarines Norte, Philippines",14.00663,122.9663,PLDT Home Fiber,53443,67729,53.44,67.73,8,426,27,33
"Antipolo, Rizal, Philippines",14.58584,121.17569,SpaceX Starlink,59218,15454,59.22,15.45,24,425,53,87
"Pambujan, Northern Samar, Philippines",12.46458,124.93964,PLDT Home Fiber,34003,66865,34.00,66.87,19,424,30,36
"Penaranda, Nueva Ecija, Philippines",15.36229,121.02204,Globe,229590,227564,229.59,227.56,6,424,131,178
"Pantabangan, Nueva Ecija, Philippines",15.79424,121.12521,PLDT Home Fiber,84930,86056,84.93,86.06,11,422,99,166
"Bula, Camarines Sur, Philippines",13.44119,123.23632,PLDT Home Fiber,62306,89091,62.31,89.09,12,422,48,60
"New Corella, Davao del Norte, Philippines",7.59777,125.84981,PLDT Home Fiber,45200,42854,45.20,42.85,18,421,43,66
"Bacacay, Albay, Philippines",13.29586,123.87462,PLDT,80622,71210,80.62,71.21,10,421,52,72
"Binidayan, Lanao del Sur, Philippines",7.74479,124.16432,PLDT Home Fiber,107787,100638,107.79,100.64,7,421,154,207
"Kidapawan, Cotabato, Philippines",7.02127,125.09019,Globe,103783,79051,103.78,79.05,16,419,55,81
"Ibaan, Batangas, Philippines",13.81895,121.13082,PLDT Home Fiber,151777,128741,151.78,128.74,5,417,96,126
"Barotac Nuevo, Iloilo, Philippines",10.89705,122.69526,PLDT,37250,40345,37.25,40.35,14,417,47,62
"Talisay, Batangas, Philippines",14.11598,121.04498,Globe,81191,79912,81.19,79.91,7,417,123,201
"Himamaylan, Negros Occidental, Philippines",10.10162,122.86995,PLDT Home Fiber,54403,56683,54.40,56.68,12,416,54,72
"Gapan City, Nueva Ecija, Philippines",15.29121,121.01057,PLDT,33239,36373,33.24,36.37,11,416,58,89
"Enrique B. Magalona, Negros Occidental, Philippines",10.87695,122.98281,PLDT,72387,58809,72.39,58.81,21,416,102,152
"Cataingan, Masbate, Philippines",11.98588,123.9527,PLDT,85589,46818,85.59,46.82,20,416,49,67
"San Antonio, Quezon, Philippines",13.89506,121.29697,Globe,218119,197813,218.12,197.81,6,415,115,180
"San Francisco (Aurora), Quezon, Philippines",13.29776,122.5599,SpaceX Starlink,36845,11633,36.85,11.63,31,413,25,37
"San Jose, Batangas, Philippines",13.87868,121.09942,PLDT Home Fiber,100650,132207,100.65,132.21,6,413,79,110
"Nabua, Camarines Sur, Philippines",13.4069,123.37324,PLDT,26938,30473,26.94,30.47,13,413,39,53
"Puerto Princesa City, Palawan, Philippines",9.78563,118.62648,Globe,111365,109597,111.37,109.60,16,413,66,93
"Bauan, Batangas, Philippines",13.79627,120.97616,PLDT Home Fiber,156491,128144,156.49,128.14,7,413,84,118
"Baao, Camarines Sur, Philippines",13.49319,123.35984,PLDT,66951,81992,66.95,81.99,12,412,67,98
"Castillejos, Zambales, Philippines",14.94382,120.19357,PLDT,57184,48507,57.18,48.51,13,412,95,130
"Camiling, Tarlac, Philippines",15.67495,120.41272,PLDT Home Fiber,60103,80843,60.10,80.84,11,412,91,105
"San Juan, Siquijor, Philippines",9.15626,123.5112,SpaceX Starlink,66726,14045,66.73,14.05,37,412,74,110
"Consolacion, Cebu, Philippines",10.37581,123.95694,PLDT Home Fiber,151894,138544,151.89,138.54,4,411,76,97
"Santa Ana, Pampanga, Philippines",15.09442,120.76623,Globe,115582,105525,115.58,105.53,6,410,135,197
"Santa Cruz, Laguna, Philippines",14.26911,121.41133,PLDT,104132,100452,104.13,100.45,10,410,93,140
"Lingayen, Pangasinan, Philippines",16.00973,120.22449,PLDT Home Fiber,125865,109590,125.87,109.59,12,410,98,138
"San Jose de Buenavista, Antique, Philippines",10.74901,121.94128,Globe,116747,121947,116.75,121.95,7,408,76,108
"Cordova, Cebu, Philippines",10.25278,123.9494,Globe,201271,223590,201.27,223.59,5,408,67,74
"San Francisco, Agusan del Sur, Philippines",8.44573,125.95878,PLDT Home Fiber,50952,53831,50.95,53.83,6,407,70,92
"Talitay, Maguindanao del Norte, Philippines",7.04528,124.38654,PLDT Home Fiber,126200,94402,126.20,94.40,10,406,123,206
"Calauan, Laguna, Philippines",14.14551,121.3146,PLDT,66940,70187,66.94,70.19,11,406,124,179
"Laoang, Northern Samar, Philippines",12.50219,125.01679,SpaceX Starlink,27882,11173,27.88,11.17,35,405,45,59
"General Nakar, Quezon, Philippines",14.90678,121.49132,PLDT,57188,56615,57.19,56.62,12,404,142,210
"Binalonan, Pangasinan, Philippines",16.05355,120.60848,PLDT,74873,76543,74.87,76.54,7,404,101,184
"Tinambac, Camarines Sur, Philippines",13.90428,123.37106,SpaceX Starlink,9629,7887,9.63,7.89,29,404,49,77
"Amadeo, Cavite, Philippines",14.18985,120.92452,PLDT,177876,198965,177.88,198.97,9,403,111,166
"Maigo, Lanao del Norte, Philippines",8.11443,123.98615,PLDT Home Fiber,68189,75123,68.19,75.12,5,403,32,41
"Alimodian, Iloilo, Philippines",10.85495,122.39009,PLDT,44165,40531,44.17,40.53,10,403,40,53
"Balanga City, Bataan, Philippines",14.67454,120.47033,Globe,174076,153487,174.08,153.49,9,403,55,71
"Governor Generoso, Davao Oriental, Philippines",6.45867,126.15454,PLDT Home Fiber,21133,23008,21.13,23.01,16,402,28,53
"City of Tayabas, Quezon, Philippines",14.01135,121.55983,PLDT,92845,93934,92.85,93.93,7,401,139,201
"Oras, Eastern Samar, Philippines",12.17696,125.36857,PLDT Home Fiber,77476,106642,77.48,106.64,9,401,20,26
"Pinamungahan, Cebu, Philippines",10.26958,123.63996,PLDT,32236,37791,32.24,37.79,10,399,57,78
"Victoria, Tarlac, Philippines",15.59077,120.68901,PLDT Home Fiber,77872,82376,77.87,82.38,11,397,120,166
"El Nido, Palawan, Philippines",11.19892,119.42317,Globe,84422,87235,84.42,87.24,15,396,65,99
"Ilagan City, Isabela, Philippines",17.12845,122.12918,PLDT,28724,36348,28.72,36.35,13,396,60,79
"Escalante City, Negros Occidental, Philippines",10.84117,123.49908,PLDT Home Fiber,87060,87410,87.06,87.41,5,395,95,145
"Malaybalay City, Bukidnon, Philippines",8.15775,125.17087,SpaceX Starlink,48400,13580,48.40,13.58,44,395,24,39
"Pililla, Rizal, Philippines",14.44393,121.34273,PLDT Home Fiber,163049,181277,163.05,181.28,4,394,64,98
"Carcar, Cebu, Philippines",10.10478,123.64147,Globe,120535,103621,120.54,103.62,8,393,60,89
"Marawi City, Lanao del Sur, Philippines",8.0292,124.29772,SpaceX Starlink,21093,9754,21.09,9.75,43,391,65,115
"Victorias, Negros Occidental, Philippines",10.901,123.07045,PLDT Home Fiber,94230,102188,94.23,102.19,7,391,108,154
"Banaue, Ifugao, Philippines",16.94963,121.10229,PLDT Home Fiber,108364,103721,108.36,103.72,8,389,125,196
"Paracale, Camarines Norte, Philippines",14.23721,122.78588,PLDT Home Fiber,53084,63990,53.08,63.99,9,388,62,83
"Bantayan, Cebu, Philippines",11.18041,123.7406,PLDT,38832,50352,38.83,50.35,8,388,80,122
"Tapaz, Capiz, Philippines",11.28689,122.49201,PLDT,27444,34768,27.44,34.77,20,388,61,91
"Umingan, Pangasinan, Philippines",15.90396,120.82692,PLDT,54063,73520,54.06,73.52,10,388,78,144
"Cuyo, Palawan, Philippines",10.80729,121.02778,SpaceX Starlink,40760,17291,40.76,17.29,26,386,32,45
"Manay, Davao Oriental, Philippines",7.23227,126.47971,SpaceX Starlink,44029,13320,44.03,13.32,35,385,20,27
"Villanueva, Misamis Oriental, Philippines",8.57469,124.80722,PLDT Home Fiber,62490,50378,62.49,50.38,9,385,72,106
"Mangatarem, Pangasinan, Philippines",15.73801,120.27435,PLDT,61147,76258,61.15,76.26,9,385,55,76
"Alamada, Cotabato, Philippines",7.47945,124.55284,PLDT Home Fiber,55148,73490,55.15,73.49,12,385,64,92
"Norzagaray, Bulacan, Philippines",14.89659,121.14813,PLDT Home Fiber,119548,84942,119.55,84.94,6,385,88,121
"Lobo, Batangas, Philippines",13.6877,121.23974,SpaceX Starlink,9873,6633,9.87,6.63,29,384,53,90
"Santa Barbara, Pangasinan, Philippines",15.9774,120.42424,PLDT Home Fiber,118201,109836,118.20,109.84,6,384,110,155
"General Mamerto Natividad, Nueva Ecija, Philippines",15.58788,121.04498,PLDT Home Fiber,92589,89179,92.59,89.18,10,382,105,170
"Pateros, Metro Manila, Philippines",14.54838,121.07077,Globe,221166,209061,221.17,209.06,5,382,125,151
"Pamplona, Negros Oriental, Philippines",9.40941,123.05639,PLDT Home Fiber,59462,63102,59.46,63.10,11,382,38,45
"Toboso, Negros Occidental, Philippines",10.71769,123.46077,PLDT,65035,91903,65.04,91.90,10,380,103,155
"La Trinidad, Benguet, Philippines",16.44844,120.59047,PLDT,91997,92836,92.00,92.84,5,380,97,146
"Hamtic, Antique, Philippines",10.65189,122.01555,PLDT,33947,45477,33.95,45.48,12,380,57,68
"Samal, Davao del Norte, Philippines",7.08352,125.70578,PLDT,35211,43638,35.21,43.64,11,380,36,55
"Gattaran, Cagayan, Philippines",18.07365,121.87903,PLDT,60361,64650,60.36,64.65,18,378,60,91
"Calbayog, Samar, Philippines",12.0685,124.59081,Globe,68729,64021,68.73,64.02,10,377,67,85
"Calbayog, Samar, Philippines",12.0685,124.59081,PLDT Home Fiber,169236,173305,169.24,173.31,16,376,56,75
"Basco, Batanes, Philippines",20.46344,122.00418,SpaceX Starlink,42621,17800,42.62,17.80,35,376,74,104
"San Jose, Dinagat Islands, Philippines",10.01955,125.57603,SpaceX Starlink,24938,9168,24.94,9.17,40,376,33,55
"Oton, Iloilo, Philippines",10.69251,122.47868,Globe,114963,114800,114.96,114.80,5,376,86,110
"Mogpog, Marinduque, Philippines",13.50444,121.89041,PLDT Home Fiber,76618,97805,76.62,97.81,10,375,40,54
"Moalboal, Cebu, Philippines",9.93681,123.42714,Globe,139910,112118,139.91,112.12,9,375,60,96
"Mendez, Cavite, Philippines",14.12941,120.90511,PLDT,121334,134456,121.33,134.46,9,374,75,103
"Liloan, Cebu, Philippines",10.39926,124.00002,PLDT Home Fiber,84691,81067,84.69,81.07,4,374,37,56
"San Agustin, Romblon, Philippines",12.56219,122.11783,SpaceX Starlink,25951,11117,25.95,11.12,28,373,38,59
"Valencia City, Bukidnon, Philippines",7.86319,125.17087,Globe,112613,84546,112.61,84.55,5,373,49,64
"Buenavista, Guimaras, Philippines",10.69691,122.6481,PLDT Home Fiber,60393,57777,60.39,57.78,10,372,93,127
"Rosario, Batangas, Philippines",13.80433,121.28552,PLDT,92353,87661,92.35,87.66,6,372,94,123
"Toledo, Cebu, Philippines",10.38705,123.65017,PLDT Home Fiber,70400,70855,70.40,70.86,4,371,68,88
"San Francisco, Cebu, Philippines",10.64719,124.35324,SpaceX Starlink,46431,12222,46.43,12.22,34,370,60,91
"Pila, Laguna, Philippines",14.23461,121.3656,PLDT Home Fiber,98759,126337,98.76,126.34,6,370,99,141
"Malay, Aklan, Philippines",11.93033,121.95191,PLDT Home Fiber,101477,93925,101.48,93.93,18,369,42,65
"Talugtug, Nueva Ecija, Philippines",15.7698,120.81544,PLDT Home Fiber,85716,90551,85.72,90.55,12,369,90,132
"Pinamalayan, Oriental Mindoro, Philippines",13.01533,121.37703,PLDT Home Fiber,73861,52484,73.86,52.48,9,369,76,105
"Lobo, Batangas, Philippines",13.6877,121.23974,Globe,154105,106826,154.11,106.83,8,368,122,185
"Urdaneta City, Pangasinan, Philippines",15.98194,120.59698,PLDT Home Fiber,76113,94313,76.11,94.31,8,365,102,159
"San Juan, La Union, Philippines",16.6711,120.33844,PLDT,80199,76157,80.20,76.16,5,364,105,189
"Cantilan, Surigao del Sur, Philippines",9.27827,125.88251,PLDT Home Fiber,62153,89311,62.15,89.31,11,363,22,27
"Sara, Iloilo, Philippines",11.28199,123.01136,PLDT Home Fiber,43898,44345,43.90,44.35,11,362,42,57
"Ipil, Zamboanga Sibugay, Philippines",7.77318,122.57121,Globe,129670,73263,129.67,73.26,10,361,51,70
"Compostela, Cebu, Philippines",10.45408,124.013,PLDT Home Fiber,119792,169496,119.79,169.50,5,361,94,160
"Glan, Sarangani, Philippines",5.82205,125.20413,PLDT Home Fiber,50478,34118,50.48,34.12,17,361,42,71
"Boac, Marinduque, Philippines",13.39413,121.87903,PLDT Home Fiber,73102,82703,73.10,82.70,8,360,70,95
"San Quintin, Pangasinan, Philippines",15.9754,120.83841,PLDT,76003,81929,76.00,81.93,8,360,106,198
"Mahatao, Batanes, Philippines",20.40516,121.953,SpaceX Starlink,20284,9712,20.28,9.71,37,359,6,11
"Plaridel, Misamis Occidental, Philippines",8.61148,123.69588,PLDT Home Fiber,118676,113655,118.68,113.66,8,357,33,44
"Candaba, Pampanga, Philippines",15.09289,120.8277,PLDT,68173,61492,68.17,61.49,8,357,100,143
"Valencia, Negros Oriental, Philippines",9.28494,123.1464,PLDT Home Fiber,95038,101001,95.04,101.00,5,357,74,103
"Compostela, Cebu, Philippines",10.45408,124.013,PLDT,72660,70601,72.66,70.60,7,357,81,101
"Pavia, Iloilo, Philippines",10.7748,122.54261,PLDT,47611,49852,47.61,49.85,10,357,94,133
"Tiaong, Quezon, Philippines",13.92962,121.34273,PLDT,55145,57658,55.15,57.66,18,356,95,131
"Madridejos, Cebu, Philippines",11.25859,123.7406,PLDT,33104,43079,33.10,43.08,9,356,38,50
"Hinigaran, Negros Occidental, Philippines",10.27479,122.92123,PLDT,35503,61758,35.50,61.76,11,355,83,107
"Natonin, Mountain Province, Philippines",17.12862,121.28552,PLDT Home Fiber,91133,94566,91.13,94.57,12,355,103,176
"San Jose, Tarlac, Philippines",15.42002,120.29742,PLDT Home Fiber,75785,58974,75.79,58.97,8,354,54,88
"Talugtug, Nueva Ecija, Philippines",15.7698,120.81544,Globe,230693,231827,230.69,231.83,7,353,125,189
"Alfonso, Cavite, Philippines",14.1214,120.86138,PLDT,92290,95105,92.29,95.11,9,353,99,147
"Panglao, Bohol, Philippines",9.56947,123.78721,Globe,133628,113151,133.63,113.15,9,353,61,89
"Alaminos, Laguna, Philippines",14.0454,121.25119,PLDT Home Fiber,98391,122629,98.39,122.63,8,353,93,131
"Sibalom, Antique, Philippines",10.76502,122.06102,PLDT Home Fiber,79295,76565,79.30,76.57,10,352,38,52
"Plaridel, Bulacan, Philippines",14.88591,120.85932,Globe,138392,191145,138.39,191.15,8,352,65,82
"Malapatan, Sarangani, Philippines",6.03645,125.43436,PLDT Home Fiber,47397,51694,47.40,51.69,21,352,34,44
"San Carlos City, Pangasinan, Philippines",15.92589,120.34827,PLDT,71900,77557,71.90,77.56,7,352,74,113
"Jordan, Guimaras, Philippines",10.59807,122.57121,PLDT Home Fiber,53386,58120,53.39,58.12,9,352,59,80
"Mariveles, Bataan, Philippines",14.4354,120.49003,PLDT,61858,97517,61.86,97.52,9,351,51,75
"Sasmuan, Pampanga, Philippines",14.88764,120.61424,PLDT,67991,60067,67.99,60.07,15,351,75,97
"Hilongos, Leyte, Philippines",10.39469,124.84034,PLDT Home Fiber,54034,51204,54.03,51.20,11,350,46,59
"San Pascual, Masbate, Philippines",13.07206,123.01136,SpaceX Starlink,22784,7733,22.78,7.73,31,350,33,46
"Roxas City, Capiz, Philippines",11.55288,122.74072,PLDT,84173,91720,84.17,91.72,12,350,83,116
"Sogod, Southern Leyte, Philippines",10.44929,125.01679,PLDT,28133,30670,28.13,30.67,24,350,29,39
"Kibawe, Bukidnon, Philippines",7.48878,125.06084,PLDT Home Fiber,133939,99599,133.94,99.60,9,350,101,143
"Dingle, Iloilo, Philippines",10.9991,122.67043,PLDT,66124,66902,66.12,66.90,12,350,45,60
"Leganes, Iloilo, Philippines",10.78605,122.5888,PLDT,93305,93363,93.31,93.36,19,350,70,93
"Sison, Pangasinan, Philippines",16.14981,120.59698,PLDT,75356,80363,75.36,80.36,8,350,68,100
"Cabucgayan, Biliran, Philippines",11.50169,124.56391,SpaceX Starlink,24202,12205,24.20,12.21,37,348,37,51
"Pototan, Iloilo, Philippines",10.94194,122.63874,PLDT,34125,44521,34.13,44.52,11,348,63,88
"Caibiran, Biliran, Philippines",11.5601,124.56391,SpaceX Starlink,16849,8472,16.85,8.47,39,348,36,46
"Umingan, Pangasinan, Philippines",15.90396,120.82692,PLDT Home Fiber,96777,108087,96.78,108.09,11,348,95,157
"Maasin, Southern Leyte, Philippines",10.13272,124.84081,PLDT,19314,18939,19.31,18.94,19,347,50,66
"Naic, Cavite, Philippines",14.29649,120.79246,Globe,141595,135887,141.60,135.89,6,347,60,74
"Cawayan, Masbate, Philippines",12.05579,123.72942,SpaceX Starlink,12534,3839,12.53,3.84,34,346,21,35
"Pili, Camarines Sur, Philippines",13.55521,123.28126,Globe,114459,90898,114.46,90.90,12,346,50,61
"Koronadal, South Cotabato, Philippines",6.50044,124.84333,Globe,97971,128897,97.97,128.90,6,346,64,89
"Mabinay, Negros Oriental, Philippines",9.67161,122.94377,PLDT,49611,84910,49.61,84.91,8,345,40,51
"Baungon, Bukidnon, Philippines",8.21754,124.75198,PLDT Home Fiber,92815,94396,92.82,94.40,6,345,123,173
"Majayjay, Laguna, Philippines",14.14491,121.46983,PLDT Home Fiber,143306,133040,143.31,133.04,8,345,66,105
"Palayan City, Nueva Ecija, Philippines",15.53906,121.09083,PLDT,86052,91930,86.05,91.93,11,344,96,149
"City of Santiago, Isabela, Philippines",16.69679,121.55865,Globe,153637,115042,153.64,115.04,7,344,61,79
"Aloran, Misamis Occidental, Philippines",8.41606,123.82447,PLDT Home Fiber,66867,76151,66.87,76.15,8,342,95,132
"Kapalawan, Cotabato, Philippines",7.21567,124.75942,PLDT Home Fiber,204426,217403,204.43,217.40,11,341,62,76
"Agoo, La Union, Philippines",16.3247,120.35508,PLDT,105605,100062,105.61,100.06,4,341,48,65
"Bacacay, Albay, Philippines",13.29586,123.87462,PLDT Home Fiber,56963,58032,56.96,58.03,19,341,19,23
"Lucena City, Quezon, Philippines",13.94139,121.62345,Globe,122642,106235,122.64,106.24,9,340,79,95
"Argao, Cebu, Philippines",9.88114,123.60535,Globe,107308,104678,107.31,104.68,9,340,61,79
"Tantangan, South Cotabato, Philippines",6.57126,124.75198,PLDT Home Fiber,94603,95121,94.60,95.12,10,340,86,123
"San Jose de Buenavista, Antique, Philippines",10.74901,121.94128,PLDT Home Fiber,80267,82655,80.27,82.66,9,339,65,81
"Jaen, Nueva Ecija, Philippines",15.39558,120.87286,Globe,234671,184807,234.67,184.81,5,339,105,141
"Labo, Camarines Norte, Philippines",14.13903,122.7633,PLDT Home Fiber,63656,66670,63.66,66.67,8,339,64,92
"Cavite, Philippines",14.48151,120.90833,PLDT,95233,129171,95.23,129.17,7,339,66,88
"Janiuay, Iloilo, Philippines",10.99877,122.42407,PLDT Home Fiber,56426,73058,56.43,73.06,9,339,40,52
"San Carlos City, Pangasinan, Philippines",15.92589,120.34827,Globe,115492,104406,115.49,104.41,5,339,52,66
"Ozamiz, Misamis Occidental, Philippines",8.15,123.85033,PLDT,65539,82278,65.54,82.28,12,339,69,106
"General Luna, Surigao del Norte, Philippines",9.78375,126.15657,PLDT Home Fiber,89350,86227,89.35,86.23,15,338,67,107
"Gen. S. K. Pendatun, Maguindanao, Philippines",6.81786,124.71882,PLDT Home Fiber,61202,76186,61.20,76.19,14,338,75,113
"Tingloy, Batangas, Philippines",13.64133,120.9073,SpaceX Starlink,8420,5388,8.42,5.39,27,338,32,60
"Pototan, Iloilo, Philippines",10.94194,122.63874,Globe,58765,52748,58.77,52.75,5,338,47,62
"Anilao, Iloilo, Philippines",11.00026,122.74072,PLDT,40547,47236,40.55,47.24,13,337,32,41
"Himamaylan, Negros Occidental, Philippines",10.10162,122.86995,PLDT,63647,49212,63.65,49.21,12,337,79,114
"Subic Bay Freeport Zone, Philippines",14.80319,120.30033,PLDT Home Fiber,119928,106650,119.93,106.65,8,336,90,132
"Lupao, Nueva Ecija, Philippines",15.84768,120.91878,PLDT,55227,46827,55.23,46.83,19,335,97,143
"Tanjay City, Negros Oriental, Philippines",9.49579,122.9663,PLDT,34377,39156,34.38,39.16,10,334,65,84
"San Vicente, Palawan, Philippines",10.36167,119.1158,SpaceX Starlink,57937,22107,57.94,22.11,26,334,50,91
"Apalit, Pampanga, Philippines",14.95255,120.76688,PLDT,48948,48219,48.95,48.22,10,333,73,105
"Penaranda, Nueva Ecija, Philippines",15.36229,121.02204,PLDT Home Fiber,92562,89798,92.56,89.80,12,333,89,135
"Santo Tomas, Pampanga, Philippines",14.99601,120.70407,PLDT Home Fiber,204933,177933,204.93,177.93,7,333,83,117
"Tigaon, Camarines Sur, Philippines",13.61703,123.47198,PLDT Home Fiber,82219,110800,82.22,110.80,9,333,50,69
"San Enrique, Negros Occidental, Philippines",10.42735,122.86485,PLDT,78582,67154,78.58,67.15,13,332,34,51
"San Juan, Batangas, Philippines",13.75044,121.37703,SpaceX Starlink,64376,18811,64.38,18.81,25,331,42,62
"Diadi, Nueva Vizcaya, Philippines",16.6595,121.33129,PLDT Home Fiber,43305,41384,43.31,41.38,15,330,53,83
"Talibon, Bohol, Philippines",10.11933,124.26439,PLDT Home Fiber,45973,89575,45.97,89.58,8,330,47,55
"Silay, Negros Occidental, Philippines",10.79968,122.97605,Globe,114139,108547,114.14,108.55,7,330,61,86
"Nagcarlan, Laguna, Philippines",14.14903,121.38847,PLDT,62558,62079,62.56,62.08,10,330,121,170
"Aborlan, Palawan, Philippines",9.43994,118.54785,SpaceX Starlink,111472,17442,111.47,17.44,26,328,24,32
"Minglanilla, Cebu, Philippines",10.24543,123.79599,PLDT Home Fiber,50766,74011,50.77,74.01,3,328,79,96
"Bago, Negros Occidental, Philippines",10.53757,122.83609,SpaceX Starlink,70429,16766,70.43,16.77,28,328,52,73
"Cordon, Isabela, Philippines",16.67835,121.46847,PLDT Home Fiber,33465,37834,33.47,37.83,15,328,66,103
"Sorsogon City, Sorsogon, Philippines",12.97888,123.98477,PLDT Home Fiber,53147,72421,53.15,72.42,15,328,50,68
"Toledo, Cebu, Philippines",10.38705,123.65017,SpaceX Starlink,29480,17596,29.48,17.60,33,327,23,36
"Bugallon, Pangasinan, Philippines",15.92022,120.18202,PLDT Home Fiber,78153,141517,78.15,141.52,8,327,50,81
"Llanera, Nueva Ecija, Philippines",15.66623,121.01057,PLDT,67254,77833,67.25,77.83,12,326,72,108
"Jaro, Leyte, Philippines",11.17583,124.75198,PLDT Home Fiber,92000,94365,92.00,94.37,11,325,90,145
"Uson, Masbate, Philippines",12.18022,123.79056,PLDT,63690,25718,63.69,25.72,20,325,32,44
"Carmen, Davao del Norte, Philippines",7.35492,125.704,PLDT Home Fiber,90975,92130,90.98,92.13,9,325,99,138
"San Miguel, Surigao del Sur, Philippines",8.88869,125.95878,SpaceX Starlink,34960,14604,34.96,14.60,44,324,8,12
