Location Name,Latitude,Longitude,Provider,Download Speed,Upload Speed,Download Speed Mbps,Upload Speed Mbps,Minimum Latency,Test Count,Sample Count,User Count
"Quezon City, Metro Manila, Philippines",14.64879,121.05094,PLDT Home Fiber,106526,137809,106.53,137.81,3,9218,3204,4725
"Davao City, Davao del Sur, Philippines",7.06475,125.60884,Globe,118003,176305,118.00,176.31,11,5495,1812,2474
"Quezon City, Metro Manila, Philippines",14.64879,121.05094,Converge,179853,172094,179.85,172.09,4,5150,1855,2727
"Quezon City, Metro Manila, Philippines",14.64879,121.05094,Globe,164132,144336,164.13,144.34,5,4926,1928,2821
"Davao City, Davao del Sur, Philippines",7.06475,125.60884,PLDT Home Fiber,98280,97011,98.28,97.01,9,4304,1503,2118
"Valenzuela, Metro Manila, Philippines",14.69247,120.96991,Converge,211351,209964,211.35,209.96,4,3991,1215,2246
"Manila, Metro Manila, Philippines",14.59951,120.98423,Converge,214260,197587,214.26,197.59,4,3894,1388,2248
"Manila, Metro Manila, Philippines",14.59951,120.98423,PLDT Home Fiber,101171,103400,101.17,103.40,5,3570,1240,1855
"Quezon City, Metro Manila, Philippines",14.64879,121.05094,PLDT,75528,73452,75.53,73.45,8,3521,1318,1835
"Cebu City, Cebu, Philippines",10.29261,123.90219,PLDT Home Fiber,91526,96360,91.53,96.36,7,3312,1071,1501
"Taguig, Metro Manila, Philippines",14.53063,121.05755,Converge,187578,185837,187.58,185.84,4,2587,944,1362
"Cebu City, Cebu, Philippines",10.29261,123.90219,PLDT,72763,83564,72.76,83.56,9,2554,787,1140
"Cebu City, Cebu, Philippines",10.29261,123.90219,Globe,120625,109738,120.63,109.74,6,2481,1015,1441
"Parañaque, Metro Manila, Philippines",14.47929,121.01985,Converge,190511,196204,190.51,196.20,4,2183,783,1216
"Pasig, Metro Manila, Philippines",14.56082,121.0776,PLDT Home Fiber,150549,167727,150.55,167.73,3,2142,812,1176
"Cebu City, Cebu, Philippines",10.29261,123.90219,Converge,151752,139745,151.75,139.75,4,2104,759,1150
"Manila, Metro Manila, Philippines",14.59951,120.98423,PLDT,92111,91347,92.11,91.35,7,2099,816,1140
"Biñan, Laguna, Philippines",14.31456,121.08316,PLDT,98549,137964,98.55,137.96,9,1958,698,1114
"Calamba, Laguna, Philippines",14.19488,121.15974,Converge,162826,159601,162.83,159.60,6,1896,686,1025
"Caloocan, Metro Manila, Philippines",14.65136,120.99022,Converge,144339,211765,144.34,211.77,5,1867,512,802
"Makati City, Metro Manila, Philippines",14.55474,121.02444,PLDT Home Fiber,147990,143220,147.99,143.22,4,1814,591,857
"Baguio, Benguet, Philippines",16.41297,120.5914,PLDT Home Fiber,95328,97928,95.33,97.93,6,1785,675,967
"Cagayan De Oro City, Misamis Oriental, Philippines",8.48029,124.64975,Globe,117261,92903,117.26,92.90,8,1731,642,933
"Parañaque, Metro Manila, Philippines",14.47929,121.01985,PLDT,96441,99622,96.44,99.62,5,1706,720,1001
"San Pablo City, Laguna, Philippines",14.06422,121.32326,Converge,137644,158979,137.64,158.98,6,1689,575,891
"Taguig, Metro Manila, Philippines",14.53063,121.05755,Globe,163547,158052,163.55,158.05,4,1654,634,958
"Davao City, Davao del Sur, Philippines",7.06475,125.60884,Converge,112826,115426,112.83,115.43,3,1604,645,935
"Makati City, Metro Manila, Philippines",14.55474,121.02444,PLDT,77929,81816,77.93,81.82,10,1547,643,919
"Parañaque, Metro Manila, Philippines",14.47929,121.01985,PLDT Home Fiber,122217,126062,122.22,126.06,4,1539,577,789
"Polangui, Albay, Philippines",13.29368,123.48542,Converge,114168,93024,114.17,93.02,7,1530,458,789
"Cainta, Rizal, Philippines",14.58056,121.11565,PLDT Home Fiber,116568,174942,116.57,174.94,3,1493,560,781
"Antipolo City, 1870 Rizal, Philippines",14.58584,121.17569,PLDT Home Fiber,96568,120509,96.57,120.51,3,1483,548,750
"Caloocan, Metro Manila, Philippines",14.65136,120.99022,PLDT Home Fiber,105172,154861,105.17,154.86,3,1473,543,789
"Muntinlupa, Metro Manila, Philippines",14.39453,121.04483,PLDT,126896,130605,126.90,130.61,5,1409,389,545
"Mexico, Pampanga, Philippines",15.06457,120.72033,Converge,124919,130559,124.92,130.56,3,1383,580,808
"Marikina, Metro Manila, Philippines",14.63493,121.10195,Converge,186422,173168,186.42,173.17,3,1375,526,777
"Iligan City, Lanao del Norte, Philippines",8.22707,124.46418,PLDT Home Fiber,90495,93642,90.50,93.64,6,1348,466,655
"Las Piñas, Metro Manila, Philippines",14.44934,120.98186,PLDT Home Fiber,136675,138922,136.68,138.92,5,1316,491,664
"Pasig, Metro Manila, Philippines",14.56082,121.0776,Converge,107947,110098,107.95,110.10,4,1306,468,634
"Capas, Tarlac, Philippines",15.34633,120.59344,Converge,110655,116051,110.66,116.05,3,1282,552,765
"Pasay City, Metro Manila, Philippines",14.53767,121.00081,PLDT Home Fiber,134261,106015,134.26,106.02,4,1267,479,691
"Davao City, Davao del Sur, Philippines",7.06475,125.60884,PLDT,93510,93822,93.51,93.82,9,1196,442,625
"Valenzuela, Metro Manila, Philippines",14.69247,120.96991,PLDT Home Fiber,112532,160691,112.53,160.69,3,1193,418,602
"Cagayan De Oro City, Misamis Oriental, Philippines",8.48029,124.64975,PLDT Home Fiber,97902,97755,97.90,97.76,7,1073,394,560
"Iloilo City, Iloilo, Philippines",10.73019,122.55911,Globe,106464,97545,106.46,97.55,6,1071,375,548
"Malabon, Metro Manila, Philippines",14.65793,120.95118,PLDT Home Fiber,100357,104006,100.36,104.01,3,1069,385,585
"Pandi, Bulacan, Philippines",14.87572,120.95941,Converge,163798,102117,163.80,102.12,6,1017,355,534
"Concepcion, Tarlac, Philippines",15.324,120.65596,Converge,116343,119425,116.34,119.43,3,1014,409,598
"Pasig, Metro Manila, Philippines",14.56082,121.0776,Globe,227482,195343,227.48,195.34,4,1012,360,525
"Taguig, Metro Manila, Philippines",14.53063,121.05755,PLDT Home Fiber,190761,190570,190.76,190.57,4,972,362,507
"Santa Maria, Bulacan, Philippines",14.82898,120.97616,Converge,175828,110005,175.83,110.01,7,945,371,565
"Batangas City, Batangas, Philippines",13.75641,121.05833,Globe,114128,101432,114.13,101.43,9,937,402,556
"Makati City, Metro Manila, Philippines",14.55474,121.02444,Converge,188475,206281,188.48,206.28,4,929,319,462
"Imus, Cavite, Philippines",14.42764,120.93724,PLDT Home Fiber,165378,165650,165.38,165.65,3,926,380,514
"Navotas, Metro Manila, Philippines",14.65819,120.94743,Converge,196294,181463,196.29,181.46,4,914,277,490
"Mandaluyong City, Metro Manila, Philippines",14.57627,121.03924,Converge,136522,132821,136.52,132.82,4,906,330,511
"Bacoor, Cavite, Philippines",14.43122,120.96567,PLDT Home Fiber,118816,118196,118.82,118.20,5,904,284,421
"General Trias, Cavite, Philippines",14.38159,120.87915,Converge,190710,174682,190.71,174.68,6,891,348,536
"Antipolo City, 1870 Rizal, Philippines",14.58584,121.17569,Converge,203274,192767,203.27,192.77,3,888,385,526
"Tanauan City, Batangas, Philippines",14.08354,121.14762,PLDT Home Fiber,112367,101201,112.37,101.20,6,879,342,496
"Taguig, Metro Manila, Philippines",14.53063,121.05755,PLDT,77092,81404,77.09,81.40,9,878,365,499
"Victoria, Tarlac, Philippines",15.59077,120.68901,Globe,81063,83076,81.06,83.08,4,869,276,495
"Calauan, Laguna, Philippines",14.14551,121.3146,Converge,102512,203957,102.51,203.96,6,868,223,402
"Pasay City, Metro Manila, Philippines",14.53767,121.00081,PLDT,94526,89526,94.53,89.53,6,850,297,439
"Magpet, Cotabato, Philippines",7.1332,125.17087,PLDT Home Fiber,99743,96911,99.74,96.91,8,844,382,484
"La Trinidad, Benguet, Philippines",16.44844,120.59047,Converge,140305,142787,140.31,142.79,3,844,377,513
"Tarlac City, Tarlac, Philippines",15.48808,120.58719,Converge,106091,105234,106.09,105.23,3,816,352,508
"Angeles, Pampanga, Philippines",15.16061,120.60908,Converge,112625,98009,112.63,98.01,3,778,281,415
"Dasmariñas, Cavite, Philippines",14.33385,120.95423,PLDT Home Fiber,146305,165978,146.31,165.98,4,767,279,379
"San Fernando, Pampanga, Philippines",15.02781,120.69349,PLDT Home Fiber,102269,103033,102.27,103.03,7,764,226,328
"Arayat, Pampanga, Philippines",15.15443,120.771,Converge,167828,189906,167.83,189.91,3,758,346,485
"Bacolod, Negros Occidental, Philippines",10.66764,122.94556,Globe,115421,111226,115.42,111.23,7,752,247,344
"New Lucena, Iloilo, Philippines",10.87841,122.59781,Converge,158496,122844,158.50,122.84,17,734,235,453
"Dasmariñas, Cavite, Philippines",14.33385,120.95423,Globe,149548,133965,149.55,133.97,5,721,284,403
"Lipa City, Batangas, Philippines",13.94047,121.19395,PLDT Home Fiber,99528,111512,99.53,111.51,7,717,233,350
"Iloilo City, Iloilo, Philippines",10.73019,122.55911,Converge,120190,103905,120.19,103.91,17,708,250,397
"Muntinlupa, Metro Manila, Philippines",14.39453,121.04483,PLDT Home Fiber,101143,98748,101.14,98.75,4,689,220,320
"Bulakan, Bulacan, Philippines",14.79484,120.87889,PLDT Home Fiber,99948,101919,99.95,101.92,6,686,260,367
"Itogon, Benguet, Philippines",16.36116,120.6787,PLDT,99059,100354,99.06,100.35,5,664,263,379
"San Juan City, Metro Manila, Philippines",14.60196,121.0355,PLDT,75517,77982,75.52,77.98,10,654,256,374
"Bago, Negros Occidental, Philippines",10.53757,122.83609,Converge,125087,100574,125.09,100.57,18,641,244,378
"Candelaria, Quezon, Philippines",13.94899,121.42276,Converge,101337,135664,101.34,135.66,6,627,174,285
"La Carlota City, Negros Occidental, Philippines",10.41437,122.97757,Converge,201853,160743,201.85,160.74,18,625,245,440
"Bacolod, Negros Occidental, Philippines",10.66764,122.94556,PLDT Home Fiber,81684,90129,81.68,90.13,15,619,235,342
"Silang, Cavite, Philippines",14.22025,120.96469,PLDT Home Fiber,102796,102312,102.80,102.31,5,602,211,281
"Calamba, Laguna, Philippines",14.19488,121.15974,PLDT Home Fiber,118129,140240,118.13,140.24,8,600,181,252
"General Trias, Cavite, Philippines",14.38159,120.87915,PLDT Home Fiber,154516,139126,154.52,139.13,4,594,231,337
"Itogon, Benguet, Philippines",16.36116,120.6787,PLDT Home Fiber,104615,112149,104.62,112.15,6,593,265,359
"Carmona, Cavite, Philippines",14.3135,121.05712,PLDT,96963,119448,96.96,119.45,9,589,212,356
"Claveria, Misamis Oriental, Philippines",8.62972,124.90655,Converge,195033,159507,195.03,159.51,8,586,232,319
"Santa Cruz, Davao del Sur, Philippines",6.83551,125.41659,Converge,119068,106260,119.07,106.26,4,585,235,351
"Danao, Cebu, Philippines",10.52013,124.02712,Globe,116819,99595,116.82,99.60,7,579,279,388
"Imus, Cavite, Philippines",14.42764,120.93724,Converge,176588,187704,176.59,187.70,5,578,264,375
"Consolacion, Cebu, Philippines",10.37581,123.95694,Converge,180934,205684,180.93,205.68,2,577,215,323
"San Fernando, Pampanga, Philippines",15.02781,120.69349,Converge,96719,102144,96.72,102.14,4,573,231,310
"Bacolod, Negros Occidental, Philippines",10.66764,122.94556,Converge,148888,110675,148.89,110.68,18,572,231,344
"San Pablo City, Laguna, Philippines",14.06422,121.32326,PLDT Home Fiber,100235,137605,100.24,137.61,5,566,182,259
"Bacoor, Cavite, Philippines",14.43122,120.96567,PLDT,94369,94284,94.37,94.28,9,559,204,294
"Pandi, Bulacan, Philippines",14.87572,120.95941,PLDT Home Fiber,130723,118028,130.72,118.03,6,553,217,279
"Los Baños, Laguna, Philippines",14.17731,121.22161,PLDT Home Fiber,136849,157360,136.85,157.36,7,552,243,340
"Caloocan, Metro Manila, Philippines",14.65136,120.99022,PLDT,97713,107007,97.71,107.01,4,550,179,282
"Iligan City, Lanao del Norte, Philippines",8.22707,124.46418,Converge,116459,127735,116.46,127.74,7,549,252,330
"Murcia, Negros Occidental, Philippines",10.60643,123.03944,Globe,115007,105910,115.01,105.91,4,547,266,384
"Bago, Negros Occidental, Philippines",10.53757,122.83609,PLDT Home Fiber,98234,120108,98.23,120.11,13,547,222,329
"Dasmariñas, Cavite, Philippines",14.33385,120.95423,PLDT,87648,97876,87.65,97.88,9,538,162,293
"Sariaya, Quezon, Philippines",13.96301,121.52388,Converge,113000,186763,113.00,186.76,6,527,177,264
"Calamba, Laguna, Philippines",14.19488,121.15974,PLDT,96336,106174,96.34,106.17,11,516,173,262
"Butuan City, Agusan Del Norte, Philippines",8.94753,125.54063,PLDT Home Fiber,92179,92186,92.18,92.19,9,502,166,237
"Anao, Tarlac, Philippines",15.7435,120.61424,Globe,125776,109026,125.78,109.03,6,498,156,241
"Dasmariñas, Cavite, Philippines",14.33385,120.95423,Converge,170885,156257,170.89,156.26,5,491,195,297
"SJDM, Bulacan, Philippines",14.82867,121.04324,Converge,139877,123977,139.88,123.98,7,490,181,274
"Naga City, Camarines Sur, Philippines",13.6475,123.27003,Converge,80408,59662,80.41,59.66,10,487,140,229
"Taytay, Rizal, Philippines",14.55288,121.12571,PLDT Home Fiber,107121,160344,107.12,160.34,3,485,180,240
"Marikina, Metro Manila, Philippines",14.63493,121.10195,PLDT Home Fiber,173913,164896,173.91,164.90,3,475,142,200
"Tarlac City, Tarlac, Philippines",15.48808,120.58719,Globe,119289,107797,119.29,107.80,4,467,186,270
"Makati City, Metro Manila, Philippines",14.55474,121.02444,Globe,211354,180328,211.35,180.33,4,466,158,223
"Las Piñas, Metro Manila, Philippines",14.44934,120.98186,PLDT,82954,92709,82.95,92.71,7,464,195,274
"Butuan City, Agusan Del Norte, Philippines",8.94753,125.54063,Globe,108098,65899,108.10,65.90,11,457,205,268
"Subic Bay Freeport Zone, Philippines",14.80319,120.30033,Converge,135390,116909,135.39,116.91,4,446,171,244
"Cainta, Rizal, Philippines",14.58056,121.11565,PLDT,104698,113976,104.70,113.98,8,440,194,250
"Iloilo City, Iloilo, Philippines",10.73019,122.55911,PLDT,73658,84490,73.66,84.49,9,435,136,189
"Mandaluyong City, Metro Manila, Philippines",14.57627,121.03924,PLDT,53997,51308,54.00,51.31,10,428,144,225
"Puerto Princesa City, Palawan, Philippines",9.78563,118.62648,PLDT Home Fiber,80368,94700,80.37,94.70,24,425,89,146
"Murcia, Negros Occidental, Philippines",10.60643,123.03944,PLDT Home Fiber,93078,100499,93.08,100.50,13,417,164,241
"San Juan City, Metro Manila, Philippines",14.60196,121.0355,PLDT Home Fiber,173357,170225,173.36,170.23,3,417,128,187
"Muntinlupa, Metro Manila, Philippines",14.39453,121.04483,Converge,116299,155372,116.30,155.37,4,412,168,233
"Tagaytay City, Cavite, Philippines",14.11541,120.96202,Converge,131805,144173,131.81,144.17,6,409,119,171
"Parañaque, Metro Manila, Philippines",14.47929,121.01985,Globe,132408,109830,132.41,109.83,4,399,190,248
"San Carlos City, Negros Occidental, Philippines",10.48344,123.30371,PLDT,96628,101182,96.63,101.18,7,393,162,233
"Baguio, Benguet, Philippines",16.41297,120.5914,Converge,95430,105999,95.43,106.00,4,389,155,212
"Mandaluyong City, Metro Manila, Philippines",14.57627,121.03924,Globe,159289,141499,159.29,141.50,5,386,174,255
"Bacolor, Pampanga, Philippines",14.99692,120.65235,PLDT Home Fiber,107021,100868,107.02,100.87,7,380,177,249
"Urdaneta City, Pangasinan, Philippines",15.98194,120.59698,Converge,94304,94416,94.30,94.42,5,376,131,207
"San Carlos City, Negros Occidental, Philippines",10.48344,123.30371,PLDT Home Fiber,112796,123057,112.80,123.06,13,375,130,185
"City of Santa Rosa, Laguna, Philippines",14.31471,121.11232,PLDT Home Fiber,152624,198952,152.62,198.95,7,370,91,128
"Tarlac City, Tarlac, Philippines",15.48808,120.58719,PLDT,89697,94545,89.70,94.55,9,367,147,208
"Cabanatuan City, Nueva Ecija, Philippines",15.49943,121.01057,Globe,116609,104510,116.61,104.51,5,366,145,199
"Bacolod, Negros Occidental, Philippines",10.66764,122.94556,PLDT,83971,94004,83.97,94.00,8,364,118,187
"Mambusao, Capiz, Philippines",11.44257,122.59383,Converge,213721,173228,213.72,173.23,19,361,123,229
"Malolos, Bulacan, Philippines",14.86049,120.80916,PLDT Home Fiber,109688,142498,109.69,142.50,6,359,114,173
"San Nicolas, Pangasinan, Philippines",16.12066,120.78097,PLDT,135362,164164,135.36,164.16,5,359,161,241
"Antipolo City, 1870 Rizal, Philippines",14.58584,121.17569,PLDT,66261,72138,66.26,72.14,6,359,153,226
"Tanauan City, Batangas, Philippines",14.08354,121.14762,PLDT,93109,94786,93.11,94.79,7,356,140,205
"Burgos, La Union, Philippines",16.53803,120.47033,Converge,107529,105549,107.53,105.55,4,355,135,206
"Calapan City, Oriental Mindoro, Philippines",13.36643,121.19395,Converge,93623,93905,93.62,93.91,11,355,122,202
"Pasig, Metro Manila, Philippines",14.56082,121.0776,PLDT,78001,74936,78.00,74.94,5,348,141,204
"Baguio, Benguet, Philippines",16.41297,120.5914,PLDT,93456,92739,93.46,92.74,5,348,131,195
"Magpet, Cotabato, Philippines",7.1332,125.17087,PLDT,166758,156477,166.76,156.48,8,348,140,188
"Olongapo City, Zambales, Philippines",14.88739,120.36661,Converge,105429,105898,105.43,105.90,5,346,119,184
"Iloilo City, Iloilo, Philippines",10.73019,122.55911,PLDT Home Fiber,91605,88516,91.61,88.52,15,345,114,167
"San Juan City, Metro Manila, Philippines",14.60196,121.0355,Converge,118276,116848,118.28,116.85,4,343,127,183
"Biñan, Laguna, Philippines",14.31456,121.08316,PLDT Home Fiber,107832,166462,107.83,166.46,8,335,103,155
"Mandaluyong City, Metro Manila, Philippines",14.57627,121.03924,PLDT Home Fiber,181122,179430,181.12,179.43,3,334,128,172
"Talakag, Bukidnon, Philippines",8.05293,124.72988,PLDT Home Fiber,92296,94520,92.30,94.52,5,328,142,212
"Valenzuela, Metro Manila, Philippines",14.69247,120.96991,PLDT,96641,95431,96.64,95.43,8,321,114,155
"San Pedro, Laguna, Philippines",14.36443,121.06192,PLDT Home Fiber,113416,146068,113.42,146.07,5,319,110,144
"Calamba, Laguna, Philippines",14.19488,121.15974,Globe,196960,172056,196.96,172.06,6,313,126,179
"Agoncillo, Batangas, Philippines",13.94675,120.93026,Converge,254859,266883,254.86,266.88,7,311,69,131
"Bustos, Bulacan, Philippines",14.95239,120.91735,PLDT Home Fiber,116155,99369,116.16,99.37,8,303,127,177
"SJDM, Bulacan, Philippines",14.82867,121.04324,PLDT,64088,74756,64.09,74.76,12,303,95,141
"Binangonan, Rizal, Philippines",14.48441,121.1869,PLDT,97271,119235,97.27,119.24,4,300,125,175
"Arayat, Pampanga, Philippines",15.15443,120.771,PLDT Home Fiber,99413,102349,99.41,102.35,9,293,114,157
"La Castellana, Negros Occidental, Philippines",10.33198,123.10141,PLDT Home Fiber,157686,154983,157.69,154.98,13,293,109,157
"Santo Domingo, Nueva Ecija, Philippines",15.61284,120.88434,Globe,114397,106829,114.40,106.83,7,292,120,177
"General Santos City (Dadiangas), South Cotabato, Philippines",6.14327,125.19286,Globe,119133,141867,119.13,141.87,15,287,70,90
"Candaba, Pampanga, Philippines",15.09289,120.8277,PLDT Home Fiber,96503,100162,96.50,100.16,5,287,112,166
"Talisay, Negros Occidental, Philippines",10.74828,122.98012,Globe,131049,203917,131.05,203.92,11,286,106,155
"Cainta, Rizal, Philippines",14.58056,121.11565,Globe,153283,120637,153.28,120.64,5,283,136,172
"Lucena City, Quezon, Philippines",13.94139,121.62345,PLDT Home Fiber,94675,107173,94.68,107.17,5,279,98,141
"Bansalan, Davao del Sur, Philippines",6.84825,125.22584,Globe,63090,57223,63.09,57.22,13,278,119,180
"Malabon, Metro Manila, Philippines",14.65793,120.95118,Converge,210503,209420,210.50,209.42,4,276,110,164
"Marikina, Metro Manila, Philippines",14.63493,121.10195,Globe,217115,217115,217.12,217.12,4,273,94,167
"Canlaon City, Negros Oriental, Philippines",10.36048,123.19137,PLDT Home Fiber,99446,123451,99.45,123.45,14,273,89,127
"Las Piñas, Metro Manila, Philippines",14.44934,120.98186,Converge,196271,169871,196.27,169.87,4,271,96,152
"Navotas, Metro Manila, Philippines",14.65819,120.94743,PLDT Home Fiber,109320,147949,109.32,147.95,5,269,74,116
"Nasugbu, Batangas, Philippines",14.09404,120.68901,Globe,120085,132221,120.09,132.22,7,268,78,116
"Cabuyao City, Laguna, Philippines",14.27433,121.11961,PLDT Home Fiber,98950,99210,98.95,99.21,6,266,105,146
"San Mateo, Rizal, Philippines",14.69539,121.11767,PLDT Home Fiber,112109,170593,112.11,170.59,3,266,90,123
"Cagayan De Oro City, Misamis Oriental, Philippines",8.48029,124.64975,Converge,109052,94123,109.05,94.12,8,256,92,131
"Digos, Davao del Sur, Philippines",6.74347,125.35515,PLDT Home Fiber,100167,96671,100.17,96.67,9,256,108,139
"Talavera, Nueva Ecija, Philippines",15.58575,120.9197,Converge,142995,167191,143.00,167.19,5,253,72,117
"San Fernando, Pampanga, Philippines",15.02781,120.69349,PLDT,85666,93420,85.67,93.42,10,253,98,141
"Taytay, Rizal, Philippines",14.55288,121.12571,Converge,216063,226762,216.06,226.76,3,250,112,165
"Navotas, Metro Manila, Philippines",14.65819,120.94743,Globe,269990,225135,269.99,225.14,5,246,108,154
"San Antonio, Nueva Ecija, Philippines",15.31921,120.82692,PLDT Home Fiber,93466,93703,93.47,93.70,9,245,74,113
"Santa Maria, Bulacan, Philippines",14.82898,120.97616,PLDT Home Fiber,140094,123134,140.09,123.13,7,243,71,109
"Bocaue, Bulacan, Philippines",14.7943,120.93073,PLDT Home Fiber,85141,72630,85.14,72.63,10,242,73,112
"Manila, Metro Manila, Philippines",14.59951,120.98423,Globe,121312,112559,121.31,112.56,5,242,94,127
"Carmen, Cebu, Philippines",10.58876,123.96385,PLDT Home Fiber,95630,161472,95.63,161.47,5,237,92,143
"Marikina, Metro Manila, Philippines",14.63493,121.10195,PLDT,93840,70415,93.84,70.42,11,236,99,127
"Taytay, Rizal, Philippines",14.55288,121.12571,PLDT,82110,85290,82.11,85.29,5,235,77,118
"Kawit, Cavite, Philippines",14.44588,120.90871,PLDT Home Fiber,105835,121114,105.84,121.11,8,235,93,127
"General Trias, Cavite, Philippines",14.38159,120.87915,Globe,185859,158852,185.86,158.85,6,234,103,143
"Tanza, Cavite, Philippines",14.34293,120.85032,PLDT Home Fiber,200862,176470,200.86,176.47,4,234,70,84
"Palo, Leyte, Philippines",11.15847,124.99191,PLDT,70785,80389,70.79,80.39,15,232,17,26
"San Manuel, Pangasinan, Philippines",16.10561,120.67751,PLDT,129453,108708,129.45,108.71,5,231,90,126
"La Trinidad, Benguet, Philippines",16.44844,120.59047,PLDT Home Fiber,94844,99862,94.84,99.86,7,231,70,92
"Caloocan, Metro Manila, Philippines",14.65136,120.99022,Globe,172421,186966,172.42,186.97,4,225,89,120
"Bacoor, Cavite, Philippines",14.43122,120.96567,Converge,221249,182036,221.25,182.04,6,225,75,124
"Unisan, Quezon, Philippines",13.86351,122.01555,Converge,98359,94607,98.36,94.61,9,224,80,115
"Valenzuela, Metro Manila, Philippines",14.69247,120.96991,Globe,122945,115948,122.95,115.95,4,223,82,108
"Talaingod, Davao del Norte, Philippines",7.68339,125.522,Globe,63540,55658,63.54,55.66,5,223,121,169
"Imus, Cavite, Philippines",14.42764,120.93724,Globe,97490,98688,97.49,98.69,4,220,77,116
"Batangas City, Batangas, Philippines",13.75641,121.05833,PLDT Home Fiber,109948,93087,109.95,93.09,8,220,78,105
"Puerto Princesa City, Palawan, Philippines",9.78563,118.62648,PLDT,87441,110318,87.44,110.32,19,219,42,84
"Angeles, Pampanga, Philippines",15.16061,120.60908,PLDT Home Fiber,181570,126447,181.57,126.45,8,215,83,120
"Subic, Zambales, Philippines",14.83066,120.18202,Converge,159077,155398,159.08,155.40,5,215,103,142
"Diadi, Nueva Vizcaya, Philippines",16.6595,121.33129,Converge,119784,107906,119.78,107.91,9,211,69,110
"Bacoor, Cavite, Philippines",14.43122,120.96567,Globe,200337,148276,200.34,148.28,6,210,74,96
"San Antonio, Nueva Ecija, Philippines",15.31921,120.82692,Globe,153390,133140,153.39,133.14,5,209,66,114
"Santa Barbara, Pangasinan, Philippines",15.9774,120.42424,Converge,152477,139899,152.48,139.90,6,209,80,120
"Zamboanga City, Zamboanga del Sur, Philippines",6.90437,122.07612,PLDT Home Fiber,108706,100497,108.71,100.50,10,204,83,118
"Cainta, Rizal, Philippines",14.58056,121.11565,Converge,242339,249568,242.34,249.57,3,204,72,89
"San Manuel, Pangasinan, Philippines",16.10561,120.67751,PLDT Home Fiber,101215,105458,101.22,105.46,7,201,61,106
"Lapu-Lapu, Cebu, Philippines",10.31838,123.96395,PLDT Home Fiber,92014,124937,92.01,124.94,4,201,52,70
"San Nicolas, Pangasinan, Philippines",16.12066,120.78097,PLDT Home Fiber,93312,94628,93.31,94.63,5,201,76,105
"La Paz, Tarlac, Philippines",15.4497,120.7235,Globe,190229,172433,190.23,172.43,4,199,92,135
"Antipolo City, 1870 Rizal, Philippines",14.58584,121.17569,Globe,195262,157107,195.26,157.11,5,198,76,105
"Tuguegarao City, Cagayan, Philippines",17.60306,121.75374,PLDT,88595,66503,88.60,66.50,13,197,63,97
"San Pedro, Laguna, Philippines",14.36443,121.06192,Converge,237157,202919,237.16,202.92,6,197,52,101
"Manaoag, Pangasinan, Philippines",16.04627,120.4876,Converge,196374,165407,196.37,165.41,5,196,68,107
"Rosario, Batangas, Philippines",13.80433,121.28552,Globe,125911,111475,125.91,111.48,8,193,75,100
"SJDM, Bulacan, Philippines",14.82867,121.04324,PLDT Home Fiber,159772,162867,159.77,162.87,6,192,78,98
"Pasay City, Metro Manila, Philippines",14.53767,121.00081,Converge,212445,205166,212.45,205.17,4,192,64,91
"Alicia, Isabela, Philippines",16.80691,121.69674,Converge,194890,201214,194.89,201.21,9,188,65,107
"Rodriguez, Rizal, Philippines",14.73202,121.14516,PLDT Home Fiber,116317,196993,116.32,196.99,3,188,67,84
"Meycauayan, Bulacan, Philippines",14.73772,120.96077,PLDT Home Fiber,99038,98066,99.04,98.07,10,187,63,89
"Kawit, Cavite, Philippines",14.44588,120.90871,PLDT,93429,94013,93.43,94.01,11,187,71,111
"Santo Tomas, Pampanga, Philippines",14.99601,120.70407,PLDT Home Fiber,97899,93802,97.90,93.80,7,185,71,92
"Iligan City, Lanao del Norte, Philippines",8.22707,124.46418,Globe,69560,52826,69.56,52.83,17,184,53,63
"Arayat, Pampanga, Philippines",15.15443,120.771,Globe,124488,108806,124.49,108.81,5,183,72,103
"Lapu-Lapu, Cebu, Philippines",10.31838,123.96395,Globe,130471,122303,130.47,122.30,5,182,77,94
"San Juan, Batangas, Philippines",13.75044,121.37703,PLDT Home Fiber,93429,94274,93.43,94.27,7,181,61,92
"General Santos City (Dadiangas), South Cotabato, Philippines",6.14327,125.19286,PLDT Home Fiber,95965,98817,95.97,98.82,10,180,63,82
"Marilao, Bulacan, Philippines",14.77237,120.96001,PLDT Home Fiber,89455,94612,89.46,94.61,10,178,77,106
"Bago, Negros Occidental, Philippines",10.53757,122.83609,Globe,123033,186653,123.03,186.65,4,178,75,101
"Malasiqui, Pangasinan, Philippines",15.92028,120.41443,PLDT Home Fiber,96800,136336,96.80,136.34,10,176,56,86
"Llanera, Nueva Ecija, Philippines",15.66623,121.01057,Converge,181990,172304,181.99,172.30,7,176,69,114
"Lapu-Lapu, Cebu, Philippines",10.31838,123.96395,Converge,113337,135614,113.34,135.61,3,176,54,85
"Kidapawan, Cotabato, Philippines",7.02127,125.09019,PLDT Home Fiber,94539,119197,94.54,119.20,10,176,58,88
"Tarlac City, Tarlac, Philippines",15.48808,120.58719,PLDT Home Fiber,92827,94005,92.83,94.01,9,175,65,103
"Navotas, Metro Manila, Philippines",14.65819,120.94743,PLDT,97697,89022,97.70,89.02,8,175,49,69
"Kawit, Cavite, Philippines",14.44588,120.90871,Globe,118861,106787,118.86,106.79,5,171,57,77
"Cabanatuan City, Nueva Ecija, Philippines",15.49943,121.01057,PLDT Home Fiber,96623,157040,96.62,157.04,10,170,60,83
"Cadiz City, Negros Occidental, Philippines",10.86192,123.23632,PLDT Home Fiber,88530,93569,88.53,93.57,14,169,59,94
"Bay, Laguna, Philippines",14.14064,121.26836,PLDT Home Fiber,109285,100187,109.29,100.19,4,167,47,70
"Tuba, Benguet, Philippines",16.39277,120.56034,PLDT Home Fiber,97035,132416,97.04,132.42,7,167,56,88
"Malolos, Bulacan, Philippines",14.86049,120.80916,PLDT,68461,74496,68.46,74.50,7,165,47,71
"Angeles, Pampanga, Philippines",15.16061,120.60908,PLDT,78827,85022,78.83,85.02,10,165,72,101
"Angono, Rizal, Philippines",14.52592,121.15321,PLDT,93922,129409,93.92,129.41,3,162,59,93
"Cabuyao City, Laguna, Philippines",14.27433,121.11961,PLDT,97977,100542,97.98,100.54,8,162,57,85
"Old Kaabakan, Philippines",7.22147,124.85635,PLDT Home Fiber,94806,98109,94.81,98.11,7,160,54,77
"San Antonio, Nueva Ecija, Philippines",15.31921,120.82692,Converge,95765,103195,95.77,103.20,4,160,59,97
"Danao, Cebu, Philippines",10.52013,124.02712,PLDT Home Fiber,94501,102628,94.50,102.63,6,159,60,86
"Porac, Pampanga, Philippines",15.06974,120.55007,PLDT Home Fiber,94595,139334,94.60,139.33,7,158,45,68
"Santa Rita, Pampanga, Philippines",14.99762,120.61451,PLDT Home Fiber,174893,157115,174.89,157.12,6,157,66,87
"Marilao, Bulacan, Philippines",14.77237,120.96001,Converge,208271,205169,208.27,205.17,7,157,42,63
"Tacloban City, Leyte, Philippines",11.22238,124.99221,PLDT,84060,72081,84.06,72.08,17,157,40,59
"Santo Tomas, Batangas, Philippines",14.08754,121.17764,PLDT Home Fiber,104356,115152,104.36,115.15,8,157,67,76
"Nagcarlan, Laguna, Philippines",14.14903,121.38847,PLDT Home Fiber,101048,203430,101.05,203.43,8,155,70,93
"Mexico, Pampanga, Philippines",15.06457,120.72033,PLDT Home Fiber,117177,95296,117.18,95.30,7,155,69,94
"Cardona, Rizal, Philippines",14.48493,121.232,PLDT,96107,161028,96.11,161.03,3,153,60,93
"Matalam, Cotabato, Philippines",7.17236,124.92861,PLDT,194324,100818,194.32,100.82,9,153,77,99
"Batangas City, Batangas, Philippines",13.75641,121.05833,PLDT,105553,99151,105.55,99.15,9,146,49,65
"Toledo, Cebu, Philippines",10.38705,123.65017,Globe,224896,215134,224.90,215.13,16,146,53,73
"Minalin, Pampanga, Philippines",14.97052,120.68518,PLDT Home Fiber,100072,99390,100.07,99.39,6,144,66,88
"Liloan, Cebu, Philippines",10.39926,124.00002,Globe,117330,104125,117.33,104.13,5,143,62,79
"Mandaue, Cebu, Philippines",10.3279,123.94273,PLDT Home Fiber,101214,177722,101.21,177.72,3,142,46,63
"San Jose City, Nueva Ecija, Philippines",15.79188,120.99008,PLDT Home Fiber,73378,73316,73.38,73.32,13,141,31,47
"San Ildefonso, Bulacan, Philippines",15.07717,120.94171,PLDT Home Fiber,93540,94483,93.54,94.48,7,141,67,97
"Lipa City, Batangas, Philippines",13.94047,121.19395,Converge,85284,123077,85.28,123.08,7,140,48,73
"Subic Bay Freeport Zone, Philippines",14.80319,120.30033,PLDT,80650,64935,80.65,64.94,10,140,60,81
"Obando, Bulacan, Philippines",14.70986,120.93674,PLDT Home Fiber,200162,189018,200.16,189.02,4,140,63,78
"Daraga, Albay, Philippines",13.12278,123.69588,Globe,252694,143877,252.69,143.88,27,139,14,18
"Mauban, Quezon, Philippines",14.23756,121.69674,Converge,166431,154710,166.43,154.71,11,138,55,86
"Pulilan, Bulacan, Philippines",14.90243,120.8459,PLDT Home Fiber,104548,103791,104.55,103.79,7,137,45,65
"General Trias, Cavite, Philippines",14.38159,120.87915,PLDT,150045,159749,150.05,159.75,8,137,38,52
"Danao, Cebu, Philippines",10.52013,124.02712,PLDT,44368,50462,44.37,50.46,7,136,37,47
"Dumanjug, Cebu, Philippines",10.02819,123.47198,PLDT Home Fiber,98788,151566,98.79,151.57,6,134,45,65
"Cabiao, Nueva Ecija, Philippines",15.25221,120.85957,PLDT Home Fiber,118107,130367,118.11,130.37,9,133,47,73
"Koronadal, South Cotabato, Philippines",6.50044,124.84333,PLDT Home Fiber,66654,75730,66.65,75.73,11,132,47,60
"City of Santa Rosa, Laguna, Philippines",14.31471,121.11232,PLDT,84702,75801,84.70,75.80,8,132,66,87
"Dona Remedios Trinidad, Bulacan, Philippines",15.11427,121.21685,Converge,101151,92477,101.15,92.48,9,130,50,58
"Baliwag, Bulacan, Philippines",14.96569,120.89431,PLDT Home Fiber,136156,136395,136.16,136.40,6,129,36,49
"Las Piñas, Metro Manila, Philippines",14.44934,120.98186,Globe,160282,135455,160.28,135.46,5,129,52,78
"Concepcion, Tarlac, Philippines",15.324,120.65596,PLDT Home Fiber,94697,97105,94.70,97.11,10,125,53,74
"Balamban, Cebu, Philippines",10.48585,123.77412,Globe,151617,116686,151.62,116.69,7,125,65,95
"Balete, Batangas, Philippines",14.0092,121.10802,PLDT Home Fiber,155147,123636,155.15,123.64,7,125,57,82
"Talisay, Negros Occidental, Philippines",10.74828,122.98012,PLDT,48940,58041,48.94,58.04,17,124,45,67
"Rosario, Cavite, Philippines",14.41672,120.85471,PLDT Home Fiber,176703,176226,176.70,176.23,5,124,23,38
"Angono, Rizal, Philippines",14.52592,121.15321,Converge,250598,302238,250.60,302.24,3,124,55,81
"Cabanatuan City, Nueva Ecija, Philippines",15.49943,121.01057,PLDT,94596,93772,94.60,93.77,10,123,53,79
"Matalam, Cotabato, Philippines",7.17236,124.92861,PLDT Home Fiber,101328,101683,101.33,101.68,9,123,45,64
"Compostela, Cebu, Philippines",10.45408,124.013,Globe,64324,56400,64.32,56.40,6,123,65,83
"Zamboanga City, Zamboanga del Sur, Philippines",6.90437,122.07612,Globe,122187,62674,122.19,62.67,13,122,36,54
"Bugasong, Antique, Philippines",11.10163,122.14054,PLDT Home Fiber,29943,33257,29.94,33.26,23,121,2,2
"Naic, Cavite, Philippines",14.29649,120.79246,PLDT,90094,72904,90.09,72.90,7,121,27,40
"Antipas, Cotabato, Philippines",7.27386,125.01679,PLDT Home Fiber,101446,99338,101.45,99.34,8,119,60,80
"Bansalan, Davao del Sur, Philippines",6.84825,125.22584,PLDT Home Fiber,105228,94741,105.23,94.74,9,118,57,77
"Naga City, Camarines Sur, Philippines",13.6475,123.27003,PLDT Home Fiber,93311,73563,93.31,73.56,8,118,40,62
"Mabalacat City, Pampanga, Philippines",15.24525,120.56567,Converge,128304,119099,128.30,119.10,3,118,48,68
"Dagupan City, Pangasinan, Philippines",16.03375,120.33202,Converge,122014,132641,122.01,132.64,6,118,35,62
"Rosales, Pangasinan, Philippines",15.86126,120.63149,PLDT Home Fiber,109549,114672,109.55,114.67,13,117,11,13
"Cuyapo, Nueva Ecija, Philippines",15.79995,120.68901,Globe,59903,53023,59.90,53.02,7,117,36,83
"Lagonoy, Camarines Sur, Philippines",13.86688,123.48319,PLDT Home Fiber,50723,35023,50.72,35.02,36,116,5,7
"Sablan, Benguet, Philippines",16.49609,120.48794,Converge,113672,155396,113.67,155.40,3,116,63,80
"Majayjay, Laguna, Philippines",14.14491,121.46983,PLDT Home Fiber,95478,154290,95.48,154.29,8,115,28,42
"Lucena City, Quezon, Philippines",13.94139,121.62345,PLDT,94462,94233,94.46,94.23,5,115,46,70
"San Simon, Pampanga, Philippines",14.98432,120.75127,PLDT Home Fiber,115642,110900,115.64,110.90,8,114,29,41
"San Rafael, Bulacan, Philippines",15.00184,120.93141,PLDT Home Fiber,100656,107048,100.66,107.05,7,114,47,65
"Santa Fe, Nueva Vizcaya, Philippines",16.18249,120.91878,PLDT,91397,95281,91.40,95.28,6,114,27,52
"Talisay, Cebu, Philippines",10.25859,123.82413,Globe,206761,178862,206.76,178.86,8,113,32,38
"Calatrava, Negros Occidental, Philippines",10.62843,123.39349,PLDT,93831,97354,93.83,97.35,8,112,39,68
"Infanta, Quezon, Philippines",14.74071,121.6451,PLDT,80585,78923,80.59,78.92,8,112,48,58
"Banga, South Cotabato, Philippines",6.38791,124.79617,PLDT Home Fiber,67734,54431,67.73,54.43,11,111,41,58
"Kibungan, Benguet, Philippines",16.68162,120.68901,PLDT Home Fiber,98532,94551,98.53,94.55,6,111,60,80
"Kapangan, Benguet, Philippines",16.61238,120.59698,PLDT Home Fiber,88375,94419,88.38,94.42,7,111,52,69
"Mandaue, Cebu, Philippines",10.3279,123.94273,Converge,208017,187637,208.02,187.64,3,110,43,61
"General Santos City (Dadiangas), South Cotabato, Philippines",6.14327,125.19286,PLDT,52893,92886,52.89,92.89,10,109,40,59
"Marilao, Bulacan, Philippines",14.77237,120.96001,PLDT,88424,51787,88.42,51.79,16,109,42,55
"Lobo, Batangas, Philippines",13.6877,121.23974,Globe,113081,97552,113.08,97.55,11,108,37,55
"Quezon, Nueva Ecija, Philippines",15.56953,120.82692,Globe,112759,105033,112.76,105.03,6,107,57,80
"San Pedro, Laguna, Philippines",14.36443,121.06192,PLDT,115582,96841,115.58,96.84,7,106,47,62
"Tuguegarao City, Cagayan, Philippines",17.60306,121.75374,Converge,55775,65136,55.78,65.14,13,105,29,40
"Mandaue, Cebu, Philippines",10.3279,123.94273,Globe,121383,115265,121.38,115.27,4,105,45,57
"Malabon, Metro Manila, Philippines",14.65793,120.95118,PLDT,108840,127001,108.84,127.00,5,104,34,50
"Tuburan, Cebu, Philippines",10.66879,123.86345,PLDT Home Fiber,93598,142764,93.60,142.76,7,104,34,42
"Pinamungahan, Cebu, Philippines",10.26958,123.63996,Globe,217472,141699,217.47,141.70,17,104,51,64
"Taal, Batangas, Philippines",13.87826,120.92508,Globe,250818,226108,250.82,226.11,5,104,46,66
"Tanza, Cavite, Philippines",14.34293,120.85032,Globe,129575,106671,129.58,106.67,7,103,29,35
"Bokod, Benguet, Philippines",16.45641,120.78097,PLDT Home Fiber,123087,100663,123.09,100.66,5,102,34,54
"San Juan City, Metro Manila, Philippines",14.60196,121.0355,Globe,160539,143597,160.54,143.60,4,102,42,63
"Magsaysay, Davao del Sur, Philippines",6.75271,125.15221,PLDT Home Fiber,107845,97156,107.85,97.16,9,102,50,69
"Calumpit, Bulacan, Philippines",14.91518,120.7662,PLDT Home Fiber,94254,98826,94.25,98.83,8,102,43,61
"Baguio, Benguet, Philippines",16.41297,120.5914,Globe,116669,110777,116.67,110.78,5,101,29,46
"Tuburan, Cebu, Philippines",10.66879,123.86345,Globe,156264,97537,156.26,97.54,18,100,72,82
"Polomolok, South Cotabato, Philippines",6.22451,125.06084,Globe,94864,137419,94.86,137.42,16,100,31,34
"Candelaria, Quezon, Philippines",13.94899,121.42276,PLDT Home Fiber,93767,94361,93.77,94.36,6,99,33,53
"Morong, Rizal, Philippines",14.51286,121.23855,PLDT Home Fiber,93658,101606,93.66,101.61,3,99,38,53
"Lipa City, Batangas, Philippines",13.94047,121.19395,Globe,109816,102136,109.82,102.14,8,99,50,61
"Cadiz City, Negros Occidental, Philippines",10.86192,123.23632,PLDT,76632,87840,76.63,87.84,8,99,40,52
"Lipa City, Batangas, Philippines",13.94047,121.19395,PLDT,93461,93720,93.46,93.72,8,99,40,59
"Silay, Negros Occidental, Philippines",10.79968,122.97605,PLDT Home Fiber,99521,170030,99.52,170.03,12,98,41,57
"Calauan, Laguna, Philippines",14.14551,121.3146,PLDT Home Fiber,96960,112998,96.96,113.00,7,98,36,49
"Rosario, Cavite, Philippines",14.41672,120.85471,Converge,181255,217479,181.26,217.48,6,96,40,61
"San Mateo, Rizal, Philippines",14.69539,121.11767,Converge,173857,161978,173.86,161.98,4,96,35,54
"Santa Maria, Bulacan, Philippines",14.82898,120.97616,Globe,124104,111038,124.10,111.04,7,96,30,40
"Tagum, Davao del Norte, Philippines",7.44742,125.80246,PLDT Home Fiber,78269,93895,78.27,93.90,8,95,33,48
"Agoncillo, Batangas, Philippines",13.94675,120.93026,Globe,296384,237701,296.38,237.70,5,95,51,68
"Lapu-Lapu, Cebu, Philippines",10.31838,123.96395,PLDT,51049,53170,51.05,53.17,3,95,47,65
"Consolacion, Cebu, Philippines",10.37581,123.95694,Globe,113587,126178,113.59,126.18,5,95,31,39
"President Roxas, Cotabato, Philippines",7.37928,125.06084,PLDT Home Fiber,97626,100378,97.63,100.38,8,95,48,59
"Vallehermoso, Negros Oriental, Philippines",10.33905,123.29249,PLDT Home Fiber,123351,139901,123.35,139.90,12,95,39,58
"Sagay City, Negros Occidental, Philippines",10.84555,123.37106,PLDT Home Fiber,53091,74993,53.09,74.99,13,93,33,51
"Polomolok, South Cotabato, Philippines",6.22451,125.06084,PLDT Home Fiber,85118,100650,85.12,100.65,11,93,47,66
"Meycauayan, Bulacan, Philippines",14.73772,120.96077,PLDT,97358,93814,97.36,93.81,9,92,36,52
"Obando, Bulacan, Philippines",14.70986,120.93674,Converge,200193,219941,200.19,219.94,5,92,19,24
"Tagbilaran City, Bohol, Philippines",9.6534,123.86703,PLDT Home Fiber,90971,93869,90.97,93.87,9,92,22,30
"Silang, Cavite, Philippines",14.22025,120.96469,Converge,192504,177773,192.50,177.77,7,92,27,32
"Tanauan City, Batangas, Philippines",14.08354,121.14762,Globe,191277,111098,191.28,111.10,6,91,39,49
"Tagum, Davao del Norte, Philippines",7.44742,125.80246,Globe,122500,107172,122.50,107.17,5,91,35,43
"San Pablo City, Laguna, Philippines",14.06422,121.32326,PLDT,81796,82257,81.80,82.26,8,91,28,46
"Naga City, Camarines Sur, Philippines",13.6475,123.27003,Globe,79559,96492,79.56,96.49,12,90,35,45
"Santiago, Isabela, Philippines",16.69679,121.55865,PLDT Home Fiber,112297,112478,112.30,112.48,13,90,23,32
"La Paz, Tarlac, Philippines",15.4497,120.7235,PLDT Home Fiber,97310,93984,97.31,93.98,9,90,33,47
"Marilao, Bulacan, Philippines",14.77237,120.96001,Globe,275412,271146,275.41,271.15,8,89,24,33
"Plaridel, Bulacan, Philippines",14.88591,120.85932,PLDT,94616,93946,94.62,93.95,6,89,42,56
"Vintar, Ilocos Norte, Philippines",18.31413,120.78097,Converge,92475,94259,92.48,94.26,11,89,41,59
"San Leonardo, Nueva Ecija, Philippines",15.37285,120.95321,PLDT,20068,27846,20.07,27.85,16,89,16,24
"Naic, Cavite, Philippines",14.29649,120.79246,PLDT Home Fiber,102885,102384,102.89,102.38,7,88,18,25
"Molave, Zamboanga del Sur, Philippines",8.10419,123.4944,PLDT Home Fiber,52774,53763,52.77,53.76,7,88,22,28
"Angono, Rizal, Philippines",14.52592,121.15321,PLDT Home Fiber,97336,97494,97.34,97.49,3,88,31,41
"Cawayan, Masbate, Philippines",12.05579,123.72942,PLDT,7097,7737,7.10,7.74,44,88,3,6
"Balagtas, Bulacan, Philippines",14.81784,120.90646,PLDT Home Fiber,206554,163446,206.55,163.45,5,87,16,23
"Capas, Tarlac, Philippines",15.34633,120.59344,PLDT,93336,62329,93.34,62.33,6,87,24,37
"Dumaguete City, Negros Oriental, Philippines",9.29841,123.29249,PLDT,113832,119374,113.83,119.37,9,87,20,31
"Dumaguete City, Negros Oriental, Philippines",9.29841,123.29249,PLDT Home Fiber,103726,136044,103.73,136.04,10,87,27,34
"Orani, Bataan, Philippines",14.80086,120.53616,Converge,92929,102364,92.93,102.36,6,86,31,51
"Lambunao, Iloilo, Philippines",11.12265,122.37876,PLDT,62858,59138,62.86,59.14,10,86,42,53
"San Jose City, Nueva Ecija, Philippines",15.79188,120.99008,PLDT,88942,93238,88.94,93.24,9,85,32,48
"Santa Fe, Nueva Vizcaya, Philippines",16.18249,120.91878,PLDT Home Fiber,90963,94552,90.96,94.55,6,85,34,50
"Bayombong, Nueva Vizcaya, Philippines",16.48042,121.14813,PLDT Home Fiber,52735,56191,52.74,56.19,7,84,14,23
"Virac, Catanduanes, Philippines",13.61939,124.17544,PLDT Home Fiber,84783,130179,84.78,130.18,11,84,15,32
"Daet, Camarines Norte, Philippines",14.10303,122.9325,PLDT,50838,92590,50.84,92.59,7,84,28,35
"Tacurong City, Sultan Kudarat, Philippines",6.6866,124.66353,PLDT Home Fiber,79067,74586,79.07,74.59,11,84,32,42
"City of Tayabas, Quezon, Philippines",14.01135,121.55983,PLDT Home Fiber,97457,101463,97.46,101.46,7,84,39,55
"Lucban, Quezon, Philippines",14.1144,121.55472,PLDT Home Fiber,94315,77218,94.32,77.22,12,83,20,38
"Natividad, Pangasinan, Philippines",16.03821,120.83841,PLDT Home Fiber,97836,99385,97.84,99.39,6,83,49,57
"Guiguinto, Bulacan, Philippines",14.82832,120.88429,PLDT Home Fiber,199101,191125,199.10,191.13,7,82,26,37
"Binangonan, Rizal, Philippines",14.48441,121.1869,PLDT Home Fiber,96875,93921,96.88,93.92,3,82,35,45
"Bacacay, Albay, Philippines",13.29586,123.87462,Converge,294875,221757,294.88,221.76,4,82,3,8
"Dagupan City, Pangasinan, Philippines",16.03375,120.33202,PLDT Home Fiber,89888,89337,89.89,89.34,5,82,34,49
"Malabon, Metro Manila, Philippines",14.65793,120.95118,Globe,211600,194266,211.60,194.27,4,82,38,47
"Santo Tomas, Batangas, Philippines",14.08754,121.17764,PLDT,85388,88544,85.39,88.54,8,82,32,46
"Plaridel, Bulacan, Philippines",14.88591,120.85932,PLDT Home Fiber,92367,101441,92.37,101.44,5,82,29,39
"City Of Bislig, Surigao del Sur, Philippines",8.21006,126.28478,Globe,41018,67266,41.02,67.27,16,81,15,22
"Tanay, Rizal, Philippines",14.61419,121.37703,PLDT,38749,32049,38.75,32.05,9,81,24,28
"Lucena City, Quezon, Philippines",13.94139,121.62345,Converge,115399,113345,115.40,113.35,9,81,24,40
"Abra De Ilog, Occidental Mindoro, Philippines",13.36383,120.75798,Globe,61905,53646,61.91,53.65,7,80,30,44
"Talisay, Cebu, Philippines",10.25859,123.82413,PLDT,130807,163274,130.81,163.27,3,80,34,42
"Catmon, Cebu, Philippines",10.65242,123.9973,PLDT Home Fiber,151419,94587,151.42,94.59,6,80,30,45
"San Mateo, Rizal, Philippines",14.69539,121.11767,Globe,296773,200655,296.77,200.66,6,80,19,22
"Carmen, Cotabato, Philippines",7.38261,124.81826,PLDT Home Fiber,80793,112357,80.79,112.36,9,80,32,46
"Bayombong, Nueva Vizcaya, Philippines",16.48042,121.14813,Converge,193617,202459,193.62,202.46,11,80,24,29
"Consolacion, Cebu, Philippines",10.37581,123.95694,PLDT,56246,53674,56.25,53.67,10,79,35,48
"Pozorrubio, Pangasinan, Philippines",16.11642,120.54316,PLDT,111216,166345,111.22,166.35,6,79,17,27
"Magalang, Pampanga, Philippines",15.21394,120.66181,PLDT,93617,83695,93.62,83.70,10,79,27,43
"Bamban, Tarlac, Philippines",15.2885,120.57044,Converge,91605,94149,91.61,94.15,4,79,22,27
"Meycauayan, Bulacan, Philippines",14.73772,120.96077,Globe,246735,179245,246.74,179.25,7,79,26,36
"Trece Martires City, Cavite, Philippines",14.28222,120.86837,PLDT,47626,37277,47.63,37.28,6,78,17,26
"Guimba, Nueva Ecija, Philippines",15.65641,120.76767,Converge,176730,161608,176.73,161.61,6,78,21,26
"Pagbilao, Quezon, Philippines",13.99683,121.73095,PLDT Home Fiber,94413,94669,94.41,94.67,8,78,28,37
"Laoag City, Ilocos Norte, Philippines",18.21075,120.58547,Converge,239827,290730,239.83,290.73,11,78,32,40
"Calbayog, Samar, Philippines",12.0685,124.59081,PLDT Home Fiber,104855,240429,104.86,240.43,17,78,7,12
"Palayan City, Nueva Ecija, Philippines",15.53906,121.09083,Converge,191278,195250,191.28,195.25,7,78,24,30
"Biñan, Laguna, Philippines",14.31456,121.08316,Globe,190648,183840,190.65,183.84,6,78,36,49
"Nasugbu, Batangas, Philippines",14.09404,120.68901,PLDT,95477,101276,95.48,101.28,7,78,34,53
"Lubao, Pampanga, Philippines",14.92678,120.58795,Converge,60667,71686,60.67,71.69,4,77,35,43
"Cabiao, Nueva Ecija, Philippines",15.25221,120.85957,Globe,163574,126863,163.57,126.86,5,77,22,31
"City of Santa Rosa, Laguna, Philippines",14.31471,121.11232,Converge,240010,222656,240.01,222.66,5,77,32,44
"Daet, Camarines Norte, Philippines",14.10303,122.9325,Converge,198555,74558,198.56,74.56,10,77,23,32
"Legazpi City, Albay, Philippines",13.11288,123.76295,Converge,111376,92952,111.38,92.95,5,77,27,39
"Pavia, Iloilo, Philippines",10.7748,122.54261,PLDT,72883,69567,72.88,69.57,10,77,35,45
"Kalibo, Aklan, Philippines",11.70734,122.36986,Converge,226934,128825,226.93,128.83,19,76,23,36
"Lagawe, Ifugao, Philippines",16.80825,121.19395,PLDT Home Fiber,120278,158593,120.28,158.59,8,76,20,38
"Gapan City, Nueva Ecija, Philippines",15.29121,121.01057,PLDT Home Fiber,175636,103722,175.64,103.72,12,76,22,34
"Rodriguez, Rizal, Philippines",14.73202,121.14516,Globe,222885,244363,222.89,244.36,4,75,16,20
"Pateros, Metro Manila, Philippines",14.54838,121.07077,PLDT Home Fiber,121260,159940,121.26,159.94,3,75,27,40
"Taytay, Rizal, Philippines",14.55288,121.12571,Globe,229674,129637,229.67,129.64,5,74,31,40
"Surallah, South Cotabato, Philippines",6.3195,124.75198,PLDT Home Fiber,110425,143786,110.43,143.79,11,74,20,35
"Umingan, Pangasinan, Philippines",15.90396,120.82692,PLDT Home Fiber,174580,166633,174.58,166.63,6,74,14,23
"Santa Barbara, Pangasinan, Philippines",15.9774,120.42424,PLDT Home Fiber,96185,110943,96.19,110.94,7,74,25,44
"San Fernando, Pampanga, Philippines",15.02781,120.69349,Globe,115458,107983,115.46,107.98,7,73,15,20
"Panabo City, Davao del Norte, Philippines",7.30822,125.68662,PLDT Home Fiber,60292,59771,60.29,59.77,8,73,22,28
"Roxas City, Capiz, Philippines",11.55288,122.74072,Converge,108361,128216,108.36,128.22,18,73,25,39
"Sagay City, Negros Occidental, Philippines",10.84555,123.37106,PLDT,49866,50356,49.87,50.36,16,72,9,17
"Toboso, Negros Occidental, Philippines",10.71769,123.46077,PLDT Home Fiber,57073,50639,57.07,50.64,13,71,19,38
"SJDM, Bulacan, Philippines",14.82867,121.04324,Globe,230786,195719,230.79,195.72,8,71,22,30
"Santo Nino, Cagayan, Philippines",17.91267,121.49132,Converge,197829,107408,197.83,107.41,13,71,25,34
"San Simon, Pampanga, Philippines",14.98432,120.75127,PLDT,94522,92229,94.52,92.23,15,70,24,29
"Bulakan, Bulacan, Philippines",14.79484,120.87889,PLDT,55762,58530,55.76,58.53,7,70,24,47
"Narra, Palawan, Philippines",9.229,118.33047,PLDT,7852,59928,7.85,59.93,37,70,12,25
"Talisay, Negros Occidental, Philippines",10.74828,122.98012,PLDT Home Fiber,102506,160083,102.51,160.08,13,70,22,34
"Roxas City, Capiz, Philippines",11.55288,122.74072,PLDT Home Fiber,80004,96146,80.00,96.15,16,70,24,31
"Imus, Cavite, Philippines",14.42764,120.93724,PLDT,82132,85492,82.13,85.49,7,70,26,37
"Panglao, Bohol, Philippines",9.56947,123.78721,Converge,93103,60851,93.10,60.85,25,69,12,17
"Dumaguete City, Negros Oriental, Philippines",9.29841,123.29249,Converge,117178,81779,117.18,81.78,28,69,31,42
"Naga City, Camarines Sur, Philippines",13.6475,123.27003,PLDT,62263,64735,62.26,64.74,16,69,23,38
"Valladolid, Negros Occidental, Philippines",10.46898,122.8423,PLDT Home Fiber,72323,63805,72.32,63.81,17,68,23,43
"San Fernando City, La Union, Philippines",16.61592,120.32102,PLDT Home Fiber,108525,143849,108.53,143.85,3,68,21,32
"Ormoc City, Leyte, Philippines",11.03843,124.61927,Globe,118827,126339,118.83,126.34,15,68,19,25
"San Luis, Pampanga, Philippines",15.03986,120.81544,PLDT Home Fiber,90057,93220,90.06,93.22,8,68,29,36
"Santa Rosa, Nueva Ecija, Philippines",15.42502,120.93838,PLDT Home Fiber,150558,143103,150.56,143.10,12,68,25,33
"Bocaue, Bulacan, Philippines",14.7943,120.93073,PLDT,93671,94814,93.67,94.81,7,67,22,27
"Lobo, Batangas, Philippines",13.6877,121.23974,PLDT Home Fiber,202843,161840,202.84,161.84,5,67,25,33
"San Jose City, Nueva Ecija, Philippines",15.79188,120.99008,Converge,46994,51378,46.99,51.38,6,67,17,32
"Tanza, Cavite, Philippines",14.34293,120.85032,Converge,277991,249569,277.99,249.57,6,67,26,41
"Legazpi City, Albay, Philippines",13.11288,123.76295,PLDT,104867,166599,104.87,166.60,6,67,24,30
"Guagua, Pampanga, Philippines",14.96374,120.63244,Converge,48151,45707,48.15,45.71,7,67,18,29
"Liliw, Laguna, Philippines",14.12617,121.4399,PLDT Home Fiber,208667,164827,208.67,164.83,7,66,26,41
"Ligao City, Albay, Philippines",13.17242,123.4944,Converge,91189,72812,91.19,72.81,6,65,17,21
"Tagaytay City, Cavite, Philippines",14.11541,120.96202,PLDT,78705,125986,78.71,125.99,10,65,21,35
"Pasay City, Metro Manila, Philippines",14.53767,121.00081,Globe,127083,149789,127.08,149.79,5,65,22,36
"Magdalena, Laguna, Philippines",14.20408,121.43419,Globe,92981,137683,92.98,137.68,8,65,27,33
"Balanga City, Bataan, Philippines",14.67454,120.47033,PLDT Home Fiber,159205,154989,159.21,154.99,7,65,20,26
"Escalante City, Negros Occidental, Philippines",10.84117,123.49908,PLDT Home Fiber,78758,122225,78.76,122.23,13,64,17,25
"Legazpi City, Albay, Philippines",13.11288,123.76295,Globe,114411,97566,114.41,97.57,25,64,16,25
"Calapan City, Oriental Mindoro, Philippines",13.36643,121.19395,PLDT Home Fiber,107837,141078,107.84,141.08,8,64,14,21
"Alfonso, Cavite, Philippines",14.1214,120.86138,PLDT,77859,98850,77.86,98.85,11,63,20,29
"Rizal, Nueva Ecija, Philippines",15.69357,121.10229,PLDT,38207,52827,38.21,52.83,15,63,28,35
"La Carlota City, Negros Occidental, Philippines",10.41437,122.97757,PLDT,37980,62167,37.98,62.17,13,63,10,16
"Butuan City, Agusan Del Norte, Philippines",8.94753,125.54063,Converge,84012,93207,84.01,93.21,9,63,18,23
"Bayambang, Pangasinan, Philippines",15.80947,120.45714,PLDT Home Fiber,194034,189780,194.03,189.78,12,63,17,26
"Hagonoy, Bulacan, Philippines",14.83564,120.73371,PLDT,107479,83652,107.48,83.65,6,62,18,26
"Dipolog City, Zamboanga del Norte, Philippines",8.58717,123.34035,PLDT Home Fiber,95461,99858,95.46,99.86,11,62,24,33
"Aroroy, Masbate, Philippines",12.38843,123.32617,Converge,77273,42401,77.27,42.40,29,62,2,5
"Angeles, Pampanga, Philippines",15.16061,120.60908,Globe,116729,108673,116.73,108.67,5,62,23,35
"Asturias, Cebu, Philippines",10.60209,123.77412,Globe,103215,95038,103.22,95.04,6,62,25,34
"Sariaya, Quezon, Philippines",13.96301,121.52388,PLDT Home Fiber,212805,270755,212.81,270.76,4,61,26,41
"Silang, Cavite, Philippines",14.22025,120.96469,PLDT,105696,177710,105.70,177.71,9,61,21,30
"Echague, Isabela, Philippines",16.66606,121.78792,PLDT,47379,48040,47.38,48.04,14,61,24,29
"Mabalacat City, Pampanga, Philippines",15.24525,120.56567,PLDT Home Fiber,93351,92479,93.35,92.48,6,61,28,41
"Muñoz, Nueva Ecija, Philippines",15.70664,120.9029,PLDT Home Fiber,94835,99978,94.84,99.98,13,61,22,33
"Baao, Camarines Sur, Philippines",13.49319,123.35984,PLDT,36048,43171,36.05,43.17,12,60,11,12
"Rodriguez, Rizal, Philippines",14.73202,121.14516,Converge,194098,223662,194.10,223.66,4,60,29,36
"Balungao, Pangasinan, Philippines",15.88371,120.68901,PLDT Home Fiber,52324,26276,52.32,26.28,3,60,27,34
"Malvar, Batangas, Philippines",14.04329,121.15875,PLDT Home Fiber,93849,131471,93.85,131.47,9,59,23,25
"Talisay, Cebu, Philippines",10.25859,123.82413,PLDT Home Fiber,186595,124462,186.60,124.46,4,59,25,38
"Santo Tomas, Davao del Norte, Philippines",7.50929,125.63142,PLDT Home Fiber,83705,50402,83.71,50.40,10,59,17,29
"Kayapa, Nueva Vizcaya, Philippines",16.49326,120.94174,PLDT,52961,65867,52.96,65.87,8,59,27,35
"Santa Maria, Bulacan, Philippines",14.82898,120.97616,PLDT,60890,57892,60.89,57.89,7,59,23,39
"Alabel, Sarangani, Philippines",6.10416,125.28792,PLDT Home Fiber,157230,169166,157.23,169.17,10,59,19,27
"Tuguegarao City, Cagayan, Philippines",17.60306,121.75374,PLDT Home Fiber,67579,80261,67.58,80.26,13,58,23,35
"Rosario, Batangas, Philippines",13.80433,121.28552,PLDT Home Fiber,91073,93620,91.07,93.62,5,58,24,32
"Mariveles, Bataan, Philippines",14.4354,120.49003,PLDT Home Fiber,50857,68473,50.86,68.47,8,58,20,26
"Talugtug, Nueva Ecija, Philippines",15.7698,120.81544,Globe,117120,98872,117.12,98.87,7,58,19,37
"Norzagaray, Bulacan, Philippines",14.89659,121.14813,PLDT,47640,40085,47.64,40.09,17,58,24,31
"Digos, Davao del Sur, Philippines",6.74347,125.35515,Globe,116516,107074,116.52,107.07,4,57,9,14
"Silang, Cavite, Philippines",14.22025,120.96469,Globe,97304,103958,97.30,103.96,6,57,27,38
"Salvador Benedicto, Negros Occidental, Philippines",10.5887,123.23632,PLDT Home Fiber,97254,162432,97.25,162.43,12,57,30,39
"Carmona, Cavite, Philippines",14.3135,121.05712,Converge,193013,271872,193.01,271.87,7,57,17,27
"Concepcion, Tarlac, Philippines",15.324,120.65596,PLDT,49381,42212,49.38,42.21,10,57,30,36
"Iba, Zambales, Philippines",15.39495,120.04341,PLDT Home Fiber,85022,87224,85.02,87.22,11,57,7,10
"Trece Martires City, Cavite, Philippines",14.28222,120.86837,Globe,120097,130727,120.10,130.73,6,57,19,28
"Mandaue, Cebu, Philippines",10.3279,123.94273,PLDT,87557,71634,87.56,71.63,5,57,25,44
"Dona Remedios Trinidad, Bulacan, Philippines",15.11427,121.21685,PLDT,48892,26862,48.89,26.86,16,57,28,38
"Kibawe, Bukidnon, Philippines",7.48878,125.06084,PLDT Home Fiber,133287,113977,133.29,113.98,9,57,28,35
"Floridablanca, Pampanga, Philippines",14.9619,120.49471,PLDT Home Fiber,105325,93529,105.33,93.53,12,57,14,20
"Talisay, Cebu, Philippines",10.25859,123.82413,Converge,253422,258771,253.42,258.77,4,57,25,39
"Porac, Pampanga, Philippines",15.06974,120.55007,Converge,128010,141994,128.01,141.99,3,56,29,41
"Talisay, Negros Occidental, Philippines",10.74828,122.98012,Converge,220627,248569,220.63,248.57,17,56,23,32
"Subic Bay Freeport Zone, Philippines",14.80319,120.30033,PLDT Home Fiber,297825,126563,297.83,126.56,6,56,12,18
"Olongapo City, Zambales, Philippines",14.88739,120.36661,PLDT Home Fiber,107923,96952,107.92,96.95,7,56,12,23
"Kumalarang, Zamboanga del Sur, Philippines",7.7703,123.1464,PLDT,41895,42287,41.90,42.29,20,56,13,22
"Apalit, Pampanga, Philippines",14.95255,120.76688,PLDT Home Fiber,120560,128470,120.56,128.47,7,55,26,40
"San Fernando, Bukidnon, Philippines",7.84637,125.34663,Globe,123486,111190,123.49,111.19,4,55,21,34
"Roxas City, Capiz, Philippines",11.55288,122.74072,Globe,90894,84728,90.89,84.73,10,55,18,28
"Kayapa, Nueva Vizcaya, Philippines",16.49326,120.94174,PLDT Home Fiber,55995,94483,56.00,94.48,7,55,21,36
"Calabanga, Camarines Sur, Philippines",13.71633,123.28126,PLDT Home Fiber,82025,119365,82.03,119.37,9,55,11,20
"City of Guihulngan, Negros Oriental, Philippines",10.18323,123.21385,PLDT Home Fiber,54767,94048,54.77,94.05,11,55,27,35
"Carmona, Cavite, Philippines",14.3135,121.05712,Globe,310021,237827,310.02,237.83,5,55,27,36
"Taysan, Batangas, Philippines",13.76108,121.2283,Globe,94627,94242,94.63,94.24,10,55,32,39
"Calatrava, Negros Occidental, Philippines",10.62843,123.39349,Globe,15045,7461,15.05,7.46,38,55,21,42
"Aguinaldo, Ifugao, Philippines",16.95291,121.33129,PLDT Home Fiber,156767,201391,156.77,201.39,10,54,16,35
"Sindangan, Zamboanga del Norte, Philippines",8.19151,123.05639,PLDT Home Fiber,13038,16399,13.04,16.40,11,54,10,14
"Baras, Rizal, Philippines",14.53656,121.27408,PLDT Home Fiber,54360,71290,54.36,71.29,5,54,13,21
"San Luis, Pampanga, Philippines",15.03986,120.81544,Globe,32802,51190,32.80,51.19,7,54,2,2
"Salvador Benedicto, Negros Occidental, Philippines",10.5887,123.23632,Globe,66400,63009,66.40,63.01,12,54,16,22
"Isulan, Sultan Kudarat, Philippines",6.6318,124.44201,PLDT,30915,28581,30.92,28.58,13,53,12,13
"Candelaria, Quezon, Philippines",13.94899,121.42276,PLDT,196519,214790,196.52,214.79,7,53,23,32
"Mariveles, Bataan, Philippines",14.4354,120.49003,Converge,157821,183756,157.82,183.76,8,53,20,26
"Midsayap, Cotabato, Philippines",7.19181,124.53474,PLDT Home Fiber,94496,48716,94.50,48.72,12,53,16,21
"Binalbagan, Negros Occidental, Philippines",10.10918,123.01136,Globe,68744,92133,68.74,92.13,5,53,7,9
"Malaybalay City, Bukidnon, Philippines",8.15775,125.17087,PLDT,88531,71341,88.53,71.34,18,53,24,31
"Carmen, Cebu, Philippines",10.58876,123.96385,PLDT,91362,91705,91.36,91.71,15,53,20,26
"Puerto Princesa City, Palawan, Philippines",9.78563,118.62648,Converge,178653,137856,178.65,137.86,15,53,18,24
"Trece Martires City, Cavite, Philippines",14.28222,120.86837,PLDT Home Fiber,90651,76632,90.65,76.63,4,53,27,36
"Puerto Princesa City, Palawan, Philippines",9.78563,118.62648,Globe,78083,92846,78.08,92.85,15,52,17,29
"Carles, Iloilo, Philippines",11.55216,123.13515,PLDT Home Fiber,65651,90081,65.65,90.08,17,52,3,5
"La Carlota City, Negros Occidental, Philippines",10.41437,122.97757,PLDT Home Fiber,153302,161141,153.30,161.14,11,52,25,34
"Cauayan City, Isabela, Philippines",16.91662,121.78792,Converge,97883,96392,97.88,96.39,8,52,14,23
"Hagonoy, Bulacan, Philippines",14.83564,120.73371,PLDT Home Fiber,94610,94598,94.61,94.60,7,52,11,22
"Magalang, Pampanga, Philippines",15.21394,120.66181,PLDT Home Fiber,94086,94417,94.09,94.42,12,51,26,37
"Malolos, Bulacan, Philippines",14.86049,120.80916,Globe,223079,189489,223.08,189.49,7,51,19,28
"Libmanan, Camarines Sur, Philippines",13.69376,123.05982,PLDT Home Fiber,150604,63990,150.60,63.99,12,51,10,17
"Plaridel, Misamis Occidental, Philippines",8.61148,123.69588,PLDT Home Fiber,93162,142414,93.16,142.41,8,51,10,10
"Pikit, Cotabato, Philippines",7.05314,124.61927,PLDT Home Fiber,94367,75880,94.37,75.88,11,51,15,23
"Gerona, Tarlac, Philippines",15.60489,120.59698,Converge,56663,75271,56.66,75.27,4,51,17,24
"Liloan, Cebu, Philippines",10.39926,124.00002,Converge,155042,136440,155.04,136.44,3,51,21,25
"Nagcarlan, Laguna, Philippines",14.14903,121.38847,PLDT,54585,76609,54.59,76.61,9,51,8,11
"San Fernando City, La Union, Philippines",16.61592,120.32102,Converge,220560,156668,220.56,156.67,3,51,12,20
"Tuguegarao City, Cagayan, Philippines",17.60306,121.75374,Globe,118673,107314,118.67,107.31,8,51,8,12
"Hinigaran, Negros Occidental, Philippines",10.27479,122.92123,PLDT Home Fiber,96714,66126,96.71,66.13,18,50,13,20
"Barili, Cebu, Philippines",10.1254,123.55041,PLDT Home Fiber,87427,91460,87.43,91.46,5,50,16,17
"Santo Domingo, Ilocos Sur, Philippines",17.64462,120.42424,PLDT Home Fiber,52212,51085,52.21,51.09,16,50,6,8
"Basud, Camarines Norte, Philippines",14.00663,122.9663,PLDT Home Fiber,74483,96639,74.48,96.64,7,50,10,11
"Muntinlupa, Metro Manila, Philippines",14.39453,121.04483,Globe,199158,198399,199.16,198.40,6,50,27,33
"San Isidro, Nueva Ecija, Philippines",15.29656,120.9073,Globe,111995,120264,112.00,120.26,5,50,21,32
"Tagaytay City, Cavite, Philippines",14.11541,120.96202,Globe,110248,107396,110.25,107.40,5,50,13,26
"Batangas City, Batangas, Philippines",13.75641,121.05833,Converge,181842,179930,181.84,179.93,6,50,19,28
"Malaybalay City, Bukidnon, Philippines",8.15775,125.17087,PLDT Home Fiber,107040,155925,107.04,155.93,10,50,25,31
"Ozamiz, Misamis Occidental, Philippines",8.15,123.85033,PLDT Home Fiber,68058,67110,68.06,67.11,5,49,8,15
"Biñan, Laguna, Philippines",14.31456,121.08316,Converge,207330,152176,207.33,152.18,5,49,21,31
"Santa Cruz, Davao del Sur, Philippines",6.83551,125.41659,PLDT Home Fiber,72070,73929,72.07,73.93,9,49,7,14
"Pavia, Iloilo, Philippines",10.7748,122.54261,Globe,101442,103559,101.44,103.56,4,49,17,21
"Oton, Iloilo, Philippines",10.69251,122.47868,PLDT Home Fiber,102738,103010,102.74,103.01,13,49,5,14
"Zamboanga City, Zamboanga del Sur, Philippines",6.90437,122.07612,PLDT,46130,65893,46.13,65.89,20,49,12,26
"General Tinio (Papaya), Nueva Ecija, Philippines",15.36345,121.21685,PLDT,44419,27401,44.42,27.40,9,49,8,13
"Julita, Leyte, Philippines",10.98417,124.96169,PLDT,137417,149433,137.42,149.43,17,49,1,2
"Odiongan, Romblon, Philippines",12.36445,122.01555,PLDT,40592,31453,40.59,31.45,14,49,15,19
"Calinog, Iloilo, Philippines",11.14579,122.51464,PLDT Home Fiber,2180,2198,2.18,2.20,15,49,1,4
"President Roxas, Cotabato, Philippines",7.37928,125.06084,PLDT,91446,100683,91.45,100.68,7,48,19,21
"Himamaylan, Negros Occidental, Philippines",10.10162,122.86995,PLDT Home Fiber,42725,38787,42.73,38.79,15,48,9,11
"Masbate City, Masbate, Philippines",12.31777,123.55041,PLDT,98724,126258,98.72,126.26,19,48,14,19
"Tacloban City, Leyte, Philippines",11.22238,124.99221,Converge,68931,56537,68.93,56.54,6,48,12,16
"Glan, Sarangani, Philippines",5.82205,125.20413,PLDT Home Fiber,85740,83162,85.74,83.16,11,47,9,11
"Dumaguete City, Negros Oriental, Philippines",9.29841,123.29249,Globe,108386,74269,108.39,74.27,10,47,23,37
"Baliwag, Bulacan, Philippines",14.96569,120.89431,PLDT,97118,88760,97.12,88.76,7,47,22,31
"Floridablanca, Pampanga, Philippines",14.9619,120.49471,Converge,95548,86677,95.55,86.68,4,47,16,23
"Libungan, Cotabato, Philippines",7.31637,124.53068,PLDT Home Fiber,102518,103596,102.52,103.60,11,47,6,10
"Rodriguez, Rizal, Philippines",14.73202,121.14516,PLDT,89750,63046,89.75,63.05,5,47,22,24
"Compostela, Cebu, Philippines",10.45408,124.013,PLDT,102230,162398,102.23,162.40,6,47,13,16
"Masinloc, Zambales, Philippines",15.52089,120.04341,PLDT Home Fiber,12745,13077,12.75,13.08,20,47,5,6
"Alamada, Cotabato, Philippines",7.47945,124.55284,PLDT Home Fiber,280409,179648,280.41,179.65,11,47,8,12
"Butuan City, Agusan Del Norte, Philippines",8.94753,125.54063,PLDT,56843,73173,56.84,73.17,18,47,20,27
"San Rafael, Bulacan, Philippines",15.00184,120.93141,Globe,94565,92693,94.57,92.69,7,47,21,25
"Pili, Camarines Sur, Philippines",13.55521,123.28126,PLDT,18558,12218,18.56,12.22,17,47,17,21
"Igbaras, Iloilo, Philippines",10.74408,122.2427,PLDT,63539,89292,63.54,89.29,9,47,14,17
"Daraga, Albay, Philippines",13.12278,123.69588,PLDT,197145,240009,197.15,240.01,7,47,15,21
"Dipolog City, Zamboanga del Norte, Philippines",8.58717,123.34035,Globe,232661,76966,232.66,76.97,12,47,9,13
"Dumangas, Iloilo, Philippines",10.82109,122.71167,PLDT Home Fiber,83725,66873,83.73,66.87,15,46,12,15
"Los Baños, Laguna, Philippines",14.17731,121.22161,PLDT,107344,118518,107.34,118.52,5,46,15,22
"San Pedro, Laguna, Philippines",14.36443,121.06192,Globe,140941,88692,140.94,88.69,8,46,15,25
"Meycauayan, Bulacan, Philippines",14.73772,120.96077,Converge,96510,83915,96.51,83.92,7,46,19,33
"Malolos, Bulacan, Philippines",14.86049,120.80916,Converge,87633,84123,87.63,84.12,5,46,22,31
"Pili, Camarines Sur, Philippines",13.55521,123.28126,PLDT Home Fiber,57208,88790,57.21,88.79,10,46,13,21
"Santa Ana, Pampanga, Philippines",15.09442,120.76623,PLDT Home Fiber,138022,175539,138.02,175.54,5,46,19,31
"Cauayan City, Isabela, Philippines",16.91662,121.78792,PLDT Home Fiber,143656,153052,143.66,153.05,10,46,11,12
"Pagadian City, Zamboanga del Sur, Philippines",7.86265,123.37106,Globe,63946,58892,63.95,58.89,6,46,23,27
"Pateros, Metro Manila, Philippines",14.54838,121.07077,PLDT,101805,102040,101.81,102.04,3,46,15,23
"Nabua, Camarines Sur, Philippines",13.4069,123.37324,Converge,14465,27717,14.47,27.72,4,46,5,9
"San Miguel, Bulacan, Philippines",15.14158,120.9751,Converge,221035,182441,221.04,182.44,7,45,15,18
"Siniloan, Laguna, Philippines",14.43831,121.48561,PLDT Home Fiber,106221,115179,106.22,115.18,9,45,17,20
"Iligan City, Lanao del Norte, Philippines",8.22707,124.46418,PLDT,43340,69729,43.34,69.73,17,45,23,31
"Muñoz, Nueva Ecija, Philippines",15.70664,120.9029,Converge,150004,158308,150.00,158.31,6,45,13,16
"San Quintin, Pangasinan, Philippines",15.9754,120.83841,PLDT Home Fiber,89934,97381,89.93,97.38,5,45,23,31
"Matanao, Davao del Sur, Philippines",6.70421,125.22584,PLDT Home Fiber,112539,111661,112.54,111.66,9,45,18,32
"Valencia City, Bukidnon, Philippines",7.86319,125.17087,Converge,81539,59929,81.54,59.93,9,45,15,18
"Binmaley, Pangasinan, Philippines",16.02892,120.26882,PLDT Home Fiber,196592,117495,196.59,117.50,12,45,18,27
"Tagbilaran City, Bohol, Philippines",9.6534,123.86703,Globe,102461,105990,102.46,105.99,7,45,18,23
"Pili, Camarines Sur, Philippines",13.55521,123.28126,Converge,112655,46549,112.66,46.55,15,45,12,15
"Panabo City, Davao del Norte, Philippines",7.30822,125.68662,Globe,147440,127922,147.44,127.92,10,45,10,17
"Candaba, Pampanga, Philippines",15.09289,120.8277,Globe,150123,171648,150.12,171.65,6,45,22,27
"Sorsogon City, Sorsogon, Philippines",12.97888,123.98477,PLDT,49263,49349,49.26,49.35,13,45,17,25
"Moalboal, Cebu, Philippines",9.93681,123.42714,PLDT Home Fiber,74130,91635,74.13,91.64,6,45,5,6
"Victoria, Tarlac, Philippines",15.59077,120.68901,PLDT,58953,88968,58.95,88.97,11,45,6,14
"Tagum, Davao del Norte, Philippines",7.44742,125.80246,Converge,154377,166368,154.38,166.37,5,45,12,20
"Barotac Viejo, Iloilo, Philippines",11.10187,122.87613,PLDT,41947,69823,41.95,69.82,11,44,14,18
"El Nido, Palawan, Philippines",11.19892,119.42317,PLDT,119542,147717,119.54,147.72,35,44,8,15
"Malvar, Batangas, Philippines",14.04329,121.15875,PLDT,75948,68763,75.95,68.76,20,44,17,25
"San Fabian, Pangasinan, Philippines",16.14188,120.44729,PLDT,198092,156571,198.09,156.57,5,44,12,18
"Gapan City, Nueva Ecija, Philippines",15.29121,121.01057,Converge,99812,143273,99.81,143.27,7,44,13,18
"Calatrava, Negros Occidental, Philippines",10.62843,123.39349,PLDT Home Fiber,83878,94060,83.88,94.06,15,44,20,30
"Sogod, Southern Leyte, Philippines",10.44929,125.01679,PLDT Home Fiber,195063,146404,195.06,146.40,8,44,6,8
"San Jose, Batangas, Philippines",13.87868,121.09942,PLDT Home Fiber,93583,116882,93.58,116.88,6,44,18,25
"Olongapo City, Zambales, Philippines",14.88739,120.36661,PLDT,194549,111324,194.55,111.32,6,44,17,23
"Ormoc City, Leyte, Philippines",11.03843,124.61927,PLDT Home Fiber,78416,33203,78.42,33.20,5,44,16,20
"Aringay, La Union, Philippines",16.40163,120.40119,PLDT,67572,79388,67.57,79.39,7,44,18,24
"Santiago, Isabela, Philippines",16.69679,121.55865,Globe,123222,103927,123.22,103.93,6,44,7,11
"Santo Tomas, Batangas, Philippines",14.08754,121.17764,Converge,131368,145093,131.37,145.09,7,44,15,24
"Tacloban City, Leyte, Philippines",11.22238,124.99221,Globe,147282,125007,147.28,125.01,10,44,19,26
"Calumpit, Bulacan, Philippines",14.91518,120.7662,Converge,72269,83944,72.27,83.94,5,44,13,17
"Catarman, Northern Samar, Philippines",12.44271,124.61927,PLDT,108564,327426,108.56,327.43,20,43,1,3
"Talavera, Nueva Ecija, Philippines",15.58575,120.9197,Globe,254865,435834,254.87,435.83,6,43,16,19
"Cagayan De Oro City, Misamis Oriental, Philippines",8.48029,124.64975,PLDT,59080,53902,59.08,53.90,11,43,17,32
"Camiling, Tarlac, Philippines",15.67495,120.41272,PLDT Home Fiber,170828,97737,170.83,97.74,12,43,5,8
"Limay, Bataan, Philippines",14.53661,120.56245,PLDT Home Fiber,105059,96938,105.06,96.94,7,43,6,13
"Dagami, Leyte, Philippines",11.04826,124.84034,PLDT,30916,26013,30.92,26.01,20,43,10,16
"General Santos City (Dadiangas), South Cotabato, Philippines",6.14327,125.19286,Converge,188247,187425,188.25,187.43,5,43,21,29
"Pavia, Iloilo, Philippines",10.7748,122.54261,PLDT Home Fiber,107838,117831,107.84,117.83,13,43,19,28
"Minalin, Pampanga, Philippines",14.97052,120.68518,PLDT,68122,26777,68.12,26.78,30,43,12,19
"Danao, Cebu, Philippines",10.52013,124.02712,Converge,164912,152318,164.91,152.32,5,43,7,10
"Brooke's Point, Palawan, Philippines",8.78617,117.83817,PLDT Home Fiber,33462,63487,33.46,63.49,24,42,9,17
"Umingan, Pangasinan, Philippines",15.90396,120.82692,Globe,59104,53765,59.10,53.77,6,42,18,31
"Sibalom, Antique, Philippines",10.76502,122.06102,PLDT Home Fiber,99175,78469,99.18,78.47,15,42,8,10
"Bokod, Benguet, Philippines",16.45641,120.78097,PLDT,241141,190339,241.14,190.34,7,42,19,28
"Subic, Zambales, Philippines",14.83066,120.18202,PLDT Home Fiber,234442,175069,234.44,175.07,7,42,7,10
"General Mariano Alvarez, Cavite, Philippines",14.29525,121.0071,PLDT,160932,146091,160.93,146.09,7,42,20,26
"San Carlos City, Pangasinan, Philippines",15.92589,120.34827,Converge,51205,58710,51.21,58.71,6,42,16,19
"City of Mati, Davao Oriental, Philippines",6.95722,126.15454,PLDT Home Fiber,89368,120659,89.37,120.66,11,41,12,17
"San Gabriel, La Union, Philippines",16.66943,120.50488,PLDT Home Fiber,98032,98680,98.03,98.68,3,41,12,19
"Rizal, Nueva Ecija, Philippines",15.69357,121.10229,PLDT Home Fiber,117085,189143,117.09,189.14,12,41,12,16
"Minglanilla, Cebu, Philippines",10.24543,123.79599,PLDT,156481,245720,156.48,245.72,4,41,16,24
"Obando, Bulacan, Philippines",14.70986,120.93674,PLDT,95080,97662,95.08,97.66,6,41,19,26
"Gingoog City, Misamis Oriental, Philippines",8.81446,125.10406,PLDT Home Fiber,84476,147904,84.48,147.90,6,41,10,14
"Cabuyao City, Laguna, Philippines",14.27433,121.11961,Converge,68200,38767,68.20,38.77,6,41,8,18
"Trece Martires City, Cavite, Philippines",14.28222,120.86837,Converge,219154,148363,219.15,148.36,7,41,14,22
"Dinalupihan, Bataan, Philippines",14.88605,120.44729,PLDT Home Fiber,156695,151826,156.70,151.83,8,41,15,16
"Malaybalay City, Bukidnon, Philippines",8.15775,125.17087,Converge,149107,119368,149.11,119.37,9,41,18,19
"Magpet, Cotabato, Philippines",7.1332,125.17087,Globe,205245,177403,205.25,177.40,4,41,25,31
"Asingan, Pangasinan, Philippines",16.00318,120.67063,PLDT,92037,96199,92.04,96.20,6,40,20,25
"Santo Nino, South Cotabato, Philippines",6.44221,124.67459,PLDT Home Fiber,44910,33285,44.91,33.29,11,40,13,16
"Cordova, Cebu, Philippines",10.25278,123.9494,Globe,185868,136864,185.87,136.86,8,40,14,17
"Gerona, Tarlac, Philippines",15.60489,120.59698,PLDT Home Fiber,94093,82986,94.09,82.99,12,40,18,23
"Lopez, Quezon, Philippines",13.80005,122.31075,PLDT,66721,91085,66.72,91.09,8,40,13,19
"Macabebe, Pampanga, Philippines",14.89732,120.6545,PLDT Home Fiber,97114,94601,97.11,94.60,8,40,18,29
"San Miguel, Bulacan, Philippines",15.14158,120.9751,Globe,348612,291594,348.61,291.59,5,40,13,15
"Mexico, Pampanga, Philippines",15.06457,120.72033,PLDT,55193,34423,55.19,34.42,14,40,18,23
"San Juan, Batangas, Philippines",13.75044,121.37703,PLDT,91467,89037,91.47,89.04,7,40,16,25
"Mangaldan, Pangasinan, Philippines",16.06513,120.40474,PLDT Home Fiber,98630,106077,98.63,106.08,8,39,11,14
"Balanga City, Bataan, Philippines",14.67454,120.47033,Converge,159938,172110,159.94,172.11,6,39,13,21
"Jaen, Nueva Ecija, Philippines",15.39558,120.87286,PLDT,17973,22853,17.97,22.85,12,39,15,23
"Valencia, Negros Oriental, Philippines",9.28494,123.1464,PLDT Home Fiber,125656,221334,125.66,221.33,9,39,12,14
"San Ildefonso, Bulacan, Philippines",15.07717,120.94171,PLDT,43398,46830,43.40,46.83,6,39,11,21
"Tagum, Davao del Norte, Philippines",7.44742,125.80246,PLDT,119434,86866,119.43,86.87,9,39,18,19
"Lupon, Davao Oriental, Philippines",7.09663,126.19798,PLDT Home Fiber,148162,80179,148.16,80.18,10,39,13,14
"Arakan, Cotabato, Philippines",7.35122,125.17087,Globe,135107,183331,135.11,183.33,3,39,13,15
"City of Baybay, Leyte, Philippines",10.66858,124.80409,Globe,49808,40821,49.81,40.82,22,39,14,16
"Damulog, Bukidnon, Philippines",7.4602,124.97271,PLDT Home Fiber,77488,93178,77.49,93.18,15,39,7,9
"Paombong, Bulacan, Philippines",14.83781,120.78406,PLDT,48668,47472,48.67,47.47,7,39,12,16
"Masantol, Pampanga, Philippines",14.85669,120.68326,PLDT Home Fiber,33103,4267,33.10,4.27,9,39,1,6
"Daraga, Albay, Philippines",13.12278,123.69588,Converge,64236,62640,64.24,62.64,17,39,17,22
"Surigao, Surigao del Norte, Philippines",9.79022,125.49311,PLDT Home Fiber,90786,104581,90.79,104.58,9,38,15,20
"Atimonan, Quezon, Philippines",13.96507,121.87903,PLDT Home Fiber,47899,45622,47.90,45.62,9,38,12,16
"Nueva Valencia, Guimaras, Philippines",10.46356,122.54859,PLDT Home Fiber,110264,114931,110.26,114.93,15,38,11,14
"Alilem, Ilocos Sur, Philippines",16.9074,120.59698,PLDT Home Fiber,93806,100939,93.81,100.94,4,38,17,24
"Norzagaray, Bulacan, Philippines",14.89659,121.14813,PLDT Home Fiber,165481,185873,165.48,185.87,9,38,18,20
"Bocaue, Bulacan, Philippines",14.7943,120.93073,Converge,117788,109218,117.79,109.22,7,38,16,18
"Urdaneta City, Pangasinan, Philippines",15.98194,120.59698,PLDT Home Fiber,36998,47433,37.00,47.43,11,37,16,19
"Nasugbu, Batangas, Philippines",14.09404,120.68901,PLDT Home Fiber,199350,254037,199.35,254.04,9,37,14,19
"Nabua, Camarines Sur, Philippines",13.4069,123.37324,PLDT Home Fiber,22814,30092,22.81,30.09,9,37,13,16
"San Miguel, Bulacan, Philippines",15.14158,120.9751,PLDT Home Fiber,89229,58180,89.23,58.18,11,37,13,22
"Zamboanga City, Zamboanga del Sur, Philippines",6.90437,122.07612,Converge,117672,153333,117.67,153.33,13,37,19,26
"Mabini (Dona Alicia), Davao de Oro, Philippines",7.3001,125.937,PLDT Home Fiber,14981,9367,14.98,9.37,86,37,5,5
"Koronadal, South Cotabato, Philippines",6.50044,124.84333,PLDT,37438,30443,37.44,30.44,11,37,7,10
"Jala-jala, Rizal, Philippines",14.36149,121.34273,PLDT Home Fiber,144909,143290,144.91,143.29,9,37,8,9
"Calasiao, Pangasinan, Philippines",16.00949,120.35759,PLDT Home Fiber,59412,53740,59.41,53.74,7,37,13,22
"Sogod, Cebu, Philippines",10.77419,123.9527,PLDT Home Fiber,43228,41155,43.23,41.16,7,36,3,5
"Cabugao, Ilocos Sur, Philippines",17.78518,120.47033,PLDT Home Fiber,178581,105640,178.58,105.64,11,36,6,7
"Cotabato City, Maguindanao, Philippines",7.20467,124.23104,PLDT Home Fiber,197522,168083,197.52,168.08,11,36,16,24
"Laoag City, Ilocos Norte, Philippines",18.21075,120.58547,PLDT Home Fiber,203727,189391,203.73,189.39,6,36,11,19
"Dinalupihan, Bataan, Philippines",14.88605,120.44729,PLDT,34512,33825,34.51,33.83,15,36,9,13
"Natividad, Pangasinan, Philippines",16.03821,120.83841,PLDT,94036,94436,94.04,94.44,5,36,11,22
"Polomolok, South Cotabato, Philippines",6.22451,125.06084,Converge,271378,313250,271.38,313.25,5,36,6,8
"Tagbilaran City, Bohol, Philippines",9.6534,123.86703,Converge,224871,94111,224.87,94.11,22,36,8,14
"Marawi City, Lanao del Sur, Philippines",8.0292,124.29772,PLDT,50883,80563,50.88,80.56,15,36,11,20
"Carcar, Cebu, Philippines",10.10478,123.64147,PLDT Home Fiber,33888,27070,33.89,27.07,4,36,17,22
"Padre Burgos, Quezon, Philippines",13.91629,121.81546,PLDT Home Fiber,184780,159625,184.78,159.63,8,35,10,19
"Kawit, Cavite, Philippines",14.44588,120.90871,Converge,292341,251114,292.34,251.11,6,35,7,19
"Dapitan City, Zamboanga del Norte, Philippines",8.58118,123.42714,PLDT Home Fiber,73631,93708,73.63,93.71,10,35,9,16
"Mauban, Quezon, Philippines",14.23756,121.69674,PLDT Home Fiber,204213,184704,204.21,184.70,10,35,17,24
"Kiamba, Sarangani, Philippines",6.00076,124.70777,PLDT,15716,15391,15.72,15.39,16,35,11,16
"Mabinay, Negros Oriental, Philippines",9.67161,122.94377,PLDT,72667,72318,72.67,72.32,9,35,15,19
"Marawi City, Lanao del Sur, Philippines",8.0292,124.29772,Globe,26123,27118,26.12,27.12,9,35,7,11
"Binangonan, Rizal, Philippines",14.48441,121.1869,Globe,152071,155576,152.07,155.58,4,35,13,18
"Cavite, Philippines",14.48151,120.90833,PLDT Home Fiber,79652,93202,79.65,93.20,3,35,11,21
"Kalibo, Aklan, Philippines",11.70734,122.36986,Globe,131049,121323,131.05,121.32,16,35,18,22
"New Corella, Davao del Norte, Philippines",7.59777,125.84981,PLDT Home Fiber,80735,61825,80.74,61.83,9,35,11,16
"City of Mati, Davao Oriental, Philippines",6.95722,126.15454,Globe,119392,92754,119.39,92.75,17,34,10,13
"Villasis, Pangasinan, Philippines",15.90523,120.55094,PLDT Home Fiber,52093,78382,52.09,78.38,6,34,10,16
"San Leonardo, Nueva Ecija, Philippines",15.37285,120.95321,PLDT Home Fiber,54501,46849,54.50,46.85,13,34,14,26
"Solana, Cagayan, Philippines",17.65284,121.65113,PLDT,45055,53771,45.06,53.77,12,34,5,9
"Victoria, Oriental Mindoro, Philippines",13.15599,121.23974,PLDT Home Fiber,123745,112295,123.75,112.30,7,34,3,5
"Bais City, Negros Oriental, Philippines",9.56801,123.01136,PLDT Home Fiber,88234,115774,88.23,115.77,8,34,6,8
"Pililla, Rizal, Philippines",14.44393,121.34273,PLDT,187233,206748,187.23,206.75,3,34,17,21
"Cotabato City, Maguindanao, Philippines",7.20467,124.23104,PLDT,54690,53168,54.69,53.17,16,34,10,16
"Canaman, Camarines Sur, Philippines",13.64758,123.13515,Converge,83785,82349,83.79,82.35,16,34,7,11
"Toledo, Cebu, Philippines",10.38705,123.65017,PLDT,26837,29577,26.84,29.58,30,34,10,12
"Medellin, Cebu, Philippines",11.1491,123.98615,PLDT Home Fiber,248193,285675,248.19,285.68,5,34,4,6
"Amadeo, Cavite, Philippines",14.18985,120.92452,PLDT,222836,268116,222.84,268.12,9,34,17,21
"Malasiqui, Pangasinan, Philippines",15.92028,120.41443,PLDT,135004,122887,135.00,122.89,4,34,12,14
"Manapla, Negros Occidental, Philippines",10.95795,123.12428,PLDT Home Fiber,162825,185589,162.83,185.59,13,33,10,12
"Balanga City, Bataan, Philippines",14.67454,120.47033,Globe,86559,87626,86.56,87.63,9,33,10,14
"Calbayog, Samar, Philippines",12.0685,124.59081,PLDT,132803,151770,132.80,151.77,24,33,8,12
"Urdaneta City, Pangasinan, Philippines",15.98194,120.59698,PLDT,73022,76871,73.02,76.87,5,33,10,14
"Guiguinto, Bulacan, Philippines",14.82832,120.88429,Converge,104842,122357,104.84,122.36,7,33,16,22
"Majayjay, Laguna, Philippines",14.14491,121.46983,PLDT,164319,265639,164.32,265.64,25,33,12,19
"San Enrique, Negros Occidental, Philippines",10.42735,122.86485,PLDT,30505,28285,30.51,28.29,23,33,9,12
"Labo, Camarines Norte, Philippines",14.13903,122.7633,Converge,73056,94410,73.06,94.41,11,33,8,12
"Paniqui, Tarlac, Philippines",15.66603,120.53942,PLDT Home Fiber,105972,169834,105.97,169.83,11,33,10,19
"Tiaong, Quezon, Philippines",13.92962,121.34273,PLDT Home Fiber,94483,97839,94.48,97.84,4,33,10,14
"Datu Montawal (Pagagawan), Maguindanao, Philippines",7.10469,124.76303,PLDT Home Fiber,93385,92884,93.39,92.88,12,33,8,14
"Goa, Camarines Sur, Philippines",13.73619,123.41593,PLDT Home Fiber,33181,33084,33.18,33.08,11,33,9,15
"Binangonan, Rizal, Philippines",14.48441,121.1869,Converge,95762,136127,95.76,136.13,3,33,13,15
"Monkayo, Davao de Oro, Philippines",7.82426,126.0537,PLDT Home Fiber,71683,88747,71.68,88.75,14,32,6,7
"San Andres, Catanduanes, Philippines",13.6332,124.08641,PLDT,24729,18837,24.73,18.84,13,32,7,7
"Bugallon, Pangasinan, Philippines",15.92022,120.18202,Converge,299598,373922,299.60,373.92,6,32,4,8
"Gonzaga, Cagayan, Philippines",18.24148,122.10647,PLDT,50131,31070,50.13,31.07,15,32,3,3
"Tacloban City, Leyte, Philippines",11.22238,124.99221,PLDT Home Fiber,206017,199644,206.02,199.64,17,32,14,16
"Plaridel, Bulacan, Philippines",14.88591,120.85932,Converge,163857,259124,163.86,259.12,6,32,10,20
"Baliwag, Bulacan, Philippines",14.96569,120.89431,Globe,88289,93396,88.29,93.40,8,32,9,19
"San Jose, Occidental Mindoro, Philippines",12.40119,121.10229,Converge,77778,79820,77.78,79.82,8,32,7,12
"City of Catbalogan, Samar, Philippines",11.85683,124.88449,Globe,90008,77414,90.01,77.41,10,32,15,23
"Salvador Benedicto, Negros Occidental, Philippines",10.5887,123.23632,Converge,72200,44622,72.20,44.62,20,32,4,4
"Bay, Laguna, Philippines",14.14064,121.26836,Converge,149925,66643,149.93,66.64,7,32,5,7
"Pagalungan, Maguindanao, Philippines",6.93298,124.75198,PLDT Home Fiber,94566,100967,94.57,100.97,9,32,13,14
"Aritao, Nueva Vizcaya, Philippines",16.2515,121.01057,PLDT,314423,126318,314.42,126.32,2,32,11,18
"Tabuelan, Cebu, Philippines",10.85738,123.90809,PLDT,157219,150775,157.22,150.78,26,32,2,3
"Delfin Albano, Isabela, Philippines",17.25925,121.74234,PLDT Home Fiber,79697,109594,79.70,109.59,14,31,6,8
"Mexico, Pampanga, Philippines",15.06457,120.72033,Globe,195145,198658,195.15,198.66,7,31,15,18
"Escalante City, Negros Occidental, Philippines",10.84117,123.49908,PLDT,85223,58082,85.22,58.08,10,31,13,20
"Tanauan City, Batangas, Philippines",14.08354,121.14762,Converge,198206,183347,198.21,183.35,8,31,14,21
"Norzagaray, Bulacan, Philippines",14.89659,121.14813,Converge,153305,142316,153.31,142.32,7,31,13,19
"San Luis, Pampanga, Philippines",15.03986,120.81544,PLDT,493063,457082,493.06,457.08,4,31,6,9
"Bilar, Bohol, Philippines",9.71375,124.13094,PLDT,163423,192246,163.42,192.25,9,31,14,14
"Apalit, Pampanga, Philippines",14.95255,120.76688,Converge,152053,109127,152.05,109.13,5,31,5,6
"General Mariano Alvarez, Cavite, Philippines",14.29525,121.0071,PLDT Home Fiber,86401,92639,86.40,92.64,7,31,15,18
"Ragay, Camarines Sur, Philippines",13.83123,122.78588,PLDT Home Fiber,8739,43588,8.74,43.59,15,31,6,6
"San Isidro, Nueva Ecija, Philippines",15.29656,120.9073,PLDT Home Fiber,72038,85913,72.04,85.91,11,31,17,23
"Dagupan City, Pangasinan, Philippines",16.03375,120.33202,PLDT,36294,28401,36.29,28.40,9,31,11,17
"Pagadian City, Zamboanga del Sur, Philippines",7.86265,123.37106,PLDT Home Fiber,93992,123972,93.99,123.97,5,31,19,24
"Tubungan, Iloilo, Philippines",10.80645,122.29941,PLDT,53346,58653,53.35,58.65,12,31,11,15
"San Dionisio, Iloilo, Philippines",11.32418,123.06765,PLDT,88724,55729,88.72,55.73,13,31,9,13
"Victorias, Negros Occidental, Philippines",10.901,123.07045,PLDT Home Fiber,56788,144542,56.79,144.54,14,31,10,18
"Lingayen, Pangasinan, Philippines",16.00973,120.22449,Globe,195499,169209,195.50,169.21,6,31,5,8
"San Jose, Tarlac, Philippines",15.42002,120.29742,Converge,88932,43888,88.93,43.89,10,31,8,14
"Atok, Benguet, Philippines",16.59745,120.68901,PLDT Home Fiber,137967,309792,137.97,309.79,6,31,4,8
"City of Cabadbaran, Agusan Del Norte, Philippines",9.14092,125.697,PLDT Home Fiber,38076,37567,38.08,37.57,11,31,5,9
"Pontevedra, Negros Occidental, Philippines",10.35266,122.92123,PLDT Home Fiber,86958,91436,86.96,91.44,17,31,12,15
"Upi, Maguindanao, Philippines",6.997,124.19769,PLDT,32289,30892,32.29,30.89,37,30,3,3
"Orion, Bataan, Philippines",14.61604,120.56431,Converge,78331,186965,78.33,186.97,12,30,3,6
"San Simon, Pampanga, Philippines",14.98432,120.75127,Converge,192076,183762,192.08,183.76,2,30,19,20
"Cordon, Isabela, Philippines",16.67835,121.46847,PLDT Home Fiber,24221,25293,24.22,25.29,18,30,8,13
"Concepcion, Tarlac, Philippines",15.324,120.65596,Globe,292626,301101,292.63,301.10,3,30,11,14
"Oton, Iloilo, Philippines",10.69251,122.47868,Globe,141207,74957,141.21,74.96,5,30,11,14
"Lala, Lanao del Norte, Philippines",7.9486,123.76295,PLDT Home Fiber,49657,24414,49.66,24.41,9,30,4,4
"Koronadal, South Cotabato, Philippines",6.50044,124.84333,Globe,263883,209262,263.88,209.26,6,30,9,12
"Quezon, Bukidnon, Philippines",7.71645,125.17087,PLDT Home Fiber,42152,47957,42.15,47.96,11,30,8,10
"Valencia City, Bukidnon, Philippines",7.86319,125.17087,PLDT Home Fiber,106931,98202,106.93,98.20,4,30,13,19
"Pantukan, Davao de Oro, Philippines",7.20012,126.04584,PLDT Home Fiber,18246,93352,18.25,93.35,9,30,6,13
"Sultan Kudarat (Nuling), Maguindanao, Philippines",7.26221,124.30883,PLDT Home Fiber,18837,18301,18.84,18.30,12,30,7,11
"Kidapawan, Cotabato, Philippines",7.02127,125.09019,Converge,93207,175215,93.21,175.22,5,30,14,19
"Tanjay City, Negros Oriental, Philippines",9.49579,122.9663,PLDT Home Fiber,95105,141563,95.11,141.56,6,30,12,15
"Bangued, Abra, Philippines",17.58818,120.63149,Globe,286322,422861,286.32,422.86,7,29,5,6
"San Francisco (Aurora), Quezon, Philippines",13.29776,122.5599,Converge,340040,77910,340.04,77.91,12,29,4,5
"San Manuel, Pangasinan, Philippines",16.10561,120.67751,Converge,259466,271729,259.47,271.73,4,29,1,3
"Santo Tomas, Batangas, Philippines",14.08754,121.17764,Globe,118175,120990,118.18,120.99,9,29,10,14
"Santa Barbara, Iloilo, Philippines",10.82707,122.53265,PLDT Home Fiber,116566,123588,116.57,123.59,13,29,6,8
"Rosario, Cavite, Philippines",14.41672,120.85471,PLDT,106960,108381,106.96,108.38,7,29,10,13
"Tanay, Rizal, Philippines",14.61419,121.37703,PLDT Home Fiber,136751,117176,136.75,117.18,3,29,14,16
"San Fernando City, La Union, Philippines",16.61592,120.32102,PLDT,88736,91250,88.74,91.25,3,29,16,21
"Pili, Camarines Sur, Philippines",13.55521,123.28126,Globe,119167,106598,119.17,106.60,13,29,7,9
"City of Santa Rosa, Laguna, Philippines",14.31471,121.11232,Globe,160810,186708,160.81,186.71,6,29,15,21
"Carmen, Davao del Norte, Philippines",7.35492,125.704,PLDT Home Fiber,157233,93815,157.23,93.82,7,29,9,13
"City of Borongan, Eastern Samar, Philippines",11.61739,125.34663,PLDT Home Fiber,126215,106359,126.22,106.36,8,29,3,7
"Aloran, Misamis Occidental, Philippines",8.41606,123.82447,PLDT,32839,43269,32.84,43.27,26,29,7,7
"Silay, Negros Occidental, Philippines",10.79968,122.97605,PLDT,99637,138057,99.64,138.06,25,29,16,21
"Carcar, Cebu, Philippines",10.10478,123.64147,PLDT,38566,38410,38.57,38.41,21,29,7,9
"Bombon, Camarines Sur, Philippines",13.68199,123.20823,PLDT Home Fiber,109113,170064,109.11,170.06,8,29,2,3
"Paracale, Camarines Norte, Philippines",14.23721,122.78588,PLDT Home Fiber,169320,175199,169.32,175.20,7,29,9,14
"Tapaz, Capiz, Philippines",11.28689,122.49201,PLDT,52747,54902,52.75,54.90,16,29,16,17
"Mayantoc, Tarlac, Philippines",15.5632,120.32049,PLDT,95273,133885,95.27,133.89,8,29,4,8
"Magalang, Pampanga, Philippines",15.21394,120.66181,Converge,72741,82936,72.74,82.94,4,29,11,16
"Kabacan, Cotabato, Philippines",7.10719,124.84034,PLDT Home Fiber,61168,36655,61.17,36.66,11,28,7,8
"Bayombong, Nueva Vizcaya, Philippines",16.48042,121.14813,PLDT,101201,140034,101.20,140.03,6,28,8,15
"Balamban, Cebu, Philippines",10.48585,123.77412,PLDT,105420,109141,105.42,109.14,5,28,6,12
"Gumaca, Quezon, Philippines",13.89105,122.10647,PLDT,103493,155150,103.49,155.15,6,28,11,17
"Compostela, Cebu, Philippines",10.45408,124.013,PLDT Home Fiber,98036,133984,98.04,133.98,8,28,14,19
"Kabankalan City, Negros Occidental, Philippines",9.91341,122.85358,PLDT,57600,86717,57.60,86.72,10,28,11,16
"Los Baños, Laguna, Philippines",14.17731,121.22161,Converge,290367,368204,290.37,368.20,6,28,6,15
"Roxas, Isabela, Philippines",17.12035,121.61915,PLDT Home Fiber,30478,33980,30.48,33.98,14,28,9,13
"Anao, Tarlac, Philippines",15.7435,120.61424,PLDT,19058,40122,19.06,40.12,14,28,16,22
"Alaminos City, Pangasinan, Philippines",16.15053,119.98562,PLDT Home Fiber,94225,95272,94.23,95.27,11,28,9,15
"General Mariano Alvarez, Cavite, Philippines",14.29525,121.0071,Converge,296716,211467,296.72,211.47,7,28,7,14
"Floridablanca, Pampanga, Philippines",14.9619,120.49471,PLDT,67532,72202,67.53,72.20,13,28,10,13
"Leon B. Postigo (Bacungan), Zamboanga del Norte, Philippines",8.06985,122.94377,PLDT Home Fiber,11433,93437,11.43,93.44,45,28,2,2
"La Trinidad, Benguet, Philippines",16.44844,120.59047,PLDT,70912,68462,70.91,68.46,6,27,11,16
"Calapan City, Oriental Mindoro, Philippines",13.36643,121.19395,PLDT,61593,80483,61.59,80.48,14,27,19,21
"Guiguinto, Bulacan, Philippines",14.82832,120.88429,PLDT,185343,188223,185.34,188.22,5,27,11,18
"San Luis, Batangas, Philippines",13.8406,120.95321,Globe,59634,52927,59.63,52.93,6,27,11,19
"San Isidro, Davao Oriental, Philippines",6.78235,126.11108,PLDT Home Fiber,21490,10489,21.49,10.49,16,27,3,5
"Zaragoza, Nueva Ecija, Philippines",15.46003,120.79246,Globe,345087,261436,345.09,261.44,4,27,12,23
"Tigaon, Camarines Sur, Philippines",13.61703,123.47198,Converge,90271,77040,90.27,77.04,15,27,3,7
"Jaen, Nueva Ecija, Philippines",15.39558,120.87286,PLDT Home Fiber,166980,68149,166.98,68.15,13,27,14,20
"Atok, Benguet, Philippines",16.59745,120.68901,Converge,49869,39365,49.87,39.37,6,27,2,2
"Angat, Bulacan, Philippines",14.92586,121.02204,PLDT Home Fiber,105896,169219,105.90,169.22,8,27,11,13
"Makilala, Cotabato, Philippines",6.92343,125.08286,PLDT Home Fiber,111202,182469,111.20,182.47,11,27,11,16
"San Mateo, Isabela, Philippines",16.87673,121.59408,PLDT Home Fiber,75460,61194,75.46,61.19,11,27,8,14
"Alaminos, Laguna, Philippines",14.0454,121.25119,PLDT Home Fiber,104497,186766,104.50,186.77,10,27,8,14
"Carles, Iloilo, Philippines",11.55216,123.13515,PLDT,14636,24844,14.64,24.84,12,27,5,5
"San Jose, Camarines Sur, Philippines",13.68724,123.53921,PLDT,9626,9524,9.63,9.52,37,27,3,5
"Baliwag, Bulacan, Philippines",14.96569,120.89431,Converge,222784,263337,222.78,263.34,6,27,14,18
"Moncada, Tarlac, Philippines",15.73756,120.55094,PLDT Home Fiber,162784,179267,162.78,179.27,12,27,5,10
"Ipil, Zamboanga Sibugay, Philippines",7.77318,122.57121,PLDT,215135,245827,215.14,245.83,19,27,7,10
"Tubigon, Bohol, Philippines",9.9145,123.96385,PLDT Home Fiber,89335,174554,89.34,174.55,6,27,7,8
"Tabaco City, Albay, Philippines",13.36138,123.72876,Converge,203399,145741,203.40,145.74,4,27,8,14
"Ramon, Isabela, Philippines",16.8047,121.52558,PLDT Home Fiber,60502,93634,60.50,93.63,12,27,5,9
"Malita, Davao Occidental, Philippines",6.41184,125.61321,PLDT Home Fiber,10102,30819,10.10,30.82,13,27,3,3
"Naujan, Oriental Mindoro, Philippines",13.24381,121.19395,PLDT Home Fiber,176110,123854,176.11,123.85,4,27,7,9
"Hermosa, Bataan, Philippines",14.83566,120.47709,PLDT Home Fiber,106523,189361,106.52,189.36,7,27,11,18
"Catarman, Northern Samar, Philippines",12.44271,124.61927,Globe,97832,103808,97.83,103.81,12,27,11,17
"Moalboal, Cebu, Philippines",9.93681,123.42714,Globe,53780,55461,53.78,55.46,16,26,6,16
"Samal, Davao del Norte, Philippines",7.08352,125.70578,PLDT Home Fiber,93882,86600,93.88,86.60,9,26,7,13
"Manaoag, Pangasinan, Philippines",16.04627,120.4876,PLDT,224339,212186,224.34,212.19,8,26,2,5
"Dolores, Quezon, Philippines",14.00193,121.41133,PLDT Home Fiber,93717,186909,93.72,186.91,3,26,10,19
"Lumban, Laguna, Philippines",14.29353,121.52558,PLDT,329832,289126,329.83,289.13,18,26,14,21
"Opol, Misamis Oriental, Philippines",8.52263,124.57239,Globe,59047,90954,59.05,90.95,10,26,5,6
"Zamboanguita, Negros Oriental, Philippines",9.13189,123.1464,PLDT Home Fiber,251811,299119,251.81,299.12,10,26,5,8
"Ibaan, Batangas, Philippines",13.81895,121.13082,PLDT Home Fiber,72583,98813,72.58,98.81,4,26,11,13
"New Washington, Aklan, Philippines",11.6466,122.39009,PLDT Home Fiber,1814,6464,1.81,6.46,28,26,1,3
"Aliaga, Nueva Ecija, Philippines",15.51204,120.86138,Globe,267339,182037,267.34,182.04,4,26,10,19
"Solano, Nueva Vizcaya, Philippines",16.51774,121.18012,Globe,205585,183577,205.59,183.58,13,26,7,11
"Esperanza, Sultan Kudarat, Philippines",6.70074,124.48636,PLDT Home Fiber,88464,34753,88.46,34.75,13,26,9,10
"Maco, Davao de Oro, Philippines",7.40845,125.937,Globe,135127,132558,135.13,132.56,16,26,14,17
"San Francisco, Agusan del Sur, Philippines",8.44573,125.95878,PLDT Home Fiber,106656,128886,106.66,128.89,6,26,12,16
"Alcala, Cagayan, Philippines",17.90497,121.65113,Converge,289482,291508,289.48,291.51,12,26,12,21
"Gasan, Marinduque, Philippines",13.32138,121.89041,PLDT Home Fiber,151435,232009,151.44,232.01,7,26,5,6
"Talibon, Bohol, Philippines",10.11933,124.26439,PLDT,37104,38765,37.10,38.77,77,26,2,4
"Passi City, Iloilo, Philippines",11.1688,122.65035,PLDT,43163,37839,43.16,37.84,11,26,8,15
"Lubao, Pampanga, Philippines",14.92678,120.58795,PLDT,148522,62651,148.52,62.65,12,26,5,7
"Santa Cruz, Laguna, Philippines",14.26911,121.41133,PLDT,49242,77122,49.24,77.12,13,26,7,13
"Burauen, Leyte, Philippines",10.97109,124.84034,PLDT Home Fiber,72300,93013,72.30,93.01,17,26,11,17
"Silay, Negros Occidental, Philippines",10.79968,122.97605,Converge,238034,221788,238.03,221.79,17,26,10,17
"Pakil, Laguna, Philippines",14.3694,121.39418,Converge,285324,339265,285.32,339.27,11,25,6,8
"Tupi, South Cotabato, Philippines",6.33849,124.97271,PLDT Home Fiber,94475,97901,94.48,97.90,11,25,6,11
"Bago, Negros Occidental, Philippines",10.53757,122.83609,PLDT,17864,29333,17.86,29.33,10,25,8,14
"San Carlos City, Pangasinan, Philippines",15.92589,120.34827,PLDT,306619,207197,306.62,207.20,5,25,8,11
"Dauis, Bohol, Philippines",9.60401,123.82996,PLDT Home Fiber,112258,152170,112.26,152.17,11,25,11,15
"Infanta, Quezon, Philippines",14.74071,121.6451,PLDT Home Fiber,173736,152751,173.74,152.75,10,25,12,16
"Camalig, Albay, Philippines",13.14101,123.63996,Converge,81049,33070,81.05,33.07,19,25,14,17
"Dona Remedios Trinidad, Bulacan, Philippines",15.11427,121.21685,PLDT Home Fiber,103091,48227,103.09,48.23,4,25,14,17
"Alicia, Isabela, Philippines",16.80691,121.69674,PLDT Home Fiber,60173,79452,60.17,79.45,12,25,6,11
"Oton, Iloilo, Philippines",10.69251,122.47868,Converge,195472,140214,195.47,140.21,17,25,12,17
"Maasin, Southern Leyte, Philippines",10.13272,124.84081,Globe,132908,96832,132.91,96.83,23,25,9,13
"Bauang, La Union, Philippines",16.51433,120.35508,PLDT Home Fiber,96588,61518,96.59,61.52,3,25,8,11
"Pandi, Bulacan, Philippines",14.87572,120.95941,PLDT,92810,102184,92.81,102.18,11,25,12,17
"Kumalarang, Zamboanga del Sur, Philippines",7.7703,123.1464,PLDT Home Fiber,381558,238086,381.56,238.09,9,25,2,5
"San Marcelino, Zambales, Philippines",15.02605,120.27435,Converge,58798,53426,58.80,53.43,4,25,5,5
"Lupao, Nueva Ecija, Philippines",15.84768,120.91878,Converge,101825,126189,101.83,126.19,6,25,5,9
"Bogo City, Cebu, Philippines",11.04623,124.00287,Globe,185018,160988,185.02,160.99,6,25,8,10
"Pio Duran, Albay, Philippines",13.0473,123.46077,Converge,95052,15518,95.05,15.52,19,25,5,8
"Baclayon, Bohol, Philippines",9.63237,123.91925,PLDT,39609,94076,39.61,94.08,18,25,7,10
"Ipil, Zamboanga Sibugay, Philippines",7.77318,122.57121,PLDT Home Fiber,120512,163763,120.51,163.76,19,25,8,14
"Bacolor, Pampanga, Philippines",14.99692,120.65235,Converge,102521,97862,102.52,97.86,4,25,11,20
"Arakan, Cotabato, Philippines",7.35122,125.17087,PLDT Home Fiber,76142,74760,76.14,74.76,8,25,11,14
"Kalibo, Aklan, Philippines",11.70734,122.36986,PLDT Home Fiber,90395,95507,90.40,95.51,18,25,5,8
"Lemery, Iloilo, Philippines",11.21441,122.92123,Converge,1954,1813,1.95,1.81,31,25,1,4
"Llanera, Nueva Ecija, Philippines",15.66623,121.01057,PLDT,75735,24535,75.74,24.54,19,25,7,11
"San Felipe, Zambales, Philippines",15.07931,120.12429,PLDT Home Fiber,207869,183452,207.87,183.45,18,25,6,8
"Dapitan City, Zamboanga del Norte, Philippines",8.58118,123.42714,PLDT,94159,34853,94.16,34.85,6,25,13,19
"El Nido, Palawan, Philippines",11.19892,119.42317,Globe,172189,161021,172.19,161.02,14,25,11,12
"Mallig, Isabela, Philippines",17.15803,121.61307,Converge,18173,18503,18.17,18.50,10,25,1,2
"Bakun, Benguet, Philippines",16.80796,120.68901,PLDT Home Fiber,95810,120894,95.81,120.89,7,25,6,14
"Real, Quezon, Philippines",14.54569,121.55983,Converge,139303,203175,139.30,203.18,7,24,7,9
"San Mateo, Rizal, Philippines",14.69539,121.11767,PLDT,206237,208995,206.24,209.00,5,24,9,13
"Javier, Leyte, Philippines",10.76718,124.92861,PLDT,46059,48972,46.06,48.97,42,24,8,9
"Makilala, Cotabato, Philippines",6.92343,125.08286,Converge,19136,21368,19.14,21.37,3,24,4,7
"Victorias, Negros Occidental, Philippines",10.901,123.07045,PLDT,56390,58627,56.39,58.63,14,24,11,13
"Badian, Cebu, Philippines",9.83209,123.41593,PLDT Home Fiber,159104,245991,159.10,245.99,8,24,5,7
"Butig, Lanao del Sur, Philippines",7.69371,124.31993,PLDT,90276,70250,90.28,70.25,43,24,6,12
"Santa Catalina, Negros Oriental, Philippines",9.28676,122.94377,PLDT,28644,27233,28.64,27.23,11,24,6,6
"Bagabag, Nueva Vizcaya, Philippines",16.58337,121.28552,PLDT Home Fiber,197632,262935,197.63,262.94,11,24,6,10
"Tacurong City, Sultan Kudarat, Philippines",6.6866,124.66353,Globe,120652,144737,120.65,144.74,6,24,6,9
"Talitay, Maguindanao, Philippines",7.04528,124.38654,PLDT,87093,81232,87.09,81.23,11,24,13,15
"T'boli, South Cotabato, Philippines",6.14683,124.90655,PLDT Home Fiber,97852,40708,97.85,40.71,10,24,6,9
"Indang, Cavite, Philippines",14.19204,120.87286,PLDT,204867,189756,204.87,189.76,8,24,14,18
"Ormoc City, Leyte, Philippines",11.03843,124.61927,Converge,58352,78683,58.35,78.68,5,24,10,16
"Bagac, Bataan, Philippines",14.63082,120.41272,PLDT,94421,94360,94.42,94.36,5,24,6,10
"Guimbal, Iloilo, Philippines",10.66341,122.32057,PLDT Home Fiber,261255,195742,261.26,195.74,13,24,2,3
"Victoria, Tarlac, Philippines",15.59077,120.68901,PLDT Home Fiber,193375,186620,193.38,186.62,14,24,8,14
"Iriga City, Camarines Sur, Philippines",13.42095,123.41361,PLDT,93549,72821,93.55,72.82,10,24,15,17
"Abucay, Bataan, Philippines",14.73361,120.49336,PLDT,25750,41308,25.75,41.31,8,24,9,11
"Bantayan, Cebu, Philippines",11.18041,123.7406,PLDT,19094,29604,19.09,29.60,10,24,8,10
"Talisay, Batangas, Philippines",14.11598,121.04498,Globe,82100,92268,82.10,92.27,8,24,13,20
"San Jose, Batangas, Philippines",13.87868,121.09942,PLDT,164825,185769,164.83,185.77,8,24,10,14
"Sorsogon City, Sorsogon, Philippines",12.97888,123.98477,Converge,92502,112394,92.50,112.39,17,24,9,12
"Jordan, Guimaras, Philippines",10.59807,122.57121,PLDT Home Fiber,510458,566656,510.46,566.66,10,23,2,8
"Santa Cruz, Zambales, Philippines",15.77308,120.04341,Converge,108193,132031,108.19,132.03,6,23,8,10
"Alangalang, Leyte, Philippines",11.23565,124.88449,PLDT,80877,90825,80.88,90.83,15,23,9,12
"Penaranda, Nueva Ecija, Philippines",15.36229,121.02204,PLDT Home Fiber,155239,143835,155.24,143.84,6,23,5,13
"South Upi, Maguindanao, Philippines",6.85103,124.19769,PLDT,79402,80820,79.40,80.82,20,23,5,6
"Malilipot, Albay, Philippines",13.29931,123.71824,PLDT,199089,238342,199.09,238.34,5,23,6,12
"Liloy, Zamboanga del Norte, Philippines",8.07325,122.69555,PLDT,73260,72050,73.26,72.05,20,23,4,7
"Vigan City, Ilocos Sur, Philippines",17.56485,120.38781,PLDT,56009,58428,56.01,58.43,10,23,9,14
"Santa Rita, Pampanga, Philippines",14.99762,120.61451,Converge,187492,226332,187.49,226.33,4,23,8,10
"City of Batac, Ilocos Norte, Philippines",18.04961,120.59698,PLDT Home Fiber,206728,190802,206.73,190.80,6,23,6,9
"Arakan, Cotabato, Philippines",7.35122,125.17087,PLDT,13057,43567,13.06,43.57,17,23,5,6
"Minglanilla, Cebu, Philippines",10.24543,123.79599,Globe,71813,69803,71.81,69.80,9,23,13,13
"Esperanza, Agusan del Sur, Philippines",8.6396,125.522,PLDT Home Fiber,99043,96879,99.04,96.88,21,23,6,12
"Santa Magdalena, Sorsogon, Philippines",12.64979,124.07528,PLDT,108586,110375,108.59,110.38,21,23,7,11
"Cotabato City, Maguindanao, Philippines",7.20467,124.23104,Globe,118870,70743,118.87,70.74,12,23,9,11
"Santa Barbara, Iloilo, Philippines",10.82707,122.53265,Converge,235690,173197,235.69,173.20,14,23,4,5
"Balasan, Iloilo, Philippines",11.45927,123.09015,PLDT,62720,72333,62.72,72.33,12,23,4,8
"Minglanilla, Cebu, Philippines",10.24543,123.79599,PLDT Home Fiber,198157,221684,198.16,221.68,3,23,9,11
"Pangil, Laguna, Philippines",14.41772,121.48561,PLDT,93087,219839,93.09,219.84,8,23,7,10
"San Fernando, Masbate, Philippines",12.47959,123.7406,PLDT,89500,93491,89.50,93.49,24,23,4,5
"Padre Garcia, Batangas, Philippines",13.87668,121.24547,PLDT Home Fiber,266649,291120,266.65,291.12,5,23,6,9
"Bataraza, Palawan, Philippines",8.5878,117.43215,PLDT Home Fiber,210759,218739,210.76,218.74,24,23,6,10
"Nabas, Aklan, Philippines",11.85171,122.02692,PLDT Home Fiber,66698,89428,66.70,89.43,18,23,3,4
"Kidapawan, Cotabato, Philippines",7.02127,125.09019,PLDT,94171,101347,94.17,101.35,17,23,6,11
"Bonifacio, Misamis Occidental, Philippines",8.10423,123.59519,PLDT Home Fiber,51565,48458,51.57,48.46,6,23,6,6
"Lubao, Pampanga, Philippines",14.92678,120.58795,PLDT Home Fiber,103779,180040,103.78,180.04,11,23,11,18
"Magsingal, Ilocos Sur, Philippines",17.6831,120.44729,PLDT Home Fiber,76658,89961,76.66,89.96,21,23,2,7
"Palayan City, Nueva Ecija, Philippines",15.53906,121.09083,Globe,119635,103651,119.64,103.65,4,23,5,5
"Malungon, Sarangani, Philippines",6.3343,125.2588,Globe,99598,161123,99.60,161.12,19,23,1,2
"Sagnay, Camarines Sur, Philippines",13.56172,123.5056,Converge,95457,100584,95.46,100.58,2,22,1,1
"Goa, Camarines Sur, Philippines",13.73619,123.41593,PLDT,17791,21627,17.79,21.63,16,22,5,14
"Pandi, Bulacan, Philippines",14.87572,120.95941,Globe,92911,97682,92.91,97.68,8,22,10,13
"Murcia, Negros Occidental, Philippines",10.60643,123.03944,Converge,127395,128548,127.40,128.55,18,22,7,13
"Roxas, Oriental Mindoro, Philippines",12.62617,121.47989,PLDT Home Fiber,50105,99712,50.11,99.71,7,22,8,10
"Ilagan City, Isabela, Philippines",17.12845,122.12918,Converge,38524,36747,38.52,36.75,16,22,5,9
"Tanza, Cavite, Philippines",14.34293,120.85032,PLDT,113163,114692,113.16,114.69,7,22,6,11
"Real, Quezon, Philippines",14.54569,121.55983,PLDT,34965,32063,34.97,32.06,24,22,9,14
"San Rafael, Bulacan, Philippines",15.00184,120.93141,Converge,89954,133529,89.95,133.53,7,22,10,13
"Pulilan, Bulacan, Philippines",14.90243,120.8459,PLDT,93811,105282,93.81,105.28,8,22,9,14
"San Luis, Aurora, Philippines",15.63572,121.46847,PLDT Home Fiber,36617,15800,36.62,15.80,14,22,5,7
"Tayug, Pangasinan, Philippines",16.01085,120.74649,PLDT,137853,185546,137.85,185.55,6,22,9,11
"Muñoz, Nueva Ecija, Philippines",15.70664,120.9029,PLDT,87921,37252,87.92,37.25,17,22,8,16
"Maasin, Iloilo, Philippines",10.9199,122.42407,PLDT,154005,92742,154.01,92.74,5,22,10,12
"Malay, Aklan, Philippines",11.93033,121.95191,Converge,45376,41304,45.38,41.30,25,22,8,21
"Alimodian, Iloilo, Philippines",10.85495,122.39009,PLDT,50317,47758,50.32,47.76,9,22,3,5
