Location Name,Latitude,Longitude,Provider,Download Speed,Upload Speed,Download Speed Mbps,Upload Speed Mbps,Minimum Latency,Test Count,Sample Count,User Count
"Quezon City, Metro Manila, Philippines",14.64879,121.05094,PLDT Home Fiber,111855,138162,111.86,138.16,4,308913,57498,86724
"Quezon City, Metro Manila, Philippines",14.64879,121.05094,Converge,178091,165017,178.09,165.02,4,170214,35519,54895
"Quezon City, Metro Manila, Philippines",14.64879,121.05094,Globe,152729,133516,152.73,133.52,5,141264,32875,50696
"Davao City, Davao del Sur, Philippines",7.06475,125.60884,PLDT Home Fiber,96174,95123,96.17,95.12,8,121331,24658,34864
"Manila, Metro Manila, Philippines",14.59951,120.98423,Converge,183390,144438,183.39,144.44,4,117702,24161,42101
"Taguig, Metro Manila, Philippines",14.53063,121.05755,Converge,122090,172390,122.09,172.39,4,106728,15321,24807
"Cebu City, Cebu, Philippines",10.29261,123.90219,PLDT Home Fiber,96118,103565,96.12,103.57,7,102389,18730,26995
"Manila, Metro Manila, Philippines",14.59951,120.98423,PLDT Home Fiber,96217,101953,96.22,101.95,6,100735,19943,30132
"Quezon City, Metro Manila, Philippines",14.64879,121.05094,PLDT,74866,73187,74.87,73.19,8,97523,22931,33364
"Davao City, Davao del Sur, Philippines",7.06475,125.60884,Globe,115012,123151,115.01,123.15,6,91625,18258,24803
"Calamba, Laguna, Philippines",14.19488,121.15974,Converge,94740,129969,94.74,129.97,7,79774,14166,22565
"Valenzuela, Metro Manila, Philippines",14.69247,120.96991,Converge,172671,169281,172.67,169.28,4,78687,14391,25260
"Cebu City, Cebu, Philippines",10.29261,123.90219,PLDT,79378,87930,79.38,87.93,9,77539,15649,21998
"Cebu City, Cebu, Philippines",10.29261,123.90219,Globe,118122,105460,118.12,105.46,5,69815,16509,24670
"Manila, Metro Manila, Philippines",14.59951,120.98423,PLDT,86127,86705,86.13,86.71,7,65361,14800,20990
"Pasig, Metro Manila, Philippines",14.56082,121.0776,PLDT Home Fiber,105656,129232,105.66,129.23,4,64252,13666,20601
"Parañaque, Metro Manila, Philippines",14.47929,121.01985,Converge,195006,197087,195.01,197.09,4,63635,13932,22395
"Davao City, Davao del Sur, Philippines",7.06475,125.60884,Converge,111488,112084,111.49,112.08,3,56688,11717,17057
"Antipolo City, 1870 Rizal, Philippines",14.58584,121.17569,PLDT Home Fiber,104495,137839,104.50,137.84,3,54868,11407,16734
"Baguio, Benguet, Philippines",16.41297,120.5914,PLDT Home Fiber,91296,95540,91.30,95.54,7,52857,11723,17175
"Parañaque, Metro Manila, Philippines",14.47929,121.01985,PLDT Home Fiber,110398,118208,110.40,118.21,4,52351,10032,14010
"Makati City, Metro Manila, Philippines",14.55474,121.02444,PLDT,71996,71219,72.00,71.22,12,48712,12534,18726
"San Pablo City, Laguna, Philippines",14.06422,121.32326,Converge,151914,148148,151.91,148.15,6,47556,9737,17251
"Cagayan De Oro City, Misamis Oriental, Philippines",8.48029,124.64975,Globe,102519,102130,102.52,102.13,8,47543,10395,15723
"Pasig, Metro Manila, Philippines",14.56082,121.0776,Converge,96568,101761,96.57,101.76,4,46588,9914,12873
"Cebu City, Cebu, Philippines",10.29261,123.90219,Converge,117542,138705,117.54,138.71,6,44644,8324,12300
"Iligan City, Lanao del Norte, Philippines",8.22707,124.46418,PLDT Home Fiber,92061,92499,92.06,92.50,6,44488,8130,11944
"Caloocan, Metro Manila, Philippines",14.65136,120.99022,PLDT Home Fiber,109667,149078,109.67,149.08,3,43659,8714,12413
"Cainta, Rizal, Philippines",14.58056,121.11565,PLDT Home Fiber,110856,155620,110.86,155.62,3,43219,9289,13897
"Marikina, Metro Manila, Philippines",14.63493,121.10195,Converge,191450,183531,191.45,183.53,3,42806,10088,15211
"Parañaque, Metro Manila, Philippines",14.47929,121.01985,PLDT,92723,93585,92.72,93.59,6,40887,10470,16086
"Pasay City, Metro Manila, Philippines",14.53767,121.00081,PLDT Home Fiber,105802,108444,105.80,108.44,5,39959,9311,14364
"Taguig, Metro Manila, Philippines",14.53063,121.05755,Globe,156172,136417,156.17,136.42,4,39658,10137,16250
"Makati City, Metro Manila, Philippines",14.55474,121.02444,PLDT Home Fiber,108949,139243,108.95,139.24,5,39125,8002,11595
"Taguig, Metro Manila, Philippines",14.53063,121.05755,PLDT Home Fiber,133615,153729,133.62,153.73,4,37319,7108,9906
"Cagayan De Oro City, Misamis Oriental, Philippines",8.48029,124.64975,PLDT Home Fiber,94110,94373,94.11,94.37,8,36930,8033,11846
"Makati City, Metro Manila, Philippines",14.55474,121.02444,Converge,172080,167094,172.08,167.09,4,36044,8095,12468
"Consolacion, Cebu, Philippines",10.37581,123.95694,Converge,115321,160793,115.32,160.79,16,34892,7732,11667
"Muntinlupa, Metro Manila, Philippines",14.39453,121.04483,PLDT,95061,94459,95.06,94.46,6,34870,7290,10141
"Concepcion, Tarlac, Philippines",15.324,120.65596,Converge,106289,118834,106.29,118.83,3,33378,7927,13070
"Angeles, Pampanga, Philippines",15.16061,120.60908,Converge,101453,103840,101.45,103.84,4,33268,7156,10406
"Cagayan De Oro City, Misamis Oriental, Philippines",8.48029,124.64975,Converge,116215,127208,116.22,127.21,8,33262,6894,9885
"Bacoor, Cavite, Philippines",14.43122,120.96567,PLDT Home Fiber,122420,132509,122.42,132.51,5,33111,6717,9544
"Valenzuela, Metro Manila, Philippines",14.69247,120.96991,PLDT Home Fiber,109603,129623,109.60,129.62,3,32204,7398,11136
"Malabon, Metro Manila, Philippines",14.65793,120.95118,PLDT Home Fiber,104230,116241,104.23,116.24,3,31603,7358,11501
"Imus, Cavite, Philippines",14.42764,120.93724,PLDT Home Fiber,154761,158240,154.76,158.24,4,31387,7003,10421
"Davao City, Davao del Sur, Philippines",7.06475,125.60884,PLDT,93044,93312,93.04,93.31,9,31377,7686,10888
"Pandi, Bulacan, Philippines",14.87572,120.95941,Converge,155750,117847,155.75,117.85,7,31058,7433,11971
"General Trias, Cavite, Philippines",14.38159,120.87915,Converge,174957,171720,174.96,171.72,6,30991,6343,10478
"Biñan, Laguna, Philippines",14.31456,121.08316,PLDT,96611,112126,96.61,112.13,9,30977,7281,11725
"Mexico, Pampanga, Philippines",15.06457,120.72033,Converge,109344,107874,109.34,107.87,3,30601,7384,11283
"Las Piñas, Metro Manila, Philippines",14.44934,120.98186,PLDT Home Fiber,133492,127312,133.49,127.31,4,30531,5990,7980
"Capas, Tarlac, Philippines",15.34633,120.59344,Converge,109902,109899,109.90,109.90,4,30109,7154,11204
"Antipolo City, 1870 Rizal, Philippines",14.58584,121.17569,Converge,184090,184568,184.09,184.57,3,29436,7034,11173
"Polangui, Albay, Philippines",13.29368,123.48542,Converge,103202,94168,103.20,94.17,8,28839,5952,11177
"Iloilo City, Iloilo, Philippines",10.73019,122.55911,Globe,100677,93988,100.68,93.99,15,28422,5807,9008
"Batangas City, Batangas, Philippines",13.75641,121.05833,Globe,107136,99564,107.14,99.56,9,27458,6026,9963
"Caloocan, Metro Manila, Philippines",14.65136,120.99022,Converge,141210,173291,141.21,173.29,4,26802,3266,4777
"Pasay City, Metro Manila, Philippines",14.53767,121.00081,PLDT,95022,94694,95.02,94.69,6,26691,6820,10489
"Pandi, Bulacan, Philippines",14.87572,120.95941,PLDT Home Fiber,94823,99566,94.82,99.57,9,26674,4943,7679
"Bacolod, Negros Occidental, Philippines",10.66764,122.94556,PLDT Home Fiber,92631,96780,92.63,96.78,11,26386,5285,7420
"Dasmariñas, Cavite, Philippines",14.33385,120.95423,PLDT Home Fiber,120211,147539,120.21,147.54,5,25968,5188,7769
"Tarlac City, Tarlac, Philippines",15.48808,120.58719,Converge,100126,100597,100.13,100.60,4,25798,5937,9481
"Dasmariñas, Cavite, Philippines",14.33385,120.95423,Converge,198451,179748,198.45,179.75,5,25675,5085,8168
"Arayat, Pampanga, Philippines",15.15443,120.771,Converge,115714,128156,115.71,128.16,3,25607,6697,10896
"La Trinidad, Benguet, Philippines",16.44844,120.59047,Converge,104922,109621,104.92,109.62,4,25428,6016,9241
"Lipa City, Batangas, Philippines",13.94047,121.19395,PLDT Home Fiber,103779,109422,103.78,109.42,7,24835,5428,7919
"Santa Maria, Bulacan, Philippines",14.82898,120.97616,Converge,116323,102040,116.32,102.04,7,23946,5134,7906
"Pasig, Metro Manila, Philippines",14.56082,121.0776,Globe,233934,202999,233.93,203.00,5,23833,5334,7743
"Magpet, Cotabato, Philippines",7.1332,125.17087,PLDT Home Fiber,99230,95871,99.23,95.87,8,23550,6833,9705
"Talaingod, Davao del Norte, Philippines",7.68339,125.522,Globe,58615,59818,58.62,59.82,7,23535,4282,6451
"San Fernando, Pampanga, Philippines",15.02781,120.69349,Converge,94154,97676,94.15,97.68,4,22717,5562,7703
"Taguig, Metro Manila, Philippines",14.53063,121.05755,PLDT,76025,77314,76.03,77.31,9,22217,5469,7800
"Mandaluyong City, Metro Manila, Philippines",14.57627,121.03924,Converge,166518,162520,166.52,162.52,4,21555,5265,8064
"SJDM, Bulacan, Philippines",14.82867,121.04324,Converge,122240,116559,122.24,116.56,7,21365,4471,6167
"Silang, Cavite, Philippines",14.22025,120.96469,PLDT Home Fiber,123110,128037,123.11,128.04,5,21283,4877,7692
"Carmona, Cavite, Philippines",14.3135,121.05712,PLDT,100158,130836,100.16,130.84,9,21115,5185,8457
"Marikina, Metro Manila, Philippines",14.63493,121.10195,PLDT Home Fiber,121509,155670,121.51,155.67,4,21023,3779,5018
"Tanauan City, Batangas, Philippines",14.08354,121.14762,PLDT Home Fiber,110689,100417,110.69,100.42,7,20681,5057,8049
"Bacoor, Cavite, Philippines",14.43122,120.96567,PLDT,92534,95034,92.53,95.03,9,20594,5136,8095
"Anao, Tarlac, Philippines",15.7435,120.61424,Globe,164737,133779,164.74,133.78,6,20587,4700,7133
"Muntinlupa, Metro Manila, Philippines",14.39453,121.04483,PLDT Home Fiber,117654,105769,117.65,105.77,4,20570,4279,6145
"Bago, Negros Occidental, Philippines",10.53757,122.83609,Converge,162683,129194,162.68,129.19,15,20166,4230,6488
"San Fernando, Pampanga, Philippines",15.02781,120.69349,PLDT Home Fiber,105687,98893,105.69,98.89,7,20160,4075,6011
"Makati City, Metro Manila, Philippines",14.55474,121.02444,Globe,165618,137539,165.62,137.54,4,19909,4764,6857
"Los Baños, Laguna, Philippines",14.17731,121.22161,PLDT Home Fiber,107127,123552,107.13,123.55,7,19829,4330,6796
"Itogon, Benguet, Philippines",16.36116,120.6787,PLDT,94332,96225,94.33,96.23,6,19403,5006,7837
"Dasmariñas, Cavite, Philippines",14.33385,120.95423,PLDT,94423,108047,94.42,108.05,9,18888,4824,7796
"Calauan, Laguna, Philippines",14.14551,121.3146,Converge,200623,198441,200.62,198.44,4,18426,4269,7394
"Baguio, Benguet, Philippines",16.41297,120.5914,Converge,96527,99924,96.53,99.92,4,18333,3496,4799
"General Trias, Cavite, Philippines",14.38159,120.87915,PLDT Home Fiber,129683,133673,129.68,133.67,4,18287,3842,5673
"Bulakan, Bulacan, Philippines",14.79484,120.87889,PLDT Home Fiber,99301,104254,99.30,104.25,6,18272,3917,6199
"Bacolod, Negros Occidental, Philippines",10.66764,122.94556,Globe,114398,101860,114.40,101.86,14,17882,3764,5293
"Butuan City, Agusan Del Norte, Philippines",8.94753,125.54063,PLDT Home Fiber,89439,93709,89.44,93.71,9,17597,2905,4278
"Cabanatuan City, Nueva Ecija, Philippines",15.49943,121.01057,Globe,116626,103704,116.63,103.70,6,17595,3769,5495
"Butuan City, Agusan Del Norte, Philippines",8.94753,125.54063,Globe,107256,98587,107.26,98.59,13,17403,4171,5962
"Dasmariñas, Cavite, Philippines",14.33385,120.95423,Globe,190566,168878,190.57,168.88,5,16796,4413,6571
"La Castellana, Negros Occidental, Philippines",10.33198,123.10141,Converge,114618,135122,114.62,135.12,16,15982,3147,5513
"Muntinlupa, Metro Manila, Philippines",14.39453,121.04483,Converge,188726,188383,188.73,188.38,4,15686,3819,5618
"Bacolod, Negros Occidental, Philippines",10.66764,122.94556,Converge,113499,114304,113.50,114.30,12,15510,2874,3980
"Calamba, Laguna, Philippines",14.19488,121.15974,PLDT Home Fiber,105071,117054,105.07,117.05,8,15383,3446,5103
"San Juan City, Metro Manila, Philippines",14.60196,121.0355,PLDT Home Fiber,113623,145498,113.62,145.50,4,15352,3296,4713
"San Juan City, Metro Manila, Philippines",14.60196,121.0355,PLDT,64615,63737,64.62,63.74,12,15299,4142,5899
"Calamba, Laguna, Philippines",14.19488,121.15974,PLDT,88716,93913,88.72,93.91,10,15244,3441,5455
"Calapan City, Oriental Mindoro, Philippines",13.36643,121.19395,Converge,79963,93770,79.96,93.77,12,15153,2195,4060
"Navotas, Metro Manila, Philippines",14.65819,120.94743,Converge,142484,157818,142.48,157.82,4,15053,2489,3988
"Angeles, Pampanga, Philippines",15.16061,120.60908,PLDT Home Fiber,81632,109993,81.63,109.99,13,14997,1815,2544
"New Lucena, Iloilo, Philippines",10.87841,122.59781,Converge,149167,130694,149.17,130.69,15,14962,3235,5795
"Itogon, Benguet, Philippines",16.36116,120.6787,PLDT Home Fiber,94457,99411,94.46,99.41,6,14775,3856,6129
"Iloilo City, Iloilo, Philippines",10.73019,122.55911,Converge,105671,99847,105.67,99.85,14,14755,2586,3752
"Taytay, Rizal, Philippines",14.55288,121.12571,PLDT Home Fiber,113273,151000,113.27,151.00,4,14456,2880,3830
"Lapu-Lapu, Cebu, Philippines",10.31838,123.96395,Converge,79644,156511,79.64,156.51,21,14434,1314,1885
"Claveria, Misamis Oriental, Philippines",8.62972,124.90655,Converge,132736,135230,132.74,135.23,9,14245,3291,5184
"Mandaluyong City, Metro Manila, Philippines",14.57627,121.03924,Globe,213507,180964,213.51,180.96,5,14244,3400,5322
"Naga City, Camarines Sur, Philippines",13.6475,123.27003,Converge,91900,81084,91.90,81.08,10,14220,2473,3966
"Tarlac City, Tarlac, Philippines",15.48808,120.58719,PLDT,79404,86406,79.40,86.41,9,13825,2642,3870
"San Pablo City, Laguna, Philippines",14.06422,121.32326,PLDT Home Fiber,102770,138781,102.77,138.78,6,13658,2890,4378
"Iloilo City, Iloilo, Philippines",10.73019,122.55911,PLDT Home Fiber,94186,96510,94.19,96.51,13,13587,2405,3722
"Santa Maria, Bulacan, Philippines",14.82898,120.97616,PLDT Home Fiber,94233,108110,94.23,108.11,10,13574,2216,3095
"Caloocan, Metro Manila, Philippines",14.65136,120.99022,PLDT,89106,92056,89.11,92.06,3,13462,2909,4501
"Marilao, Bulacan, Philippines",14.77237,120.96001,PLDT Home Fiber,82192,95875,82.19,95.88,13,13371,2075,2963
"Binangonan, Rizal, Philippines",14.48441,121.1869,PLDT,102798,129941,102.80,129.94,4,12983,3616,5760
"Talakag, Bukidnon, Philippines",8.05293,124.72988,PLDT Home Fiber,94598,96911,94.60,96.91,6,12924,3125,4795
"Tagaytay City, Cavite, Philippines",14.11541,120.96202,Converge,135272,129578,135.27,129.58,6,12914,2580,4219
"Bago, Negros Occidental, Philippines",10.53757,122.83609,PLDT Home Fiber,97110,123819,97.11,123.82,9,12556,3557,5437
"Parañaque, Metro Manila, Philippines",14.47929,121.01985,Globe,165647,135895,165.65,135.90,4,12519,2994,4103
"Pasig, Metro Manila, Philippines",14.56082,121.0776,PLDT,78838,72016,78.84,72.02,5,12511,2845,4275
"Navotas, Metro Manila, Philippines",14.65819,120.94743,Globe,155055,132062,155.06,132.06,5,12447,3019,4288
"Imus, Cavite, Philippines",14.42764,120.93724,Converge,189923,170657,189.92,170.66,6,12391,2619,4191
"San Juan City, Metro Manila, Philippines",14.60196,121.0355,Converge,143231,128837,143.23,128.84,4,12327,3314,5046
"Cainta, Rizal, Philippines",14.58056,121.11565,PLDT,87354,92400,87.35,92.40,7,12291,2830,4166
"Baguio, Benguet, Philippines",16.41297,120.5914,PLDT,91598,93996,91.60,94.00,6,12209,2917,4335
"Olongapo City, Zambales, Philippines",14.88739,120.36661,Converge,120515,111848,120.52,111.85,5,12070,2617,4067
"Danao, Cebu, Philippines",10.52013,124.02712,Globe,94887,94044,94.89,94.04,7,12054,3642,5742
"Taytay, Rizal, Philippines",14.55288,121.12571,Converge,201942,197315,201.94,197.32,3,11895,2795,4467
"Mandaluyong City, Metro Manila, Philippines",14.57627,121.03924,PLDT Home Fiber,167073,170683,167.07,170.68,4,11830,2310,3023
"Bacolod, Negros Occidental, Philippines",10.66764,122.94556,PLDT,63374,66839,63.37,66.84,11,11769,2260,3181
"Cainta, Rizal, Philippines",14.58056,121.11565,Globe,185951,172905,185.95,172.91,5,11673,2712,3730
"San Carlos City, Negros Occidental, Philippines",10.48344,123.30371,PLDT,94300,110834,94.30,110.83,6,11612,3341,4991
"Candaba, Pampanga, Philippines",15.09289,120.8277,PLDT Home Fiber,93331,99068,93.33,99.07,9,11590,2919,4528
"Biñan, Laguna, Philippines",14.31456,121.08316,Converge,101253,158833,101.25,158.83,7,11529,1571,2525
"San Marcelino, Zambales, Philippines",15.02605,120.27435,Converge,99920,101154,99.92,101.15,6,11484,2294,3939
"Obando, Bulacan, Philippines",14.70986,120.93674,PLDT Home Fiber,98976,105586,98.98,105.59,6,11432,2605,4147
"San Carlos City, Negros Occidental, Philippines",10.48344,123.30371,PLDT Home Fiber,97748,134897,97.75,134.90,9,11279,3245,4811
"Subic Bay Freeport Zone, Philippines",14.80319,120.30033,Converge,104496,104697,104.50,104.70,5,11234,2370,3430
"Antipolo City, 1870 Rizal, Philippines",14.58584,121.17569,PLDT,66296,69343,66.30,69.34,7,11159,2667,3918
"Magpet, Cotabato, Philippines",7.1332,125.17087,PLDT,100807,97329,100.81,97.33,8,11112,3290,4725
"Murcia, Negros Occidental, Philippines",10.60643,123.03944,PLDT Home Fiber,94789,103964,94.79,103.96,9,11036,3093,4695
"Nasugbu, Batangas, Philippines",14.09404,120.68901,Globe,114795,104265,114.80,104.27,7,11001,2415,3595
"Victoria, Tarlac, Philippines",15.59077,120.68901,Globe,87985,88074,87.99,88.07,5,10824,2683,5059
"Iloilo City, Iloilo, Philippines",10.73019,122.55911,PLDT,80552,87302,80.55,87.30,11,10760,2477,3418
"Bocaue, Bulacan, Philippines",14.7943,120.93073,PLDT Home Fiber,92637,98412,92.64,98.41,11,10575,1685,2432
"Navotas, Metro Manila, Philippines",14.65819,120.94743,PLDT Home Fiber,104371,108458,104.37,108.46,4,10237,2411,3465
"Arayat, Pampanga, Philippines",15.15443,120.771,PLDT Home Fiber,91571,95322,91.57,95.32,11,10223,2261,3455
"Bacolor, Pampanga, Philippines",14.99692,120.65235,PLDT Home Fiber,109535,97696,109.54,97.70,7,10109,2640,4058
"Santo Domingo, Nueva Ecija, Philippines",15.61284,120.88434,Globe,110495,105959,110.50,105.96,7,10099,2329,3604
"Tarlac City, Tarlac, Philippines",15.48808,120.58719,Globe,114848,102174,114.85,102.17,5,9740,2315,3354
"Bacoor, Cavite, Philippines",14.43122,120.96567,Converge,182923,160788,182.92,160.79,6,9736,2000,3106
"San Pedro, Laguna, Philippines",14.36443,121.06192,PLDT Home Fiber,101292,123384,101.29,123.38,8,9675,1423,1784
"Dolores, Quezon, Philippines",14.00193,121.41133,Converge,159613,180222,159.61,180.22,5,9655,2253,3827
"Urdaneta City, Pangasinan, Philippines",15.98194,120.59698,Converge,112057,113436,112.06,113.44,6,9525,2056,3648
"Carmen, Cebu, Philippines",10.58876,123.96385,PLDT Home Fiber,106862,171983,106.86,171.98,6,9489,2671,4065
"Murcia, Negros Occidental, Philippines",10.60643,123.03944,Globe,116948,105288,116.95,105.29,12,9466,2956,4654
"Meycauayan, Bulacan, Philippines",14.73772,120.96077,PLDT Home Fiber,97950,107818,97.95,107.82,10,9276,1725,2470
"Santa Cruz, Davao del Sur, Philippines",6.83551,125.41659,Converge,117244,114976,117.24,114.98,4,9242,2107,3253
"Kawit, Cavite, Philippines",14.44588,120.90871,PLDT,95157,101750,95.16,101.75,10,9200,2530,4031
"Las Piñas, Metro Manila, Philippines",14.44934,120.98186,Converge,201647,196048,201.65,196.05,4,9150,1765,2578
"Canlaon City, Negros Oriental, Philippines",10.36048,123.19137,PLDT Home Fiber,96911,137031,96.91,137.03,9,9137,2520,3752
"Las Piñas, Metro Manila, Philippines",14.44934,120.98186,PLDT,71382,76990,71.38,76.99,8,9084,2348,3453
"Kawit, Cavite, Philippines",14.44588,120.90871,Globe,122186,109688,122.19,109.69,6,8918,2065,2971
"Tanauan City, Batangas, Philippines",14.08354,121.14762,PLDT,93074,94813,93.07,94.81,8,8804,2356,3729
"Malolos, Bulacan, Philippines",14.86049,120.80916,PLDT Home Fiber,101922,108772,101.92,108.77,7,8730,1645,2373
"San Mateo, Rizal, Philippines",14.69539,121.11767,PLDT Home Fiber,118715,159023,118.72,159.02,4,8663,1674,2304
"Cabiao, Nueva Ecija, Philippines",15.25221,120.85957,Converge,121344,143522,121.34,143.52,4,8619,2392,3925
"Malabon, Metro Manila, Philippines",14.65793,120.95118,Converge,192939,168852,192.94,168.85,4,8578,1850,2918
"Manila, Metro Manila, Philippines",14.59951,120.98423,Globe,180376,146165,180.38,146.17,5,8449,1756,2382
"Rodriguez, Rizal, Philippines",14.73202,121.14516,PLDT Home Fiber,106298,144539,106.30,144.54,4,8303,1226,1562
"Burgos, La Union, Philippines",16.53803,120.47033,Converge,105868,109956,105.87,109.96,4,8176,1997,3203
"La Paz, Tarlac, Philippines",15.4497,120.7235,Globe,119005,106267,119.01,106.27,5,8076,2202,3815
"Santa Barbara, Pangasinan, Philippines",15.9774,120.42424,Converge,106578,111461,106.58,111.46,6,8059,1880,3448
"Marikina, Metro Manila, Philippines",14.63493,121.10195,Globe,168117,150044,168.12,150.04,5,7997,1876,2932
"Zamboanga City, Zamboanga del Sur, Philippines",6.90437,122.07612,PLDT Home Fiber,105813,91276,105.81,91.28,11,7994,1185,1539
"Tarlac City, Tarlac, Philippines",15.48808,120.58719,PLDT Home Fiber,93954,95259,93.95,95.26,10,7971,1553,2348
"Biñan, Laguna, Philippines",14.31456,121.08316,PLDT Home Fiber,103421,121741,103.42,121.74,8,7933,1580,2311
"Caloocan, Metro Manila, Philippines",14.65136,120.99022,Globe,181600,162839,181.60,162.84,4,7787,1525,2029
"General Trias, Cavite, Philippines",14.38159,120.87915,Globe,231102,204078,231.10,204.08,6,7783,1838,2837
"Antipolo City, 1870 Rizal, Philippines",14.58584,121.17569,Globe,155191,136085,155.19,136.09,5,7667,1311,1722
"City of Santa Rosa, Laguna, Philippines",14.31471,121.11232,PLDT Home Fiber,110870,123572,110.87,123.57,8,7588,1426,2102
"Rosario, Batangas, Philippines",13.80433,121.28552,Globe,131810,114978,131.81,114.98,8,7587,2068,3067
"Batangas City, Batangas, Philippines",13.75641,121.05833,PLDT Home Fiber,121322,120449,121.32,120.45,8,7463,1690,2367
"Talugtug, Nueva Ecija, Philippines",15.7698,120.81544,Globe,61114,53543,61.11,53.54,6,7453,1656,3434
"Lucena City, Quezon, Philippines",13.94139,121.62345,PLDT Home Fiber,99044,119301,99.04,119.30,5,7452,1603,2360
"Cabiao, Nueva Ecija, Philippines",15.25221,120.85957,PLDT Home Fiber,91811,96042,91.81,96.04,11,7265,1801,2893
"Subic, Zambales, Philippines",14.83066,120.18202,Converge,104719,105741,104.72,105.74,5,7241,1556,2606
"San Nicolas, Pangasinan, Philippines",16.12066,120.78097,PLDT,93529,96687,93.53,96.69,6,7171,1862,3114
"General Santos City (Dadiangas), South Cotabato, Philippines",6.14327,125.19286,PLDT Home Fiber,96463,91379,96.46,91.38,10,7169,1086,1378
"Asturias, Cebu, Philippines",10.60209,123.77412,Globe,122491,106089,122.49,106.09,11,7094,2067,3194
"Taytay, Rizal, Philippines",14.55288,121.12571,PLDT,85913,93092,85.91,93.09,5,7089,1833,2661
"Angeles, Pampanga, Philippines",15.16061,120.60908,PLDT,74870,82092,74.87,82.09,10,6943,1758,2598
"San Antonio, Nueva Ecija, Philippines",15.31921,120.82692,PLDT Home Fiber,92325,95316,92.33,95.32,11,6927,1499,2295
"Minalin, Pampanga, Philippines",14.97052,120.68518,PLDT Home Fiber,108209,97749,108.21,97.75,7,6907,1830,2906
"Calamba, Laguna, Philippines",14.19488,121.15974,Globe,142190,129279,142.19,129.28,6,6844,1896,2657
"Valenzuela, Metro Manila, Philippines",14.69247,120.96991,PLDT,86545,89563,86.55,89.56,7,6791,1675,2380
"Mandaluyong City, Metro Manila, Philippines",14.57627,121.03924,PLDT,64531,46148,64.53,46.15,9,6780,1742,2551
"Cainta, Rizal, Philippines",14.58056,121.11565,Converge,171682,155059,171.68,155.06,3,6636,1295,1725
"Unisan, Quezon, Philippines",13.86351,122.01555,Converge,113474,113036,113.47,113.04,10,6605,1108,1840
"SJDM, Bulacan, Philippines",14.82867,121.04324,PLDT,58071,55787,58.07,55.79,11,6581,1354,1898
"Digos, Davao del Sur, Philippines",6.74347,125.35515,PLDT Home Fiber,98814,96559,98.81,96.56,9,6417,1757,2631
"Sigma, Capiz, Philippines",11.4398,122.69555,Converge,109061,101003,109.06,101.00,19,6378,1115,2265
"Las Piñas, Metro Manila, Philippines",14.44934,120.98186,Globe,209979,157751,209.98,157.75,5,6289,1163,1483
"Dagupan City, Pangasinan, Philippines",16.03375,120.33202,PLDT Home Fiber,90969,95130,90.97,95.13,7,6285,1466,2195
"Mandaue, Cebu, Philippines",10.3279,123.94273,Converge,160240,169710,160.24,169.71,5,6191,1276,1951
"Magpet, Cotabato, Philippines",7.1332,125.17087,Globe,125745,123601,125.75,123.60,5,6173,2235,2980
"Bacoor, Cavite, Philippines",14.43122,120.96567,Globe,186736,153952,186.74,153.95,5,6141,1271,1539
"SJDM, Bulacan, Philippines",14.82867,121.04324,PLDT Home Fiber,102893,111009,102.89,111.01,6,6011,1007,1417
"La Castellana, Negros Occidental, Philippines",10.33198,123.10141,PLDT Home Fiber,95149,116012,95.15,116.01,9,6005,1652,2441
"Valenzuela, Metro Manila, Philippines",14.69247,120.96991,Globe,176295,142824,176.30,142.82,4,5927,1150,1491
"Balamban, Cebu, Philippines",10.48585,123.77412,Globe,122605,104128,122.61,104.13,7,5911,1714,2682
"Agoncillo, Batangas, Philippines",13.94675,120.93026,Converge,166264,158340,166.26,158.34,7,5862,1312,2432
"Marikina, Metro Manila, Philippines",14.63493,121.10195,PLDT,67837,64970,67.84,64.97,11,5855,1370,1991
"General Santos City (Dadiangas), South Cotabato, Philippines",6.14327,125.19286,Globe,86106,102973,86.11,102.97,14,5844,607,759
"Cardona, Rizal, Philippines",14.48493,121.232,PLDT,98488,122087,98.49,122.09,4,5834,1664,2617
"Dagupan City, Pangasinan, Philippines",16.03375,120.33202,Converge,94197,96574,94.20,96.57,6,5788,1168,1686
"Mabalacat City, Pampanga, Philippines",15.24525,120.56567,Converge,102334,103846,102.33,103.85,3,5767,1347,1754
"Kawit, Cavite, Philippines",14.44588,120.90871,PLDT Home Fiber,98659,109829,98.66,109.83,8,5743,1356,1996
"Bansalan, Davao del Sur, Philippines",6.84825,125.22584,PLDT Home Fiber,105900,99812,105.90,99.81,9,5722,1595,2425
"Pasay City, Metro Manila, Philippines",14.53767,121.00081,Converge,197768,178724,197.77,178.72,4,5644,1262,1753
"Lipa City, Batangas, Philippines",13.94047,121.19395,Converge,77565,161045,77.57,161.05,9,5618,717,1072
"Lapu-Lapu, Cebu, Philippines",10.31838,123.96395,PLDT Home Fiber,131284,165709,131.28,165.71,3,5593,935,1154
"Kawit, Cavite, Philippines",14.44588,120.90871,Converge,100599,149124,100.60,149.12,7,5561,1046,1617
"Danao, Cebu, Philippines",10.52013,124.02712,PLDT Home Fiber,96189,153211,96.19,153.21,6,5560,1649,2587
"Guagua, Pampanga, Philippines",14.96374,120.63244,PLDT Home Fiber,98940,100293,98.94,100.29,7,5551,1281,1982
"Talavera, Nueva Ecija, Philippines",15.58575,120.9197,Converge,138980,138156,138.98,138.16,6,5514,1198,2222
"Llanera, Nueva Ecija, Philippines",15.66623,121.01057,Converge,108846,112481,108.85,112.48,6,5496,1155,2274
"Cabanatuan City, Nueva Ecija, Philippines",15.49943,121.01057,PLDT Home Fiber,93710,94093,93.71,94.09,11,5460,1167,1762
"Aliaga, Nueva Ecija, Philippines",15.51204,120.86138,Globe,206530,178216,206.53,178.22,5,5386,1404,2350
"San Pedro, Laguna, Philippines",14.36443,121.06192,Converge,103836,173922,103.84,173.92,7,5239,708,1085
"Mexico, Pampanga, Philippines",15.06457,120.72033,PLDT Home Fiber,93866,94392,93.87,94.39,8,5138,1279,1956
"Concepcion, Tarlac, Philippines",15.324,120.65596,PLDT Home Fiber,89895,94802,89.90,94.80,12,5103,1031,1584
"Matalam, Cotabato, Philippines",7.17236,124.92861,PLDT Home Fiber,96071,95738,96.07,95.74,9,5057,1443,2113
"Malolos, Bulacan, Philippines",14.86049,120.80916,PLDT,69993,77984,69.99,77.98,9,5045,1282,1901
"San Antonio, Nueva Ecija, Philippines",15.31921,120.82692,Converge,121366,153616,121.37,153.62,4,4999,1393,2234
"Lapu-Lapu, Cebu, Philippines",10.31838,123.96395,Globe,126119,115834,126.12,115.83,5,4976,974,1274
"Cadiz City, Negros Occidental, Philippines",10.86192,123.23632,PLDT Home Fiber,83900,92608,83.90,92.61,10,4928,1138,1747
"Nagcarlan, Laguna, Philippines",14.14903,121.38847,PLDT Home Fiber,129423,165675,129.42,165.68,8,4924,1150,1882
"Baliwag, Bulacan, Philippines",14.96569,120.89431,PLDT Home Fiber,92837,110749,92.84,110.75,9,4907,927,1409
"City of Santa Rosa, Laguna, Philippines",14.31471,121.11232,PLDT,89518,88089,89.52,88.09,8,4869,1218,1639
"Angat, Bulacan, Philippines",14.92586,121.02204,PLDT Home Fiber,94816,102068,94.82,102.07,9,4868,1121,1645
"Tanza, Cavite, Philippines",14.34293,120.85032,Converge,151102,178802,151.10,178.80,6,4858,813,1308
"San Rafael, Bulacan, Philippines",15.00184,120.93141,PLDT Home Fiber,97246,108734,97.25,108.73,6,4827,1055,1632
"City of Tayabas, Quezon, Philippines",14.01135,121.55983,PLDT Home Fiber,105182,134326,105.18,134.33,7,4821,1181,1874
"Imus, Cavite, Philippines",14.42764,120.93724,Globe,116969,103699,116.97,103.70,5,4812,1089,1611
"San Manuel, Pangasinan, Philippines",16.10561,120.67751,PLDT,94163,96008,94.16,96.01,6,4809,1459,2251
"San Fernando, Pampanga, Philippines",15.02781,120.69349,PLDT,80624,83272,80.62,83.27,12,4797,1402,2093
"Mauban, Quezon, Philippines",14.23756,121.69674,Converge,113631,111067,113.63,111.07,12,4784,858,1501
"Cabuyao City, Laguna, Philippines",14.27433,121.11961,PLDT Home Fiber,102923,111562,102.92,111.56,7,4758,1057,1500
"Kidapawan, Cotabato, Philippines",7.02127,125.09019,PLDT Home Fiber,94424,100952,94.42,100.95,10,4748,888,1274
"Angono, Rizal, Philippines",14.52592,121.15321,PLDT,100290,126136,100.29,126.14,4,4743,1365,2009
"Banga, South Cotabato, Philippines",6.38791,124.79617,PLDT Home Fiber,82873,82872,82.87,82.87,10,4742,890,1336
"Sablan, Benguet, Philippines",16.49609,120.48794,Converge,111269,112279,111.27,112.28,4,4711,1190,1978
"Talisay, Negros Occidental, Philippines",10.74828,122.98012,Globe,129671,115219,129.67,115.22,14,4678,1277,1970
"Tuguegarao City, Cagayan, Philippines",17.60306,121.75374,PLDT,78550,80788,78.55,80.79,12,4671,1041,1463
"Marilao, Bulacan, Philippines",14.77237,120.96001,Converge,156260,146519,156.26,146.52,7,4628,937,1244
"Catmon, Cebu, Philippines",10.65242,123.9973,PLDT Home Fiber,107802,173996,107.80,174.00,6,4605,1287,1960
"Santo Tomas, Batangas, Philippines",14.08754,121.17764,PLDT Home Fiber,121457,137464,121.46,137.46,9,4600,800,1032
"President Roxas, Cotabato, Philippines",7.37928,125.06084,PLDT Home Fiber,98798,96465,98.80,96.47,8,4593,1545,2085
"Mandaue, Cebu, Philippines",10.3279,123.94273,PLDT Home Fiber,121096,146851,121.10,146.85,3,4577,932,1228
"Tanza, Cavite, Philippines",14.34293,120.85032,PLDT Home Fiber,150641,163448,150.64,163.45,4,4571,782,996
"San Ildefonso, Bulacan, Philippines",15.07717,120.94171,PLDT Home Fiber,91332,95613,91.33,95.61,8,4531,1225,1844
"Bustos, Bulacan, Philippines",14.95239,120.91735,PLDT Home Fiber,107051,102592,107.05,102.59,7,4529,1120,1614
"Balagtas, Bulacan, Philippines",14.81784,120.90646,PLDT Home Fiber,92467,97579,92.47,97.58,8,4507,966,1419
"Bay, Laguna, Philippines",14.14064,121.26836,PLDT Home Fiber,116700,121019,116.70,121.02,4,4440,1237,1911
"Zamboanga City, Zamboanga del Sur, Philippines",6.90437,122.07612,Globe,82942,73479,82.94,73.48,13,4439,576,723
"San Nicolas, Pangasinan, Philippines",16.12066,120.78097,PLDT Home Fiber,92937,98631,92.94,98.63,6,4382,1085,1744
"Lapu-Lapu, Cebu, Philippines",10.31838,123.96395,PLDT,87920,95931,87.92,95.93,3,4361,794,1108
"Calasiao, Pangasinan, Philippines",16.00949,120.35759,PLDT Home Fiber,94262,96479,94.26,96.48,7,4348,1041,1642
"Naga City, Camarines Sur, Philippines",13.6475,123.27003,PLDT Home Fiber,108041,118888,108.04,118.89,8,4331,696,964
"Laoag City, Ilocos Norte, Philippines",18.21075,120.58547,Converge,129015,155609,129.02,155.61,12,4315,973,1642
"Candelaria, Quezon, Philippines",13.94899,121.42276,Converge,114338,164060,114.34,164.06,5,4309,848,1453
"Iriga City, Camarines Sur, Philippines",13.42095,123.41361,Converge,101395,77614,101.40,77.61,12,4290,1029,1949
"Kibungan, Benguet, Philippines",16.68162,120.68901,PLDT Home Fiber,95161,96259,95.16,96.26,6,4271,1088,1736
"Rosario, Cavite, Philippines",14.41672,120.85471,Converge,91919,134094,91.92,134.09,7,4207,803,1227
"City of Santa Rosa, Laguna, Philippines",14.31471,121.11232,Converge,100127,123942,100.13,123.94,6,4203,632,978
"San Antonio, Nueva Ecija, Philippines",15.31921,120.82692,Globe,181201,170315,181.20,170.32,5,4181,1303,2019
"Subic Bay Freeport Zone, Philippines",14.80319,120.30033,PLDT,70926,74869,70.93,74.87,12,4160,1011,1512
"Navotas, Metro Manila, Philippines",14.65819,120.94743,PLDT,73713,78187,73.71,78.19,8,4048,1069,1611
"Diadi, Nueva Vizcaya, Philippines",16.6595,121.33129,Converge,102062,106606,102.06,106.61,9,4036,845,1584
"Santa Rita, Pampanga, Philippines",14.99762,120.61451,PLDT Home Fiber,96938,100064,96.94,100.06,7,4019,991,1571
"Angono, Rizal, Philippines",14.52592,121.15321,PLDT Home Fiber,98863,122347,98.86,122.35,4,3990,612,803
"Salvador Benedicto, Negros Occidental, Philippines",10.5887,123.23632,PLDT Home Fiber,96445,117212,96.45,117.21,9,3934,1238,1843
"Calauan, Laguna, Philippines",14.14551,121.3146,PLDT Home Fiber,104303,136151,104.30,136.15,8,3893,785,1296
"Magalang, Pampanga, Philippines",15.21394,120.66181,Converge,107618,109066,107.62,109.07,3,3830,1024,1564
"Binangonan, Rizal, Philippines",14.48441,121.1869,PLDT Home Fiber,106690,133414,106.69,133.41,4,3821,777,1123
"Mandaue, Cebu, Philippines",10.3279,123.94273,Globe,168917,133718,168.92,133.72,5,3794,665,874
"Balete, Batangas, Philippines",14.0092,121.10802,PLDT Home Fiber,113744,100601,113.74,100.60,8,3788,1017,1582
"La Trinidad, Benguet, Philippines",16.44844,120.59047,PLDT Home Fiber,87950,95461,87.95,95.46,9,3779,693,986
"Salvador Benedicto, Negros Occidental, Philippines",10.5887,123.23632,Globe,125234,105899,125.23,105.90,20,3778,1217,1826
"San Jose City, Nueva Ecija, Philippines",15.79188,120.99008,Converge,111025,114510,111.03,114.51,6,3777,614,895
"Bago, Negros Occidental, Philippines",10.53757,122.83609,Globe,113011,101801,113.01,101.80,9,3771,1138,1764
"Bay, Laguna, Philippines",14.14064,121.26836,Converge,204068,207079,204.07,207.08,4,3725,1039,1882
"San Pedro, Laguna, Philippines",14.36443,121.06192,PLDT,108195,104903,108.20,104.90,7,3678,753,998
"Lucena City, Quezon, Philippines",13.94139,121.62345,Converge,109465,107811,109.47,107.81,10,3667,525,825
"Porac, Pampanga, Philippines",15.06974,120.55007,PLDT Home Fiber,93939,105764,93.94,105.76,7,3662,624,894
"Lipa City, Batangas, Philippines",13.94047,121.19395,PLDT,93741,97397,93.74,97.40,8,3625,772,1073
"Lambunao, Iloilo, Philippines",11.12265,122.37876,PLDT,52805,54870,52.81,54.87,16,3548,972,1396
"Alicia, Isabela, Philippines",16.80691,121.69674,Converge,105435,106420,105.44,106.42,9,3537,741,1402
"Santa Maria, Bulacan, Philippines",14.82898,120.97616,Globe,153206,132825,153.21,132.83,7,3534,405,505
"Sagay City, Negros Occidental, Philippines",10.84555,123.37106,PLDT Home Fiber,91219,94738,91.22,94.74,9,3509,810,1288
"Mariveles, Bataan, Philippines",14.4354,120.49003,Converge,81537,94908,81.54,94.91,13,3485,359,479
"Liloan, Cebu, Philippines",10.39926,124.00002,Globe,127694,109363,127.69,109.36,6,3410,830,1189
"Baguio, Benguet, Philippines",16.41297,120.5914,Globe,104600,95189,104.60,95.19,6,3391,596,772
"Calumpit, Bulacan, Philippines",14.91518,120.7662,PLDT Home Fiber,94860,95435,94.86,95.44,8,3334,692,1051
"Dolores, Quezon, Philippines",14.00193,121.41133,PLDT Home Fiber,95703,106113,95.70,106.11,5,3329,850,1353
"Orani, Bataan, Philippines",14.80086,120.53616,Converge,103045,107553,103.05,107.55,6,3313,640,929
"Tagum, Davao del Norte, Philippines",7.44742,125.80246,PLDT Home Fiber,92144,91483,92.14,91.48,8,3294,666,910
"Koronadal, South Cotabato, Philippines",6.50044,124.84333,PLDT Home Fiber,95917,92467,95.92,92.47,10,3264,501,649
"Mambusao, Capiz, Philippines",11.44257,122.59383,Converge,185970,160802,185.97,160.80,12,3258,821,1430
"Guiguinto, Bulacan, Philippines",14.82832,120.88429,PLDT Home Fiber,113270,111078,113.27,111.08,8,3256,677,894
"San Manuel, Pangasinan, Philippines",16.10561,120.67751,PLDT Home Fiber,92670,97866,92.67,97.87,7,3255,781,1275
"Polomolok, South Cotabato, Philippines",6.22451,125.06084,PLDT Home Fiber,91826,95458,91.83,95.46,10,3243,556,766
"Calatrava, Negros Occidental, Philippines",10.62843,123.39349,PLDT Home Fiber,85128,93191,85.13,93.19,8,3231,880,1344
"Cabuyao City, Laguna, Philippines",14.27433,121.11961,PLDT,80843,90634,80.84,90.63,10,3214,752,1076
"Apalit, Pampanga, Philippines",14.95255,120.76688,PLDT Home Fiber,92647,94529,92.65,94.53,7,3205,754,1198
"Gapan City, Nueva Ecija, Philippines",15.29121,121.01057,PLDT Home Fiber,91428,91714,91.43,91.71,12,3203,593,989
"Silang, Cavite, Philippines",14.22025,120.96469,Globe,86823,78718,86.82,78.72,6,3185,711,1157
"Marilao, Bulacan, Philippines",14.77237,120.96001,PLDT,55133,53942,55.13,53.94,12,3184,825,1229
"Tuba, Benguet, Philippines",16.39277,120.56034,PLDT Home Fiber,94646,97549,94.65,97.55,7,3165,797,1273
"Tiaong, Quezon, Philippines",13.92962,121.34273,Converge,193601,194513,193.60,194.51,5,3153,760,1303
"Tagaytay City, Cavite, Philippines",14.11541,120.96202,PLDT,87815,93917,87.82,93.92,9,3138,648,1011
"Santo Tomas, Pampanga, Philippines",14.99601,120.70407,PLDT Home Fiber,107131,95039,107.13,95.04,7,3134,912,1381
"Arayat, Pampanga, Philippines",15.15443,120.771,Globe,119867,104365,119.87,104.37,6,3131,729,1157
"Santo Nino, Cagayan, Philippines",17.91267,121.49132,Converge,99216,104316,99.22,104.32,12,3129,606,1153
"Quezon, Nueva Ecija, Philippines",15.56953,120.82692,Globe,243708,226512,243.71,226.51,5,3121,917,1424
"Bokod, Benguet, Philippines",16.45641,120.78097,PLDT Home Fiber,92882,97317,92.88,97.32,6,3068,771,1161
"Kidapawan, Cotabato, Philippines",7.02127,125.09019,Globe,61942,91438,61.94,91.44,8,3066,886,1463
"Guimba, Nueva Ecija, Philippines",15.65641,120.76767,Globe,213949,200059,213.95,200.06,5,3058,923,1374
"General Trias, Cavite, Philippines",14.38159,120.87915,PLDT,108957,118499,108.96,118.50,8,3055,614,831
"Taysan, Batangas, Philippines",13.76108,121.2283,Globe,141500,128378,141.50,128.38,8,3050,954,1393
"Cabanatuan City, Nueva Ecija, Philippines",15.49943,121.01057,PLDT,75819,77565,75.82,77.57,12,3031,752,1095
"San Miguel, Bulacan, Philippines",15.14158,120.9751,PLDT Home Fiber,93377,87582,93.38,87.58,11,3029,556,838
"Antipas, Cotabato, Philippines",7.27386,125.01679,PLDT Home Fiber,96263,95358,96.26,95.36,8,3022,977,1395
"Consolacion, Cebu, Philippines",10.37581,123.95694,Globe,94272,88973,94.27,88.97,5,3010,708,1000
"Tacloban City, Leyte, Philippines",11.22238,124.99221,PLDT,85721,91761,85.72,91.76,6,2987,633,881
"Daet, Camarines Norte, Philippines",14.10303,122.9325,PLDT,75893,76138,75.89,76.14,7,2984,357,511
"Tagum, Davao del Norte, Philippines",7.44742,125.80246,Globe,95940,105722,95.94,105.72,7,2965,329,418
"Muntinlupa, Metro Manila, Philippines",14.39453,121.04483,Globe,195864,154519,195.86,154.52,6,2887,502,670
"Candaba, Pampanga, Philippines",15.09289,120.8277,Globe,154143,126395,154.14,126.40,6,2868,771,1174
"Panglao, Bohol, Philippines",9.56947,123.78721,Converge,79887,70425,79.89,70.43,27,2807,155,247
"Tuburan, Cebu, Philippines",10.66879,123.86345,Globe,118465,104706,118.47,104.71,21,2782,802,1129
"Liliw, Laguna, Philippines",14.12617,121.4399,PLDT Home Fiber,112476,165515,112.48,165.52,8,2780,674,1112
"Tuguegarao City, Cagayan, Philippines",17.60306,121.75374,Converge,85363,82281,85.36,82.28,12,2763,520,763
"Compostela, Cebu, Philippines",10.45408,124.013,PLDT Home Fiber,111493,169090,111.49,169.09,5,2748,862,1314
"Porac, Pampanga, Philippines",15.06974,120.55007,Converge,101251,117152,101.25,117.15,3,2734,459,601
"Naic, Cavite, Philippines",14.29649,120.79246,PLDT,94624,98019,94.62,98.02,9,2733,717,1045
"General Santos City (Dadiangas), South Cotabato, Philippines",6.14327,125.19286,PLDT,78504,71545,78.50,71.55,10,2700,580,805
"Mandaue, Cebu, Philippines",10.3279,123.94273,PLDT,72878,77627,72.88,77.63,4,2678,645,906
"Dumaguete City, Negros Oriental, Philippines",9.29841,123.29249,PLDT,92616,86276,92.62,86.28,11,2676,331,478
"Candelaria, Quezon, Philippines",13.94899,121.42276,PLDT Home Fiber,95618,101046,95.62,101.05,7,2675,684,1060
"Limay, Bataan, Philippines",14.53661,120.56245,Converge,61917,83328,61.92,83.33,189,2658,251,307
"Palayan City, Nueva Ecija, Philippines",15.53906,121.09083,Converge,99798,104935,99.80,104.94,7,2645,522,789
"Plaridel, Bulacan, Philippines",14.88591,120.85932,PLDT,80083,88603,80.08,88.60,8,2641,513,788
"San Mateo, Rizal, Philippines",14.69539,121.11767,Converge,147959,135148,147.96,135.15,4,2640,629,794
"Pulilan, Bulacan, Philippines",14.90243,120.8459,PLDT Home Fiber,96980,115863,96.98,115.86,6,2637,582,873
"Rodriguez, Rizal, Philippines",14.73202,121.14516,Converge,155696,160580,155.70,160.58,4,2636,559,724
"Malabon, Metro Manila, Philippines",14.65793,120.95118,Globe,203786,168188,203.79,168.19,5,2629,407,529
"Lubao, Pampanga, Philippines",14.92678,120.58795,PLDT Home Fiber,100407,103516,100.41,103.52,7,2624,746,1074
"Naga City, Camarines Sur, Philippines",13.6475,123.27003,Globe,105811,98753,105.81,98.75,12,2620,384,512
"San Fernando, Bukidnon, Philippines",7.84637,125.34663,Globe,123823,252370,123.82,252.37,6,2620,589,788
"City of Guihulngan, Negros Oriental, Philippines",10.18323,123.21385,PLDT Home Fiber,91855,96127,91.86,96.13,9,2601,762,1116
"Kayapa, Nueva Vizcaya, Philippines",16.49326,120.94174,PLDT Home Fiber,91620,104103,91.62,104.10,6,2584,521,849
"Talisay, Cebu, Philippines",10.25859,123.82413,PLDT,126285,136794,126.29,136.79,3,2582,509,653
"Puerto Princesa City, Palawan, Philippines",9.78563,118.62648,PLDT Home Fiber,96859,103533,96.86,103.53,21,2580,459,623
"Dona Remedios Trinidad, Bulacan, Philippines",15.11427,121.21685,PLDT,51638,27734,51.64,27.73,13,2572,520,770
"La Carlota City, Negros Occidental, Philippines",10.41437,122.97757,PLDT Home Fiber,98170,139283,98.17,139.28,8,2564,753,1144
"Roxas City, Capiz, Philippines",11.55288,122.74072,PLDT Home Fiber,81697,94161,81.70,94.16,12,2543,444,645
"Malasiqui, Pangasinan, Philippines",15.92028,120.41443,PLDT Home Fiber,92093,121432,92.09,121.43,10,2537,566,938
"Marilao, Bulacan, Philippines",14.77237,120.96001,Globe,169622,190596,169.62,190.60,8,2528,403,520
"San Fabian, Pangasinan, Philippines",16.14188,120.44729,PLDT,77215,78251,77.22,78.25,7,2487,390,614
"Angeles, Pampanga, Philippines",15.16061,120.60908,Globe,118939,108508,118.94,108.51,6,2465,388,525
"Trece Martires City, Cavite, Philippines",14.28222,120.86837,Globe,224896,206354,224.90,206.35,6,2458,597,938
"San Simon, Pampanga, Philippines",14.98432,120.75127,PLDT Home Fiber,91081,94650,91.08,94.65,9,2450,547,876
"Muñoz, Nueva Ecija, Philippines",15.70664,120.9029,PLDT Home Fiber,85183,96688,85.18,96.69,12,2440,538,770
"Taytay, Rizal, Philippines",14.55288,121.12571,Globe,190885,151264,190.89,151.26,5,2440,485,643
"Tanauan City, Batangas, Philippines",14.08354,121.14762,Globe,164614,132138,164.61,132.14,6,2435,701,987
"Naic, Cavite, Philippines",14.29649,120.79246,PLDT Home Fiber,105681,103595,105.68,103.60,8,2428,307,394
"Mabalacat City, Pampanga, Philippines",15.24525,120.56567,PLDT Home Fiber,114134,118656,114.13,118.66,7,2427,475,652
"Lipa City, Batangas, Philippines",13.94047,121.19395,Globe,116495,107368,116.50,107.37,7,2424,617,858
"Talisay, Cebu, Philippines",10.25859,123.82413,Converge,158098,177739,158.10,177.74,9,2423,360,541
"Danao, Cebu, Philippines",10.52013,124.02712,PLDT,56641,69287,56.64,69.29,6,2421,276,366
"Cagayan De Oro City, Misamis Oriental, Philippines",8.48029,124.64975,PLDT,55939,58232,55.94,58.23,14,2421,663,956
"Batangas City, Batangas, Philippines",13.75641,121.05833,PLDT,79892,84904,79.89,84.90,9,2412,578,905
"Iligan City, Lanao del Norte, Philippines",8.22707,124.46418,Globe,92161,98394,92.16,98.39,12,2411,354,458
"Toledo, Cebu, Philippines",10.38705,123.65017,Globe,133026,115160,133.03,115.16,18,2408,828,1127
"Magalang, Pampanga, Philippines",15.21394,120.66181,PLDT Home Fiber,86513,94129,86.51,94.13,10,2408,622,935
"Arakan, Cotabato, Philippines",7.35122,125.17087,PLDT Home Fiber,95484,95155,95.48,95.16,9,2404,721,1050
"San Juan, Batangas, Philippines",13.75044,121.37703,PLDT Home Fiber,104623,135730,104.62,135.73,8,2393,604,905
"Matanao, Davao del Sur, Philippines",6.70421,125.22584,PLDT Home Fiber,111382,110646,111.38,110.65,9,2391,683,1027
"Lubao, Pampanga, Philippines",14.92678,120.58795,Converge,52112,54663,52.11,54.66,4,2388,453,686
"Palo, Leyte, Philippines",11.15847,124.99191,PLDT,60061,69612,60.06,69.61,16,2377,336,450
"Pinamungahan, Cebu, Philippines",10.26958,123.63996,Globe,119117,106364,119.12,106.36,20,2377,838,1192
"San Juan City, Metro Manila, Philippines",14.60196,121.0355,Globe,231620,205127,231.62,205.13,5,2375,581,846
"Sariaya, Quezon, Philippines",13.96301,121.52388,PLDT Home Fiber,96201,101578,96.20,101.58,6,2366,571,915
"San Fernando City, La Union, Philippines",16.61592,120.32102,PLDT Home Fiber,98413,99579,98.41,99.58,3,2363,369,498
"Lucena City, Quezon, Philippines",13.94139,121.62345,PLDT,88759,93358,88.76,93.36,6,2358,570,793
"Biñan, Laguna, Philippines",14.31456,121.08316,Globe,161719,135195,161.72,135.20,6,2342,553,764
"Carmona, Cavite, Philippines",14.3135,121.05712,Globe,197606,167753,197.61,167.75,5,2340,604,875
"Dipolog City, Zamboanga del Norte, Philippines",8.58717,123.34035,PLDT Home Fiber,99258,96521,99.26,96.52,11,2332,382,508
"San Isidro, Nueva Ecija, Philippines",15.29656,120.9073,PLDT Home Fiber,93483,96048,93.48,96.05,11,2331,565,948
"Balanga City, Bataan, Philippines",14.67454,120.47033,PLDT Home Fiber,97310,102877,97.31,102.88,7,2331,503,650
"Bocaue, Bulacan, Philippines",14.7943,120.93073,PLDT,77821,83966,77.82,83.97,11,2328,487,738
"Zamboanga City, Zamboanga del Sur, Philippines",6.90437,122.07612,Converge,49700,97464,49.70,97.46,20,2327,378,468
"Consolacion, Cebu, Philippines",10.37581,123.95694,PLDT,97094,100090,97.09,100.09,9,2309,517,697
"Dumaguete City, Negros Oriental, Philippines",9.29841,123.29249,PLDT Home Fiber,121023,170419,121.02,170.42,11,2296,316,389
"Talisay, Negros Occidental, Philippines",10.74828,122.98012,PLDT Home Fiber,95795,115009,95.80,115.01,13,2273,549,831
"Cadiz City, Negros Occidental, Philippines",10.86192,123.23632,PLDT,53480,66942,53.48,66.94,10,2263,465,759
"Bulakan, Bulacan, Philippines",14.79484,120.87889,PLDT,75598,93789,75.60,93.79,6,2262,586,884
"Malvar, Batangas, Philippines",14.04329,121.15875,PLDT Home Fiber,110301,127073,110.30,127.07,9,2257,505,745
"Matalam, Cotabato, Philippines",7.17236,124.92861,PLDT,97671,94989,97.67,94.99,9,2250,787,1068
"Tacurong City, Sultan Kudarat, Philippines",6.6866,124.66353,PLDT Home Fiber,75662,73494,75.66,73.49,11,2241,425,602
"Silang, Cavite, Philippines",14.22025,120.96469,PLDT,105747,115183,105.75,115.18,8,2229,355,512
"Concepcion, Tarlac, Philippines",15.324,120.65596,PLDT,45382,50242,45.38,50.24,11,2218,392,547
"Santa Fe, Nueva Vizcaya, Philippines",16.18249,120.91878,PLDT,92906,95045,92.91,95.05,6,2201,661,1052
"Malabon, Metro Manila, Philippines",14.65793,120.95118,PLDT,93254,93573,93.25,93.57,5,2193,576,837
"Naga City, Camarines Sur, Philippines",13.6475,123.27003,PLDT,59977,59449,59.98,59.45,15,2190,477,741
"General Santos City (Dadiangas), South Cotabato, Philippines",6.14327,125.19286,Converge,93406,107914,93.41,107.91,5,2176,363,460
"Legazpi City, Albay, Philippines",13.11288,123.76295,PLDT,87285,88716,87.29,88.72,9,2164,394,554
"Magalang, Pampanga, Philippines",15.21394,120.66181,PLDT,58470,65385,58.47,65.39,11,2162,431,625
"Meycauayan, Bulacan, Philippines",14.73772,120.96077,Converge,146920,128105,146.92,128.11,7,2161,445,615
"Mariveles, Bataan, Philippines",14.4354,120.49003,PLDT Home Fiber,69109,75217,69.11,75.22,9,2147,260,337
"San Pablo City, Laguna, Philippines",14.06422,121.32326,PLDT,94425,100040,94.43,100.04,8,2137,552,775
"Kabacan, Cotabato, Philippines",7.10719,124.84034,PLDT Home Fiber,85630,90509,85.63,90.51,11,2136,506,753
"SJDM, Bulacan, Philippines",14.82867,121.04324,Globe,123883,113689,123.88,113.69,7,2126,403,505
"Malolos, Bulacan, Philippines",14.86049,120.80916,Converge,100532,101280,100.53,101.28,6,2122,446,631
"Capas, Tarlac, Philippines",15.34633,120.59344,PLDT,63252,62298,63.25,62.30,9,2117,357,518
"San Jose City, Nueva Ecija, Philippines",15.79188,120.99008,PLDT Home Fiber,89535,90781,89.54,90.78,13,2109,293,377
"Surigao, Surigao del Norte, Philippines",9.79022,125.49311,PLDT Home Fiber,81275,92882,81.28,92.88,11,2109,278,366
"Rosario, Cavite, Philippines",14.41672,120.85471,PLDT Home Fiber,93239,101247,93.24,101.25,7,2104,446,658
"Talisay, Cebu, Philippines",10.25859,123.82413,Globe,152742,135220,152.74,135.22,9,2095,389,490
"San Simon, Pampanga, Philippines",14.98432,120.75127,PLDT,57113,59028,57.11,59.03,17,2077,541,779
"Malvar, Batangas, Philippines",14.04329,121.15875,PLDT,93579,93901,93.58,93.90,10,2074,611,886
"Puerto Princesa City, Palawan, Philippines",9.78563,118.62648,PLDT,74724,92053,74.72,92.05,23,2066,378,540
"Ormoc City, Leyte, Philippines",11.03843,124.61927,Globe,103594,93842,103.59,93.84,15,2065,286,392
"Talisay, Cebu, Philippines",10.25859,123.82413,PLDT Home Fiber,118886,143694,118.89,143.69,3,2064,428,545
"Calapan City, Oriental Mindoro, Philippines",13.36643,121.19395,PLDT Home Fiber,120406,122717,120.41,122.72,12,2063,300,400
"Rosario, Batangas, Philippines",13.80433,121.28552,PLDT Home Fiber,94682,96748,94.68,96.75,6,2059,428,579
"Dumanjug, Cebu, Philippines",10.02819,123.47198,PLDT Home Fiber,100067,165802,100.07,165.80,8,2052,483,752
"San Jose City, Nueva Ecija, Philippines",15.79188,120.99008,PLDT,65022,62962,65.02,62.96,15,2051,372,554
"Rizal, Nueva Ecija, Philippines",15.69357,121.10229,PLDT,71266,74324,71.27,74.32,15,2048,504,746
"Dumaguete City, Negros Oriental, Philippines",9.29841,123.29249,Globe,115932,97697,115.93,97.70,9,2039,347,483
"Bocaue, Bulacan, Philippines",14.7943,120.93073,Converge,95825,107376,95.83,107.38,8,2038,324,412
"La Paz, Tarlac, Philippines",15.4497,120.7235,PLDT Home Fiber,92557,96259,92.56,96.26,10,2035,448,701
"Silang, Cavite, Philippines",14.22025,120.96469,Converge,155941,160576,155.94,160.58,6,2034,382,547
"Umingan, Pangasinan, Philippines",15.90396,120.82692,PLDT Home Fiber,93187,97295,93.19,97.30,9,2030,412,657
"Cabiao, Nueva Ecija, Philippines",15.25221,120.85957,Globe,180297,150606,180.30,150.61,5,2026,469,756
"Talavera, Nueva Ecija, Philippines",15.58575,120.9197,PLDT Home Fiber,55182,112799,55.18,112.80,14,1995,167,223
"Nasugbu, Batangas, Philippines",14.09404,120.68901,PLDT,94958,100286,94.96,100.29,7,1985,528,843
"Mapandan, Pangasinan, Philippines",16.02726,120.45379,Converge,141949,138981,141.95,138.98,6,1962,511,844
"Legazpi City, Albay, Philippines",13.11288,123.76295,Converge,94190,85001,94.19,85.00,5,1957,296,491
"Kapangan, Benguet, Philippines",16.61238,120.59698,PLDT Home Fiber,95666,98669,95.67,98.67,6,1940,549,884
"Meycauayan, Bulacan, Philippines",14.73772,120.96077,Globe,144767,126301,144.77,126.30,7,1939,387,496
"Trece Martires City, Cavite, Philippines",14.28222,120.86837,PLDT Home Fiber,137671,160055,137.67,160.06,4,1932,429,578
"Vallehermoso, Negros Oriental, Philippines",10.33905,123.29249,PLDT Home Fiber,93860,132128,93.86,132.13,8,1931,579,886
"Silay, Negros Occidental, Philippines",10.79968,122.97605,PLDT Home Fiber,90279,95311,90.28,95.31,14,1927,535,822
"Minglanilla, Cebu, Philippines",10.24543,123.79599,PLDT,92367,96701,92.37,96.70,4,1924,384,497
"Plaridel, Bulacan, Philippines",14.88591,120.85932,PLDT Home Fiber,96706,107091,96.71,107.09,8,1922,413,632
"Pateros, Metro Manila, Philippines",14.54838,121.07077,Converge,199501,198173,199.50,198.17,3,1915,546,885
"Zaragoza, Nueva Ecija, Philippines",15.46003,120.79246,Globe,174290,151513,174.29,151.51,5,1903,578,941
"Makilala, Cotabato, Philippines",6.92343,125.08286,PLDT Home Fiber,97172,97293,97.17,97.29,9,1899,519,756
"Infanta, Quezon, Philippines",14.74071,121.6451,PLDT,61155,62620,61.16,62.62,12,1897,454,669
"Santiago, Isabela, Philippines",16.69679,121.55865,PLDT Home Fiber,91245,88641,91.25,88.64,15,1896,336,455
"Pasay City, Metro Manila, Philippines",14.53767,121.00081,Globe,120495,105748,120.50,105.75,4,1888,442,636
"Santa Ana, Pampanga, Philippines",15.09442,120.76623,PLDT Home Fiber,87277,92190,87.28,92.19,10,1887,384,552
"Bakun, Benguet, Philippines",16.80796,120.68901,PLDT Home Fiber,93594,94603,93.59,94.60,6,1879,565,800
"Jaen, Nueva Ecija, Philippines",15.39558,120.87286,PLDT Home Fiber,89580,93327,89.58,93.33,10,1874,418,638
"Butuan City, Agusan Del Norte, Philippines",8.94753,125.54063,Converge,138879,138698,138.88,138.70,11,1864,214,268
"Calapan City, Oriental Mindoro, Philippines",13.36643,121.19395,PLDT,52639,54850,52.64,54.85,15,1852,526,752
"Carmona, Cavite, Philippines",14.3135,121.05712,Converge,155561,166252,155.56,166.25,7,1837,320,483
"Tagbilaran City, Bohol, Philippines",9.6534,123.86703,PLDT Home Fiber,90148,110743,90.15,110.74,10,1837,350,464
"Tanjay City, Negros Oriental, Philippines",9.49579,122.9663,PLDT Home Fiber,93239,94908,93.24,94.91,12,1825,311,462
"Cabuyao City, Laguna, Philippines",14.27433,121.11961,Globe,113831,104202,113.83,104.20,7,1819,533,803
"Digos, Davao del Sur, Philippines",6.74347,125.35515,Globe,104224,113750,104.22,113.75,4,1810,179,232
"Guagua, Pampanga, Philippines",14.96374,120.63244,Converge,47439,44384,47.44,44.38,4,1796,392,577
"Compostela, Cebu, Philippines",10.45408,124.013,Globe,128086,109349,128.09,109.35,7,1790,513,764
"Roxas City, Capiz, Philippines",11.55288,122.74072,Globe,113686,95704,113.69,95.70,17,1788,195,244
"Cavite, Philippines",14.48151,120.90833,PLDT Home Fiber,135624,160967,135.62,160.97,4,1786,257,337
"Iligan City, Lanao del Norte, Philippines",8.22707,124.46418,PLDT,50440,66289,50.44,66.29,21,1778,440,620
"Cotabato City, Maguindanao, Philippines",7.20467,124.23104,PLDT Home Fiber,93668,97233,93.67,97.23,13,1777,355,472
"Daraga, Albay, Philippines",13.12278,123.69588,Globe,116732,104316,116.73,104.32,19,1771,142,178
"Guimba, Nueva Ecija, Philippines",15.65641,120.76767,PLDT Home Fiber,85301,94238,85.30,94.24,12,1764,279,409
"Kabankalan City, Negros Occidental, Philippines",9.91341,122.85358,PLDT,43120,55481,43.12,55.48,11,1761,173,238
"San Pedro, Laguna, Philippines",14.36443,121.06192,Globe,145516,136790,145.52,136.79,9,1760,356,464
"Hagonoy, Bulacan, Philippines",14.83564,120.73371,PLDT,59463,63423,59.46,63.42,9,1756,275,355
"Umingan, Pangasinan, Philippines",15.90396,120.82692,Globe,61448,53532,61.45,53.53,6,1749,421,898
"Subic Bay Freeport Zone, Philippines",14.80319,120.30033,PLDT Home Fiber,120769,131481,120.77,131.48,7,1745,386,542
"Tanay, Rizal, Philippines",14.61419,121.37703,PLDT,51930,60407,51.93,60.41,8,1741,387,595
"Himamaylan, Negros Occidental, Philippines",10.10162,122.86995,PLDT Home Fiber,89035,88320,89.04,88.32,15,1741,69,98
"Bayombong, Nueva Vizcaya, Philippines",16.48042,121.14813,Converge,99430,104807,99.43,104.81,9,1733,354,510
"Anao, Tarlac, Philippines",15.7435,120.61424,PLDT,68303,74298,68.30,74.30,14,1732,505,753
"Daraga, Albay, Philippines",13.12278,123.69588,Converge,73371,75788,73.37,75.79,13,1694,210,342
"Pavia, Iloilo, Philippines",10.7748,122.54261,PLDT Home Fiber,134422,158514,134.42,158.51,12,1693,244,315
"Carmen, Cebu, Philippines",10.58876,123.96385,Globe,125862,105992,125.86,105.99,7,1693,522,803
"Santa Maria, Bulacan, Philippines",14.82898,120.97616,PLDT,76353,79821,76.35,79.82,9,1687,419,656
"Santo Tomas, Batangas, Philippines",14.08754,121.17764,Converge,97881,154653,97.88,154.65,8,1685,197,258
"Pagbilao, Quezon, Philippines",13.99683,121.73095,PLDT Home Fiber,97199,105592,97.20,105.59,6,1678,410,685
"Imus, Cavite, Philippines",14.42764,120.93724,PLDT,89913,83100,89.91,83.10,7,1675,387,511
"Daet, Camarines Norte, Philippines",14.10303,122.9325,Converge,102394,91586,102.39,91.59,5,1673,248,375
"Aringay, La Union, Philippines",16.40163,120.40119,PLDT,52645,67384,52.65,67.38,10,1671,362,533
"Puerto Princesa City, Palawan, Philippines",9.78563,118.62648,Converge,79920,112486,79.92,112.49,16,1670,268,328
"Virac, Catanduanes, Philippines",13.61939,124.17544,PLDT Home Fiber,80564,79491,80.56,79.49,10,1663,224,302
"Tanza, Cavite, Philippines",14.34293,120.85032,Globe,151457,119387,151.46,119.39,7,1660,344,446
"Pagadian City, Zamboanga del Sur, Philippines",7.86265,123.37106,PLDT Home Fiber,93057,104823,93.06,104.82,6,1652,287,366
"Taal, Batangas, Philippines",13.87826,120.92508,Globe,213092,204248,213.09,204.25,6,1646,479,741
"Cabuyao City, Laguna, Philippines",14.27433,121.11961,Converge,98636,117737,98.64,117.74,6,1642,225,378
"Balanga City, Bataan, Philippines",14.67454,120.47033,Converge,144444,107730,144.44,107.73,5,1622,325,470
"Liloan, Cebu, Philippines",10.39926,124.00002,Converge,147733,183264,147.73,183.26,6,1616,220,310
"Lucban, Quezon, Philippines",14.1144,121.55472,PLDT Home Fiber,96221,107466,96.22,107.47,7,1612,441,683
"Liloan, Cebu, Philippines",10.39926,124.00002,PLDT Home Fiber,107792,164890,107.79,164.89,5,1610,394,573
"Catarman, Northern Samar, Philippines",12.44271,124.61927,PLDT Home Fiber,113023,182726,113.02,182.73,16,1601,162,216
"Pateros, Metro Manila, Philippines",14.54838,121.07077,PLDT Home Fiber,118329,153536,118.33,153.54,4,1598,359,510
"Angono, Rizal, Philippines",14.52592,121.15321,Converge,202266,208480,202.27,208.48,3,1598,495,697
"Malaybalay City, Bukidnon, Philippines",8.15775,125.17087,PLDT,73142,37331,73.14,37.33,10,1595,428,622
"Olongapo City, Zambales, Philippines",14.88739,120.36661,PLDT Home Fiber,123815,92807,123.82,92.81,8,1595,363,483
"Natividad, Pangasinan, Philippines",16.03821,120.83841,PLDT Home Fiber,92409,95912,92.41,95.91,7,1592,377,569
"Sorsogon City, Sorsogon, Philippines",12.97888,123.98477,PLDT,79850,89645,79.85,89.65,18,1591,318,419
"Santa Fe, Nueva Vizcaya, Philippines",16.18249,120.91878,PLDT Home Fiber,101110,106197,101.11,106.20,5,1587,492,782
"Sindangan, Zamboanga del Norte, Philippines",8.19151,123.05639,PLDT Home Fiber,49514,53222,49.51,53.22,12,1586,123,156
"Santo Tomas, Davao del Norte, Philippines",7.50929,125.63142,PLDT Home Fiber,78567,83330,78.57,83.33,9,1585,213,285
"General Mariano Alvarez, Cavite, Philippines",14.29525,121.0071,PLDT Home Fiber,91733,145828,91.73,145.83,8,1578,202,242
"Trece Martires City, Cavite, Philippines",14.28222,120.86837,Converge,113486,120526,113.49,120.53,6,1566,350,453
"Bayambang, Pangasinan, Philippines",15.80947,120.45714,PLDT Home Fiber,103584,152391,103.58,152.39,12,1563,261,422
"Barili, Cebu, Philippines",10.1254,123.55041,PLDT Home Fiber,91702,110655,91.70,110.66,7,1561,368,576
"Indang, Cavite, Philippines",14.19204,120.87286,PLDT,105584,111748,105.58,111.75,8,1546,361,517
"Dumaguete City, Negros Oriental, Philippines",9.29841,123.29249,Converge,119531,109166,119.53,109.17,22,1545,266,355
"Santo Tomas, Batangas, Philippines",14.08754,121.17764,PLDT,92660,94008,92.66,94.01,9,1540,458,690
"Old Kaabakan, Philippines",7.22147,124.85635,PLDT Home Fiber,95167,95226,95.17,95.23,8,1525,427,608
"Polomolok, South Cotabato, Philippines",6.22451,125.06084,Globe,66735,109845,66.74,109.85,12,1523,166,199
"Panabo City, Davao del Norte, Philippines",7.30822,125.68662,Globe,133664,130222,133.66,130.22,10,1523,143,176
"Amulung, Cagayan, Philippines",17.83589,121.7233,Converge,97446,100340,97.45,100.34,13,1514,297,602
"Ormoc City, Leyte, Philippines",11.03843,124.61927,Converge,93697,115157,93.70,115.16,14,1509,221,328
"Rodriguez, Rizal, Philippines",14.73202,121.14516,PLDT,56898,59809,56.90,59.81,6,1508,288,387
"President Roxas, Cotabato, Philippines",7.37928,125.06084,PLDT,96666,96566,96.67,96.57,8,1507,533,753
"Santa Rosa, Nueva Ecija, Philippines",15.42502,120.93838,PLDT Home Fiber,82118,93419,82.12,93.42,11,1505,274,407
"Paniqui, Tarlac, Philippines",15.66603,120.53942,PLDT Home Fiber,96320,96978,96.32,96.98,12,1505,217,287
"City of Santa Rosa, Laguna, Philippines",14.31471,121.11232,Globe,129465,124643,129.47,124.64,7,1494,302,413
"Malaybalay City, Bukidnon, Philippines",8.15775,125.17087,PLDT Home Fiber,95261,103248,95.26,103.25,9,1493,336,477
"Mexico, Pampanga, Philippines",15.06457,120.72033,PLDT,62853,75215,62.85,75.22,13,1492,373,540
"Carmen, Cotabato, Philippines",7.38261,124.81826,PLDT Home Fiber,94652,100193,94.65,100.19,9,1488,503,703
"Meycauayan, Bulacan, Philippines",14.73772,120.96077,PLDT,88920,94081,88.92,94.08,7,1482,397,584
"San Luis, Pampanga, Philippines",15.03986,120.81544,PLDT Home Fiber,93741,93521,93.74,93.52,7,1477,347,517
"Rodriguez, Rizal, Philippines",14.73202,121.14516,Globe,156409,133284,156.41,133.28,4,1469,240,319
"San Ildefonso, Bulacan, Philippines",15.07717,120.94171,PLDT,50304,56984,50.30,56.98,12,1467,192,251
"Malaybalay City, Bukidnon, Philippines",8.15775,125.17087,Converge,85384,91792,85.38,91.79,10,1467,281,326
"Baliwag, Bulacan, Philippines",14.96569,120.89431,PLDT,70020,68080,70.02,68.08,8,1466,343,476
"Tiaong, Quezon, Philippines",13.92962,121.34273,PLDT Home Fiber,94160,96996,94.16,97.00,7,1460,353,531
"Olongapo City, Zambales, Philippines",14.88739,120.36661,PLDT,109493,64197,109.49,64.20,7,1455,336,480
"Escalante City, Negros Occidental, Philippines",10.84117,123.49908,PLDT Home Fiber,85966,93442,85.97,93.44,10,1452,373,584
"General Mamerto Natividad, Nueva Ecija, Philippines",15.58788,121.04498,PLDT Home Fiber,46971,63958,46.97,63.96,12,1451,126,185
"Surallah, South Cotabato, Philippines",6.3195,124.75198,PLDT Home Fiber,78045,73713,78.05,73.71,11,1447,229,312
"Cordova, Cebu, Philippines",10.25278,123.9494,Converge,72049,169499,72.05,169.50,22,1444,187,247
"Alcala, Pangasinan, Philippines",15.8546,120.53942,PLDT Home Fiber,92806,124188,92.81,124.19,12,1440,346,552
"Dagupan City, Pangasinan, Philippines",16.03375,120.33202,PLDT,59223,64722,59.22,64.72,6,1440,334,513
"Balanga City, Bataan, Philippines",14.67454,120.47033,PLDT,77211,80081,77.21,80.08,11,1434,375,553
"Floridablanca, Pampanga, Philippines",14.9619,120.49471,Converge,79810,79001,79.81,79.00,4,1424,341,469
"Ormoc City, Leyte, Philippines",11.03843,124.61927,PLDT Home Fiber,87106,88086,87.11,88.09,5,1413,249,323
"Panabo City, Davao del Norte, Philippines",7.30822,125.68662,PLDT Home Fiber,100477,93153,100.48,93.15,8,1398,348,458
"Alaminos City, Pangasinan, Philippines",16.15053,119.98562,PLDT Home Fiber,68357,95782,68.36,95.78,9,1393,201,263
"Minglanilla, Cebu, Philippines",10.24543,123.79599,Converge,121653,171621,121.65,171.62,13,1391,213,320
"Urdaneta City, Pangasinan, Philippines",15.98194,120.59698,PLDT Home Fiber,74636,93758,74.64,93.76,9,1389,317,470
"Jaen, Nueva Ecija, Philippines",15.39558,120.87286,Globe,166445,133634,166.45,133.63,5,1383,339,521
"Talisay, Batangas, Philippines",14.11598,121.04498,PLDT Home Fiber,116589,97607,116.59,97.61,6,1375,403,613
"Tanauan, Leyte, Philippines",11.07765,124.98373,PLDT,64907,83346,64.91,83.35,21,1372,232,329
"Obando, Bulacan, Philippines",14.70986,120.93674,PLDT,74477,90310,74.48,90.31,5,1370,463,699
"Pili, Camarines Sur, Philippines",13.55521,123.28126,PLDT Home Fiber,79803,84302,79.80,84.30,8,1369,209,307
"Calatrava, Negros Occidental, Philippines",10.62843,123.39349,PLDT,77472,91304,77.47,91.30,9,1367,443,663
"Bansalan, Davao del Sur, Philippines",6.84825,125.22584,Globe,61494,92741,61.49,92.74,6,1358,463,760
"Dinalupihan, Bataan, Philippines",14.88605,120.44729,PLDT Home Fiber,122678,122728,122.68,122.73,8,1352,214,266
"Talisay, Negros Occidental, Philippines",10.74828,122.98012,PLDT,80315,82614,80.32,82.61,21,1336,197,299
"San Isidro, Nueva Ecija, Philippines",15.29656,120.9073,Globe,151478,116910,151.48,116.91,6,1330,386,544
"Oton, Iloilo, Philippines",10.69251,122.47868,PLDT Home Fiber,55315,71843,55.32,71.84,11,1329,128,160
"Gerona, Tarlac, Philippines",15.60489,120.59698,PLDT Home Fiber,68417,70683,68.42,70.68,11,1324,211,286
"General Mariano Alvarez, Cavite, Philippines",14.29525,121.0071,Globe,129449,115145,129.45,115.15,5,1323,315,525
"Pandi, Bulacan, Philippines",14.87572,120.95941,PLDT,76525,80300,76.53,80.30,11,1319,323,434
"Marawi City, Lanao del Sur, Philippines",8.0292,124.29772,Globe,45645,52501,45.65,52.50,9,1318,132,171
"Cuyapo, Nueva Ecija, Philippines",15.79995,120.68901,PLDT Home Fiber,90586,94416,90.59,94.42,13,1316,205,320
"Kalibo, Aklan, Philippines",11.70734,122.36986,Converge,98476,83692,98.48,83.69,16,1308,192,264
"Cotabato City, Maguindanao, Philippines",7.20467,124.23104,PLDT,52081,48380,52.08,48.38,16,1308,328,462
"Bacolor, Pampanga, Philippines",14.99692,120.65235,Converge,107774,115285,107.77,115.29,4,1305,256,335
"Legazpi City, Albay, Philippines",13.11288,123.76295,Globe,107221,84928,107.22,84.93,21,1304,239,318
"Tacloban City, Leyte, Philippines",11.22238,124.99221,PLDT Home Fiber,104134,141529,104.13,141.53,7,1296,193,266
"Binangonan, Rizal, Philippines",14.48441,121.1869,Globe,154809,128939,154.81,128.94,4,1293,221,280
"Masbate City, Masbate, Philippines",12.31777,123.55041,PLDT,93911,91551,93.91,91.55,19,1293,198,279
"Pili, Camarines Sur, Philippines",13.55521,123.28126,PLDT,37007,36991,37.01,36.99,17,1288,135,194
"Santo Tomas, Batangas, Philippines",14.08754,121.17764,Globe,158973,154503,158.97,154.50,7,1282,339,437
"Plaridel, Bulacan, Philippines",14.88591,120.85932,Converge,94853,93363,94.85,93.36,7,1281,251,330
"Tacloban City, Leyte, Philippines",11.22238,124.99221,Globe,124429,108726,124.43,108.73,16,1277,225,294
"Orion, Bataan, Philippines",14.61604,120.56431,Converge,76577,94363,76.58,94.36,128,1270,99,126
"Tuguegarao City, Cagayan, Philippines",17.60306,121.75374,PLDT Home Fiber,81318,74783,81.32,74.78,12,1270,266,374
"Dona Remedios Trinidad, Bulacan, Philippines",15.11427,121.21685,Converge,140549,103978,140.55,103.98,10,1269,263,333
"Toledo, Cebu, Philippines",10.38705,123.65017,PLDT,29112,23140,29.11,23.14,7,1268,202,275
"Toboso, Negros Occidental, Philippines",10.71769,123.46077,PLDT Home Fiber,91515,94821,91.52,94.82,9,1266,432,621
"Calbayog, Samar, Philippines",12.0685,124.59081,PLDT Home Fiber,116406,144760,116.41,144.76,11,1265,129,167
"Puerto Princesa City, Palawan, Philippines",9.78563,118.62648,Globe,113379,105472,113.38,105.47,19,1264,235,355
"Sison, Pangasinan, Philippines",16.14981,120.59698,PLDT Home Fiber,80645,94891,80.65,94.89,8,1259,289,467
"General Mariano Alvarez, Cavite, Philippines",14.29525,121.0071,PLDT,145325,162150,145.33,162.15,7,1256,229,284
"Sibonga, Cebu, Philippines",10.01547,123.584,PLDT Home Fiber,90053,102723,90.05,102.72,8,1252,228,343
"General Mariano Alvarez, Cavite, Philippines",14.29525,121.0071,Converge,151706,187481,151.71,187.48,7,1243,154,272
"Lubao, Pampanga, Philippines",14.92678,120.58795,PLDT,55464,56126,55.46,56.13,13,1239,311,474
"Sagay City, Negros Occidental, Philippines",10.84555,123.37106,PLDT,48346,52134,48.35,52.13,9,1235,274,405
"Tagbilaran City, Bohol, Philippines",9.6534,123.86703,Converge,130273,111095,130.27,111.10,26,1232,270,377
"Tanauan City, Batangas, Philippines",14.08354,121.14762,Converge,94967,125056,94.97,125.06,8,1231,206,294
"Kayapa, Nueva Vizcaya, Philippines",16.49326,120.94174,PLDT,85660,93436,85.66,93.44,6,1228,336,570
"Lagawe, Ifugao, Philippines",16.80825,121.19395,PLDT Home Fiber,91037,97271,91.04,97.27,9,1226,305,533
"Ibaan, Batangas, Philippines",13.81895,121.13082,Globe,120072,107152,120.07,107.15,8,1224,323,503
"Bayombong, Nueva Vizcaya, Philippines",16.48042,121.14813,PLDT Home Fiber,94535,99117,94.54,99.12,7,1218,247,401
"San Fernando, Pampanga, Philippines",15.02781,120.69349,Globe,101376,93972,101.38,93.97,6,1213,282,371
"Villasis, Pangasinan, Philippines",15.90523,120.55094,PLDT Home Fiber,93982,130094,93.98,130.09,9,1213,266,434
"Binmaley, Pangasinan, Philippines",16.02892,120.26882,PLDT Home Fiber,85454,111868,85.45,111.87,13,1209,219,320
"Echague, Isabela, Philippines",16.66606,121.78792,PLDT,64221,63129,64.22,63.13,16,1206,205,274
"Bayawan City, Negros Oriental, Philippines",9.53644,122.7633,PLDT,66120,65385,66.12,65.39,14,1205,157,189
"Batangas City, Batangas, Philippines",13.75641,121.05833,Converge,141269,139203,141.27,139.20,7,1205,218,399
"Odiongan, Romblon, Philippines",12.36445,122.01555,PLDT,78180,82239,78.18,82.24,10,1203,179,265
"Laoag City, Ilocos Norte, Philippines",18.21075,120.58547,PLDT Home Fiber,105244,109073,105.24,109.07,10,1202,257,355
"Binangonan, Rizal, Philippines",14.48441,121.1869,Converge,149785,132649,149.79,132.65,3,1195,253,321
"Silay, Negros Occidental, Philippines",10.79968,122.97605,PLDT,74132,78011,74.13,78.01,24,1195,271,374
"City of Mati, Davao Oriental, Philippines",6.95722,126.15454,PLDT Home Fiber,90834,96030,90.83,96.03,13,1193,162,229
"Ligao City, Albay, Philippines",13.17242,123.4944,Converge,76147,66573,76.15,66.57,15,1193,191,307
"Tagbilaran City, Bohol, Philippines",9.6534,123.86703,Globe,115338,93341,115.34,93.34,10,1188,165,218
"Molave, Zamboanga del Sur, Philippines",8.10419,123.4944,PLDT Home Fiber,70373,70973,70.37,70.97,10,1186,243,333
"Paombong, Bulacan, Philippines",14.83781,120.78406,PLDT,76885,79414,76.89,79.41,9,1185,222,343
"Nagcarlan, Laguna, Philippines",14.14903,121.38847,PLDT,83112,84835,83.11,84.84,11,1184,269,414
"San Mateo, Rizal, Philippines",14.69539,121.11767,Globe,171155,143500,171.16,143.50,5,1183,237,299
"Alilem, Ilocos Sur, Philippines",16.9074,120.59698,PLDT Home Fiber,93182,97068,93.18,97.07,6,1182,331,484
"Talisay, Negros Occidental, Philippines",10.74828,122.98012,Converge,172268,175303,172.27,175.30,11,1181,194,254
"Dona Remedios Trinidad, Bulacan, Philippines",15.11427,121.21685,PLDT Home Fiber,93206,94759,93.21,94.76,9,1181,257,399
"San Quintin, Pangasinan, Philippines",15.9754,120.83841,PLDT Home Fiber,92786,94655,92.79,94.66,7,1181,269,441
"Pandi, Bulacan, Philippines",14.87572,120.95941,Globe,118464,110347,118.46,110.35,7,1177,221,305
"Talisay, Batangas, Philippines",14.11598,121.04498,PLDT,97090,100398,97.09,100.40,6,1177,262,382
"Roxas City, Capiz, Philippines",11.55288,122.74072,Converge,117802,111151,117.80,111.15,14,1176,166,261
"Alfonso, Cavite, Philippines",14.1214,120.86138,PLDT,93413,100886,93.41,100.89,9,1175,226,345
"Pagadian City, Zamboanga del Sur, Philippines",7.86265,123.37106,Globe,99428,103166,99.43,103.17,6,1173,171,218
"Oton, Iloilo, Philippines",10.69251,122.47868,Globe,181105,169158,181.11,169.16,13,1162,150,194
"Roxas, Oriental Mindoro, Philippines",12.62617,121.47989,PLDT Home Fiber,48274,60368,48.27,60.37,9,1154,75,91
"Bago, Negros Occidental, Philippines",10.53757,122.83609,PLDT,68546,77275,68.55,77.28,7,1153,164,218
"Norzagaray, Bulacan, Philippines",14.89659,121.14813,Converge,110027,124729,110.03,124.73,7,1152,179,250
"San Ildefonso, Bulacan, Philippines",15.07717,120.94171,Globe,133324,169713,133.32,169.71,6,1152,331,455
"Amadeo, Cavite, Philippines",14.18985,120.92452,PLDT,122265,174209,122.27,174.21,9,1144,217,290
"Agoncillo, Batangas, Philippines",13.94675,120.93026,Globe,274582,255162,274.58,255.16,6,1142,334,529
"Carranglan, Nueva Ecija, Philippines",15.97584,121.03351,PLDT Home Fiber,94094,97598,94.09,97.60,6,1136,348,505
"Brooke's Point, Palawan, Philippines",8.78617,117.83817,PLDT Home Fiber,75909,84498,75.91,84.50,29,1132,77,96
"Lobo, Batangas, Philippines",13.6877,121.23974,PLDT Home Fiber,94071,96140,94.07,96.14,6,1132,256,421
"Carcar, Cebu, Philippines",10.10478,123.64147,PLDT Home Fiber,92788,97228,92.79,97.23,4,1131,128,171
"Rosario, Cavite, Philippines",14.41672,120.85471,PLDT,107376,124771,107.38,124.77,8,1126,201,265
"Sariaya, Quezon, Philippines",13.96301,121.52388,PLDT,88346,91841,88.35,91.84,10,1125,282,401
"Gapan City, Nueva Ecija, Philippines",15.29121,121.01057,Converge,98590,104794,98.59,104.79,6,1122,217,291
"Pantukan, Davao de Oro, Philippines",7.20012,126.04584,PLDT Home Fiber,58720,60011,58.72,60.01,11,1118,108,119
"Moalboal, Cebu, Philippines",9.93681,123.42714,Globe,72291,66011,72.29,66.01,10,1117,185,293
"Limay, Bataan, Philippines",14.53661,120.56245,PLDT Home Fiber,109146,112645,109.15,112.65,8,1115,145,193
"Guimba, Nueva Ecija, Philippines",15.65641,120.76767,Converge,99109,97452,99.11,97.45,5,1114,257,338
"Cauayan City, Isabela, Philippines",16.91662,121.78792,PLDT Home Fiber,87895,79159,87.90,79.16,12,1108,174,219
"Castillejos, Zambales, Philippines",14.94382,120.19357,Converge,121775,113094,121.78,113.09,5,1104,230,397
"Pavia, Iloilo, Philippines",10.7748,122.54261,PLDT,63010,66626,63.01,66.63,17,1103,301,395
"Kidapawan, Cotabato, Philippines",7.02127,125.09019,Converge,110895,126870,110.90,126.87,5,1102,170,219
"San Jose, Batangas, Philippines",13.87868,121.09942,PLDT,133693,153576,133.69,153.58,7,1100,191,235
"Tayug, Pangasinan, Philippines",16.01085,120.74649,PLDT Home Fiber,73070,94123,73.07,94.12,9,1094,192,295
"Norzagaray, Bulacan, Philippines",14.89659,121.14813,PLDT,81597,63541,81.60,63.54,8,1091,249,335
"San Carlos City, Negros Occidental, Philippines",10.48344,123.30371,Globe,128432,105239,128.43,105.24,23,1091,226,323
"Tagum, Davao del Norte, Philippines",7.44742,125.80246,Converge,144129,161167,144.13,161.17,4,1089,173,224
"Mabalacat City, Pampanga, Philippines",15.24525,120.56567,PLDT,88973,91968,88.97,91.97,9,1088,259,348
"Hermosa, Bataan, Philippines",14.83566,120.47709,Converge,161112,130037,161.11,130.04,6,1087,182,246
"Naga, Cebu, Philippines",10.20764,123.75821,PLDT,87087,92618,87.09,92.62,4,1085,181,228
"Maria Aurora, Aurora, Philippines",15.75061,121.3999,PLDT,75611,105367,75.61,105.37,12,1084,96,119
"Gerona, Tarlac, Philippines",15.60489,120.59698,Globe,247041,232845,247.04,232.85,4,1080,343,533
"Liloan, Cebu, Philippines",10.39926,124.00002,PLDT,112354,179997,112.35,180.00,5,1078,202,270
"Mangaldan, Pangasinan, Philippines",16.06513,120.40474,PLDT Home Fiber,86682,94091,86.68,94.09,8,1076,224,314
"Alimodian, Iloilo, Philippines",10.85495,122.39009,PLDT,64970,70097,64.97,70.10,10,1072,61,77
"Morong, Rizal, Philippines",14.51286,121.23855,PLDT,90768,94081,90.77,94.08,5,1065,366,544
"Calabanga, Camarines Sur, Philippines",13.71633,123.28126,PLDT Home Fiber,82786,92480,82.79,92.48,8,1064,143,175
"Kalayaan, Laguna, Philippines",14.32356,121.47757,PLDT,55045,93757,55.05,93.76,16,1064,183,281
"Antipas, Cotabato, Philippines",7.27386,125.01679,PLDT,96416,98330,96.42,98.33,9,1061,342,454
"Guiguinto, Bulacan, Philippines",14.82832,120.88429,Converge,120455,112794,120.46,112.79,7,1056,230,326
"Magalang, Pampanga, Philippines",15.21394,120.66181,Globe,134543,127311,134.54,127.31,5,1054,318,442
"San Manuel, Pangasinan, Philippines",16.10561,120.67751,Converge,125606,144311,125.61,144.31,5,1053,30,37
"Lambayong (Mariano Marcos), Sultan Kudarat, Philippines",6.79879,124.61927,PLDT Home Fiber,48886,40011,48.89,40.01,12,1053,87,107
"Sultan Kudarat (Nuling), Maguindanao, Philippines",7.26221,124.30883,PLDT Home Fiber,76989,68954,76.99,68.95,13,1048,81,116
"San Andres, Catanduanes, Philippines",13.6332,124.08641,PLDT,64367,82524,64.37,82.52,12,1046,63,84
"Carmen, Cebu, Philippines",10.58876,123.96385,PLDT,69993,91288,69.99,91.29,12,1044,231,332
"Rizal, Nueva Ecija, Philippines",15.69357,121.10229,PLDT Home Fiber,87502,87251,87.50,87.25,5,1043,201,292
"Baliwag, Bulacan, Philippines",14.96569,120.89431,Converge,110070,98131,110.07,98.13,6,1037,249,338
"Siniloan, Laguna, Philippines",14.43831,121.48561,Converge,118269,114071,118.27,114.07,13,1036,167,284
"Dipolog City, Zamboanga del Norte, Philippines",8.58717,123.34035,Globe,72048,67773,72.05,67.77,12,1035,102,133
"Sorsogon City, Sorsogon, Philippines",12.97888,123.98477,Converge,108311,110599,108.31,110.60,15,1034,113,179
"City of Mati, Davao Oriental, Philippines",6.95722,126.15454,Globe,104663,100766,104.66,100.77,16,1029,99,142
"Valencia City, Bukidnon, Philippines",7.86319,125.17087,Converge,112726,120848,112.73,120.85,11,1027,183,239
"Toledo, Cebu, Philippines",10.38705,123.65017,PLDT Home Fiber,93815,105533,93.82,105.53,5,1022,148,208
"Bantayan, Cebu, Philippines",11.18041,123.7406,PLDT,42831,72115,42.83,72.12,8,1021,118,154
"Pili, Camarines Sur, Philippines",13.55521,123.28126,Globe,78850,75511,78.85,75.51,12,1019,45,59
"San Fernando City, La Union, Philippines",16.61592,120.32102,Converge,103342,97363,103.34,97.36,4,1018,198,250
"Ozamiz, Misamis Occidental, Philippines",8.15,123.85033,PLDT Home Fiber,87139,88423,87.14,88.42,6,1018,143,177
"Pulilan, Bulacan, Philippines",14.90243,120.8459,Converge,90692,92123,90.69,92.12,6,1016,223,315
"Valladolid, Negros Occidental, Philippines",10.46898,122.8423,PLDT Home Fiber,92159,99990,92.16,99.99,12,1015,142,212
"Balamban, Cebu, Philippines",10.48585,123.77412,PLDT,46165,43311,46.17,43.31,6,1015,172,219
"Floridablanca, Pampanga, Philippines",14.9619,120.49471,PLDT Home Fiber,103466,110587,103.47,110.59,9,1014,166,224
"Argao, Cebu, Philippines",9.88114,123.60535,PLDT,57659,58568,57.66,58.57,6,1012,108,146
"Barotac Viejo, Iloilo, Philippines",11.10187,122.87613,PLDT,41092,51405,41.09,51.41,11,1010,114,138
"Lingayen, Pangasinan, Philippines",16.00973,120.22449,PLDT Home Fiber,90284,109777,90.28,109.78,13,1010,166,224
"Angadanan, Isabela, Philippines",16.7913,121.78792,Converge,119274,115840,119.27,115.84,9,1009,293,448
"Tagaytay City, Cavite, Philippines",14.11541,120.96202,Globe,84328,84287,84.33,84.29,6,998,278,422
"Muñoz, Nueva Ecija, Philippines",15.70664,120.9029,Globe,178051,164330,178.05,164.33,6,996,316,467
"San Rafael, Bulacan, Philippines",15.00184,120.93141,Globe,161176,129777,161.18,129.78,7,995,260,367
"Vintar, Ilocos Norte, Philippines",18.31413,120.78097,Converge,110554,115042,110.55,115.04,11,994,282,469
"Dumangas, Iloilo, Philippines",10.82109,122.71167,PLDT Home Fiber,73561,93045,73.56,93.05,13,993,128,171
"San Jose, Batangas, Philippines",13.87868,121.09942,PLDT Home Fiber,120663,145350,120.66,145.35,7,991,203,307
"Lupao, Nueva Ecija, Philippines",15.84768,120.91878,PLDT Home Fiber,99361,100643,99.36,100.64,10,989,275,417
"Aguinaldo, Ifugao, Philippines",16.95291,121.33129,PLDT Home Fiber,75873,90597,75.87,90.60,12,987,194,380
"Dapitan City, Zamboanga del Norte, Philippines",8.58118,123.42714,PLDT Home Fiber,68305,60517,68.31,60.52,9,985,105,164
"San Miguel, Bulacan, Philippines",15.14158,120.9751,Globe,121494,110912,121.49,110.91,6,983,250,369
"San Ildefonso, Bulacan, Philippines",15.07717,120.94171,Converge,130487,125979,130.49,125.98,6,978,160,209
"City of Borongan, Eastern Samar, Philippines",11.61739,125.34663,Globe,91009,95310,91.01,95.31,22,974,130,169
"Tapaz, Capiz, Philippines",11.28689,122.49201,PLDT,68768,67232,68.77,67.23,14,971,209,310
"Pavia, Iloilo, Philippines",10.7748,122.54261,Globe,125072,128384,125.07,128.38,7,967,171,226
"Apalit, Pampanga, Philippines",14.95255,120.76688,Converge,97895,100408,97.90,100.41,5,959,166,245
"Goa, Camarines Sur, Philippines",13.73619,123.41593,PLDT Home Fiber,63131,68598,63.13,68.60,9,957,152,213
"Tuburan, Cebu, Philippines",10.66879,123.86345,PLDT Home Fiber,91831,94678,91.83,94.68,6,957,151,222
"Cardona, Rizal, Philippines",14.48493,121.232,PLDT Home Fiber,95329,102001,95.33,102.00,4,957,254,419
"Salug, Zamboanga del Norte, Philippines",8.06518,122.78588,PLDT Home Fiber,54461,71493,54.46,71.49,19,954,29,40
"Echague, Isabela, Philippines",16.66606,121.78792,Converge,111207,136542,111.21,136.54,9,952,115,183
"Candaba, Pampanga, Philippines",15.09289,120.8277,Converge,81614,83871,81.61,83.87,5,948,202,262
"Nabua, Camarines Sur, Philippines",13.4069,123.37324,PLDT Home Fiber,74415,88239,74.42,88.24,8,946,135,191
"Tacloban City, Leyte, Philippines",11.22238,124.99221,Converge,70665,92953,70.67,92.95,24,943,183,283
"Carcar, Cebu, Philippines",10.10478,123.64147,Globe,155519,123113,155.52,123.11,9,943,112,140
"Silay, Negros Occidental, Philippines",10.79968,122.97605,Globe,116182,104744,116.18,104.74,13,940,245,369
"Santa Cruz, Laguna, Philippines",14.26911,121.41133,PLDT Home Fiber,100385,110083,100.39,110.08,12,939,158,226
"Samal, Davao del Norte, Philippines",7.08352,125.70578,PLDT Home Fiber,98303,96261,98.30,96.26,8,938,130,180
"Bucay, Abra, Philippines",17.53019,120.7235,PLDT Home Fiber,84473,68786,84.47,68.79,10,937,25,31
"Naval, Biliran, Philippines",11.56681,124.44201,Globe,64077,63886,64.08,63.89,22,936,103,132
"Koronadal, South Cotabato, Philippines",6.50044,124.84333,Globe,75231,99751,75.23,99.75,8,935,127,169
"Alaminos, Laguna, Philippines",14.0454,121.25119,PLDT Home Fiber,97385,104360,97.39,104.36,8,935,183,280
"Mexico, Pampanga, Philippines",15.06457,120.72033,Globe,116308,105028,116.31,105.03,7,934,184,237
"Abra De Ilog, Occidental Mindoro, Philippines",13.36383,120.75798,Globe,61533,53472,61.53,53.47,6,932,230,415
"Morong, Rizal, Philippines",14.51286,121.23855,PLDT Home Fiber,94730,105420,94.73,105.42,4,931,219,355
"Hagonoy, Bulacan, Philippines",14.83564,120.73371,PLDT Home Fiber,98835,96533,98.84,96.53,8,929,198,280
"City of Catbalogan, Samar, Philippines",11.85683,124.88449,Globe,70641,74491,70.64,74.49,16,926,158,221
"Dauis, Bohol, Philippines",9.60401,123.82996,PLDT Home Fiber,100376,135158,100.38,135.16,8,926,143,176
"Concepcion, Tarlac, Philippines",15.324,120.65596,Globe,99182,102731,99.18,102.73,5,923,312,460
"Calumpit, Bulacan, Philippines",14.91518,120.7662,Converge,104473,109108,104.47,109.11,6,922,173,245
"Buldon, Maguindanao, Philippines",7.47483,124.39764,PLDT Home Fiber,99015,99456,99.02,99.46,8,921,185,258
"Kalibo, Aklan, Philippines",11.70734,122.36986,Globe,119127,104102,119.13,104.10,20,918,145,207
"Tuburan, Cebu, Philippines",10.66879,123.86345,PLDT,26925,34238,26.93,34.24,8,918,50,69
"Zamboanga City, Zamboanga del Sur, Philippines",6.90437,122.07612,PLDT,49593,41993,49.59,41.99,18,916,217,374
"Nasugbu, Batangas, Philippines",14.09404,120.68901,PLDT Home Fiber,102570,155456,102.57,155.46,9,912,153,210
"Angat, Bulacan, Philippines",14.92586,121.02204,Converge,91336,93658,91.34,93.66,7,905,91,125
"Los Baños, Laguna, Philippines",14.17731,121.22161,PLDT,87356,93045,87.36,93.05,7,905,233,374
"Alfonso, Cavite, Philippines",14.1214,120.86138,PLDT Home Fiber,144828,149859,144.83,149.86,4,900,130,193
"Libmanan, Camarines Sur, Philippines",13.69376,123.05982,PLDT Home Fiber,54505,53869,54.51,53.87,13,894,93,132
"San Rafael, Bulacan, Philippines",15.00184,120.93141,Converge,126444,137225,126.44,137.23,7,892,165,216
"Catarman, Northern Samar, Philippines",12.44271,124.61927,Globe,76474,74431,76.47,74.43,15,891,119,178
"Valencia, Negros Oriental, Philippines",9.28494,123.1464,PLDT Home Fiber,126068,159623,126.07,159.62,10,888,145,174
"Gapan City, Nueva Ecija, Philippines",15.29121,121.01057,Globe,133641,108514,133.64,108.51,5,883,187,272
"Amadeo, Cavite, Philippines",14.18985,120.92452,Globe,62724,54381,62.72,54.38,6,883,205,335
"Guiguinto, Bulacan, Philippines",14.82832,120.88429,PLDT,56779,70273,56.78,70.27,9,881,267,426
"Minglanilla, Cebu, Philippines",10.24543,123.79599,Globe,188173,159990,188.17,159.99,7,880,205,257
"General Tinio (Papaya), Nueva Ecija, Philippines",15.36345,121.21685,PLDT,51645,33051,51.65,33.05,13,880,259,357
"Midsayap, Cotabato, Philippines",7.19181,124.53474,PLDT Home Fiber,90991,86045,90.99,86.05,13,879,155,214
"Alabel, Sarangani, Philippines",6.10416,125.28792,PLDT Home Fiber,57747,61466,57.75,61.47,11,879,106,139
"Pangil, Laguna, Philippines",14.41772,121.48561,PLDT,79505,94283,79.51,94.28,10,878,216,308
"Floridablanca, Pampanga, Philippines",14.9619,120.49471,PLDT,45382,48884,45.38,48.88,13,878,173,243
"M'lang, Cotabato, Philippines",6.93822,124.90655,PLDT Home Fiber,97429,93515,97.43,93.52,10,877,200,306
"Santo Domingo, Nueva Ecija, Philippines",15.61284,120.88434,PLDT,87264,87099,87.26,87.10,17,877,268,388
"Isulan, Sultan Kudarat, Philippines",6.6318,124.44201,PLDT,58958,63283,58.96,63.28,12,876,142,199
"Malolos, Bulacan, Philippines",14.86049,120.80916,Globe,130718,115344,130.72,115.34,7,875,189,254
"Maitum, Sarangani, Philippines",6.12408,124.48636,PLDT,16751,21455,16.75,21.46,12,874,56,77
"City of Baybay, Leyte, Philippines",10.66858,124.80409,Globe,121220,130898,121.22,130.90,17,874,107,137
"Macabebe, Pampanga, Philippines",14.89732,120.6545,PLDT Home Fiber,93495,92789,93.50,92.79,7,874,207,335
"Atimonan, Quezon, Philippines",13.96507,121.87903,PLDT Home Fiber,103415,123698,103.42,123.70,6,872,204,327
"Sibalom, Antique, Philippines",10.76502,122.06102,PLDT Home Fiber,64523,77772,64.52,77.77,13,870,48,63
"Mendez, Cavite, Philippines",14.12941,120.90511,PLDT,108807,170192,108.81,170.19,10,864,151,210
"San Miguel, Bulacan, Philippines",15.14158,120.9751,Converge,94246,94680,94.25,94.68,6,862,153,208
"Sariaya, Quezon, Philippines",13.96301,121.52388,Converge,93697,94694,93.70,94.69,7,862,114,176
"Santa Barbara, Pangasinan, Philippines",15.9774,120.42424,PLDT Home Fiber,99478,109237,99.48,109.24,6,860,171,245
"Hamtic, Antique, Philippines",10.65189,122.01555,PLDT,35819,34895,35.82,34.90,14,859,109,153
"Santa Cruz, Laguna, Philippines",14.26911,121.41133,PLDT,91476,97300,91.48,97.30,10,859,145,203
"Natividad, Pangasinan, Philippines",16.03821,120.83841,PLDT,78934,93914,78.93,93.91,7,857,221,355
"Kibawe, Bukidnon, Philippines",7.48878,125.06084,PLDT Home Fiber,94615,94552,94.62,94.55,8,857,250,364
"Baras, Rizal, Philippines",14.53656,121.27408,PLDT Home Fiber,96762,100455,96.76,100.46,4,857,133,176
"Pili, Camarines Sur, Philippines",13.55521,123.28126,Converge,74956,81398,74.96,81.40,5,851,163,235
"New Washington, Aklan, Philippines",11.6466,122.39009,Converge,55962,55695,55.96,55.70,17,851,51,76
"Pozorrubio, Pangasinan, Philippines",16.11642,120.54316,PLDT,93176,108090,93.18,108.09,8,851,168,229
"Vigan City, Ilocos Sur, Philippines",17.56485,120.38781,PLDT,80393,79107,80.39,79.11,10,850,134,213
"La Trinidad, Benguet, Philippines",16.44844,120.59047,PLDT,62651,63905,62.65,63.91,7,848,276,366
"Nasugbu, Batangas, Philippines",14.09404,120.68901,Converge,128014,132559,128.01,132.56,6,847,168,286
"Bamban, Tarlac, Philippines",15.2885,120.57044,Converge,71677,74544,71.68,74.54,4,847,235,349
"Hinigaran, Negros Occidental, Philippines",10.27479,122.92123,PLDT Home Fiber,79685,90452,79.69,90.45,13,841,109,153
"Isabela, Negros Occidental, Philippines",10.22566,123.01136,PLDT Home Fiber,91685,94516,91.69,94.52,11,838,108,160
"Binalonan, Pangasinan, Philippines",16.05355,120.60848,PLDT,86247,88209,86.25,88.21,7,838,230,301
"Binalonan, Pangasinan, Philippines",16.05355,120.60848,Converge,88795,95766,88.80,95.77,6,837,75,88
"Tanay, Rizal, Philippines",14.61419,121.37703,PLDT Home Fiber,92250,116723,92.25,116.72,4,835,155,210
"Butuan City, Agusan Del Norte, Philippines",8.94753,125.54063,PLDT,56312,61906,56.31,61.91,13,834,224,308
"Santol, La Union, Philippines",16.75375,120.50488,PLDT Home Fiber,84580,94555,84.58,94.56,6,832,225,340
"Mauban, Quezon, Philippines",14.23756,121.69674,PLDT Home Fiber,121412,169093,121.41,169.09,6,832,235,359
"Dauin, Negros Oriental, Philippines",9.20373,123.19137,PLDT Home Fiber,136780,166691,136.78,166.69,8,829,98,122
"Alaminos City, Pangasinan, Philippines",16.15053,119.98562,Converge,123200,130754,123.20,130.75,6,826,161,204
"Bauan, Batangas, Philippines",13.79627,120.97616,Globe,61835,53539,61.84,53.54,6,824,235,401
"Baler, Aurora, Philippines",15.73361,121.57125,PLDT,61572,59894,61.57,59.89,15,823,163,219
"San Carlos City, Pangasinan, Philippines",15.92589,120.34827,Converge,104076,107601,104.08,107.60,6,822,216,298
"Tibiao, Antique, Philippines",11.30535,122.09511,PLDT Home Fiber,59307,92118,59.31,92.12,14,819,35,46
"Cauayan City, Isabela, Philippines",16.91662,121.78792,Converge,98798,103156,98.80,103.16,10,818,197,281
"Tagoloan Ii, Lanao del Sur, Philippines",8.09908,124.44201,PLDT Home Fiber,95226,94890,95.23,94.89,6,817,268,372
"Ormoc City, Leyte, Philippines",11.03843,124.61927,PLDT,34905,32257,34.91,32.26,8,814,118,183
"Tubungan, Iloilo, Philippines",10.80645,122.29941,PLDT,67038,56834,67.04,56.83,15,813,218,294
"Daraga, Albay, Philippines",13.12278,123.69588,PLDT,107910,126057,107.91,126.06,8,808,158,221
"Calatrava, Negros Occidental, Philippines",10.62843,123.39349,Globe,117938,111020,117.94,111.02,23,805,254,386
"San Fernando City, La Union, Philippines",16.61592,120.32102,PLDT,83392,94296,83.39,94.30,3,804,165,303
"Victorias, Negros Occidental, Philippines",10.901,123.07045,PLDT Home Fiber,77706,99605,77.71,99.61,11,804,144,225
"Muñoz, Nueva Ecija, Philippines",15.70664,120.9029,Converge,95121,104130,95.12,104.13,5,804,118,161
"Naic, Cavite, Philippines",14.29649,120.79246,Converge,203015,163819,203.02,163.82,5,802,160,234
"Majayjay, Laguna, Philippines",14.14491,121.46983,PLDT Home Fiber,96123,149595,96.12,149.60,10,801,165,252
"Aliaga, Nueva Ecija, Philippines",15.51204,120.86138,PLDT Home Fiber,80451,90653,80.45,90.65,11,800,178,237
"San Mateo, Rizal, Philippines",14.69539,121.11767,PLDT,81693,70837,81.69,70.84,6,799,214,272
"Narra, Palawan, Philippines",9.229,118.33047,PLDT,62483,69455,62.48,69.46,36,798,102,127
"Imelda, Zamboanga Sibugay, Philippines",7.62787,122.95503,PLDT Home Fiber,93822,91436,93.82,91.44,10,798,26,32
"Cotabato City, Maguindanao, Philippines",7.20467,124.23104,Globe,100437,109593,100.44,109.59,11,798,98,124
"New Corella, Davao del Norte, Philippines",7.59777,125.84981,PLDT Home Fiber,51467,58442,51.47,58.44,11,797,102,140
"Iriga City, Camarines Sur, Philippines",13.42095,123.41361,PLDT,75201,91570,75.20,91.57,10,796,121,160
"Cuyapo, Nueva Ecija, Philippines",15.79995,120.68901,Globe,61670,53796,61.67,53.80,6,795,204,446
"Ibaan, Batangas, Philippines",13.81895,121.13082,PLDT Home Fiber,93604,105974,93.60,105.97,5,794,175,247
"Cauayan City, Isabela, Philippines",16.91662,121.78792,PLDT,41655,48341,41.66,48.34,12,786,156,251
"San Jose de Buenavista, Antique, Philippines",10.74901,121.94128,Globe,112794,95507,112.79,95.51,14,785,108,143
"General Tinio (Papaya), Nueva Ecija, Philippines",15.36345,121.21685,PLDT Home Fiber,93558,77547,93.56,77.55,11,784,168,242
"Gingoog City, Misamis Oriental, Philippines",8.81446,125.10406,PLDT Home Fiber,75501,81268,75.50,81.27,6,782,84,110
"Carles, Iloilo, Philippines",11.55216,123.13515,PLDT Home Fiber,42182,47185,42.18,47.19,16,782,55,80
"San Leonardo, Nueva Ecija, Philippines",15.37285,120.95321,PLDT Home Fiber,92148,94364,92.15,94.36,11,781,208,299
"Santa Rosa, Nueva Ecija, Philippines",15.42502,120.93838,Globe,112091,106357,112.09,106.36,6,781,227,324
"Escalante City, Negros Occidental, Philippines",10.84117,123.49908,PLDT,76926,69617,76.93,69.62,8,781,172,254
"Kapalong, Davao del Norte, Philippines",7.82951,125.522,PLDT Home Fiber,75940,97863,75.94,97.86,11,781,122,173
"Paete, Laguna, Philippines",14.37243,121.54842,PLDT,93771,93976,93.77,93.98,11,780,115,165
"Trece Martires City, Cavite, Philippines",14.28222,120.86837,PLDT,81050,77371,81.05,77.37,6,780,140,209
"Labason, Zamboanga del Norte, Philippines",8.01373,122.51464,PLDT Home Fiber,40063,55907,40.06,55.91,11,780,35,47
"Libungan, Cotabato, Philippines",7.31637,124.53068,PLDT Home Fiber,87926,56035,87.93,56.04,12,777,94,127
"Baao, Camarines Sur, Philippines",13.49319,123.35984,PLDT,69402,84212,69.40,84.21,11,773,75,102
"Dinalupihan, Bataan, Philippines",14.88605,120.44729,Converge,103193,100638,103.19,100.64,6,772,144,193
"Tagum, Davao del Norte, Philippines",7.44742,125.80246,PLDT,64833,65514,64.83,65.51,8,771,164,239
"Naujan, Oriental Mindoro, Philippines",13.24381,121.19395,PLDT Home Fiber,100499,114245,100.50,114.25,7,768,141,197
"Valencia City, Bukidnon, Philippines",7.86319,125.17087,PLDT Home Fiber,75922,83151,75.92,83.15,5,767,135,193
"Guagua, Pampanga, Philippines",14.96374,120.63244,PLDT,95149,94556,95.15,94.56,11,767,139,194
"Ipil, Zamboanga Sibugay, Philippines",7.77318,122.57121,PLDT,89291,92466,89.29,92.47,18,766,109,142
"Kapatagan, Lanao del Norte, Philippines",7.86776,123.72942,PLDT Home Fiber,100453,99980,100.45,99.98,8,766,98,137
"San Jose City, Nueva Ecija, Philippines",15.79188,120.99008,Globe,40973,42820,40.97,42.82,12,764,132,197
"Santa Cruz, Davao del Sur, Philippines",6.83551,125.41659,PLDT Home Fiber,91555,65273,91.56,65.27,8,763,118,165
"Malay, Aklan, Philippines",11.93033,121.95191,Converge,61602,57086,61.60,57.09,14,762,169,311
"San Luis, Pampanga, Philippines",15.03986,120.81544,Converge,86773,92823,86.77,92.82,5,761,104,137
"Bustos, Bulacan, Philippines",14.95239,120.91735,Globe,154906,139092,154.91,139.09,7,756,189,265
"Palayan City, Nueva Ecija, Philippines",15.53906,121.09083,PLDT Home Fiber,94848,93846,94.85,93.85,11,753,111,159
"Jaen, Nueva Ecija, Philippines",15.39558,120.87286,Converge,89832,86814,89.83,86.81,7,752,131,181
"Hermosa, Bataan, Philippines",14.83566,120.47709,PLDT Home Fiber,91358,93431,91.36,93.43,8,751,138,208
"Balagtas, Bulacan, Philippines",14.81784,120.90646,Converge,149576,126741,149.58,126.74,7,751,166,237
"Maco, Davao de Oro, Philippines",7.40845,125.937,Globe,131525,125443,131.53,125.44,14,746,188,277
"Tangub City, Misamis Occidental, Philippines",8.09592,123.6847,PLDT,78642,78567,78.64,78.57,25,745,123,173
"City Of Bislig, Surigao del Sur, Philippines",8.21006,126.28478,PLDT Home Fiber,86277,103286,86.28,103.29,9,745,98,128
"San Pascual, Batangas, Philippines",13.81044,121.02204,PLDT Home Fiber,128756,148796,128.76,148.80,7,744,143,184
"Polanco, Zamboanga del Norte, Philippines",8.49106,123.38228,PLDT Home Fiber,71064,73122,71.06,73.12,10,740,89,114
"Iriga City, Camarines Sur, Philippines",13.42095,123.41361,PLDT Home Fiber,88067,111876,88.07,111.88,8,740,128,174
"Capas, Tarlac, Philippines",15.34633,120.59344,PLDT Home Fiber,70333,75420,70.33,75.42,11,739,141,197
"Villareal, Samar, Philippines",11.53963,124.92861,PLDT Home Fiber,161983,165411,161.98,165.41,8,738,16,20
"Mabalacat City, Pampanga, Philippines",15.24525,120.56567,Globe,119549,105785,119.55,105.79,4,738,184,227
"Calbayog, Samar, Philippines",12.0685,124.59081,PLDT,54965,50587,54.97,50.59,15,737,66,88
"Talavera, Nueva Ecija, Philippines",15.58575,120.9197,PLDT,83043,91829,83.04,91.83,11,737,94,131
"Baliwag, Bulacan, Philippines",14.96569,120.89431,Globe,120201,109280,120.20,109.28,8,735,179,224
"Tanza, Cavite, Philippines",14.34293,120.85032,PLDT,91559,96891,91.56,96.89,7,734,158,213
"Pagalungan, Maguindanao, Philippines",6.93298,124.75198,PLDT Home Fiber,70518,71957,70.52,71.96,10,734,213,307
"Milagros, Masbate, Philippines",12.24465,123.5056,Converge,105706,202990,105.71,202.99,6,733,31,44
"Oroquieta City, Misamis Occidental, Philippines",8.48597,123.79825,PLDT Home Fiber,106956,110808,106.96,110.81,7,729,111,138
"Rizal, Laguna, Philippines",14.08408,121.41133,PLDT Home Fiber,106575,164261,106.58,164.26,8,727,153,258
"Atok, Benguet, Philippines",16.59745,120.68901,PLDT Home Fiber,93258,95324,93.26,95.32,6,727,187,278
"Datu Montawal (Pagagawan), Maguindanao, Philippines",7.10469,124.76303,PLDT Home Fiber,76680,83358,76.68,83.36,10,726,194,278
"San Jose, Occidental Mindoro, Philippines",12.40119,121.10229,Converge,77388,68700,77.39,68.70,9,726,90,133
"Manapla, Negros Occidental, Philippines",10.95795,123.12428,PLDT Home Fiber,86598,94811,86.60,94.81,11,725,90,130
"Paracale, Camarines Norte, Philippines",14.23721,122.78588,PLDT Home Fiber,58197,41825,58.20,41.83,7,725,79,92
"City Of Bislig, Surigao del Sur, Philippines",8.21006,126.28478,Globe,66081,84161,66.08,84.16,12,723,70,94
"Ozamiz, Misamis Occidental, Philippines",8.15,123.85033,Globe,111904,90563,111.90,90.56,12,723,109,144
"Oras, Eastern Samar, Philippines",12.17696,125.36857,PLDT,54799,78044,54.80,78.04,14,721,14,22
"San Juan, Batangas, Philippines",13.75044,121.37703,PLDT,89568,89085,89.57,89.09,12,718,195,298
"Masantol, Pampanga, Philippines",14.85669,120.68326,Converge,52104,61380,52.10,61.38,13,716,79,86
"Bula, Camarines Sur, Philippines",13.44119,123.23632,PLDT Home Fiber,77456,69370,77.46,69.37,9,716,83,107
"Leyte, Philippines",11.32728,124.48636,PLDT,29179,29079,29.18,29.08,19,713,119,182
"Gloria, Oriental Mindoro, Philippines",12.93397,121.37703,PLDT Home Fiber,73582,64367,73.58,64.37,9,712,60,82
"Urdaneta City, Pangasinan, Philippines",15.98194,120.59698,PLDT,81204,79564,81.20,79.56,5,710,168,233
"Digos, Davao del Sur, Philippines",6.74347,125.35515,Converge,129371,116205,129.37,116.21,4,708,147,189
"Jaen, Nueva Ecija, Philippines",15.39558,120.87286,PLDT,49820,57137,49.82,57.14,13,707,213,314
"Tuguegarao City, Cagayan, Philippines",17.60306,121.75374,Globe,107799,81178,107.80,81.18,12,701,117,140
"Estancia, Iloilo, Philippines",11.45356,123.13515,PLDT Home Fiber,46092,57563,46.09,57.56,12,699,42,59
"Santa Rosa, Nueva Ecija, Philippines",15.42502,120.93838,Converge,96051,114407,96.05,114.41,7,698,136,176
"Enrique B. Magalona, Negros Occidental, Philippines",10.87695,122.98281,PLDT Home Fiber,79247,87264,79.25,87.26,13,698,190,282
"Talugtug, Nueva Ecija, Philippines",15.7698,120.81544,PLDT Home Fiber,90879,94189,90.88,94.19,12,697,169,260
"San Remigio, Cebu, Philippines",10.9601,123.94155,PLDT Home Fiber,50334,74043,50.33,74.04,7,692,44,62
"Gasan, Marinduque, Philippines",13.32138,121.89041,PLDT Home Fiber,80986,78529,80.99,78.53,9,691,56,68
"Noveleta, Cavite, Philippines",14.42785,120.88009,PLDT Home Fiber,136922,166645,136.92,166.65,5,691,123,149
"Aritao, Nueva Vizcaya, Philippines",16.2515,121.01057,PLDT,86389,93694,86.39,93.69,6,688,127,230
"Bustos, Bulacan, Philippines",14.95239,120.91735,PLDT,71527,66531,71.53,66.53,12,687,178,258
"Porac, Pampanga, Philippines",15.06974,120.55007,PLDT,77960,91188,77.96,91.19,13,687,132,195
"Asingan, Pangasinan, Philippines",16.00318,120.67063,PLDT Home Fiber,92054,102977,92.05,102.98,11,686,131,200
"Carmona, Cavite, Philippines",14.3135,121.05712,PLDT Home Fiber,116804,156146,116.80,156.15,6,683,130,176
"Canaman, Camarines Sur, Philippines",13.64758,123.13515,PLDT,74987,79757,74.99,79.76,14,682,51,68
"Naic, Cavite, Philippines",14.29649,120.79246,Globe,108030,107817,108.03,107.82,7,678,91,121
"Bulan, Sorsogon, Philippines",12.70367,123.90809,PLDT,90225,72050,90.23,72.05,20,676,83,112
"El Nido, Palawan, Philippines",11.19892,119.42317,PLDT,64407,73579,64.41,73.58,33,676,110,182
"Mayantoc, Tarlac, Philippines",15.5632,120.32049,PLDT,44329,59508,44.33,59.51,9,675,36,45
"Bauan, Batangas, Philippines",13.79627,120.97616,Converge,100112,195534,100.11,195.53,9,675,60,112
"Obando, Bulacan, Philippines",14.70986,120.93674,Converge,131803,121656,131.80,121.66,5,674,98,129
"Paete, Laguna, Philippines",14.37243,121.54842,Converge,97714,95441,97.71,95.44,12,674,154,265
"Bogo City, Cebu, Philippines",11.04623,124.00287,PLDT Home Fiber,97941,117639,97.94,117.64,7,672,83,114
"Subic, Zambales, Philippines",14.83066,120.18202,PLDT Home Fiber,120136,140469,120.14,140.47,8,671,96,122
"Masantol, Pampanga, Philippines",14.85669,120.68326,PLDT Home Fiber,86557,93445,86.56,93.45,8,671,155,257
"Compostela, Cebu, Philippines",10.45408,124.013,PLDT,66250,67629,66.25,67.63,7,670,145,193
"San Jose de Buenavista, Antique, Philippines",10.74901,121.94128,PLDT Home Fiber,92103,114772,92.10,114.77,13,668,101,138
"Milaor, Camarines Sur, Philippines",13.59634,123.17451,PLDT Home Fiber,68698,102693,68.70,102.69,8,667,48,69
"Palayan City, Nueva Ecija, Philippines",15.53906,121.09083,PLDT,91230,93884,91.23,93.88,12,664,166,234
"Kapalawan, Philippines",7.21567,124.75942,PLDT Home Fiber,94647,94909,94.65,94.91,9,662,199,279
"Camiling, Tarlac, Philippines",15.67495,120.41272,PLDT Home Fiber,91236,95974,91.24,95.97,12,661,91,116
"Maasin, Southern Leyte, Philippines",10.13272,124.84081,Globe,74753,61282,74.75,61.28,19,659,113,150
"Cuyapo, Nueva Ecija, Philippines",15.79995,120.68901,Converge,157885,174054,157.89,174.05,5,658,112,132
"Laoag City, Ilocos Norte, Philippines",18.21075,120.58547,Globe,119344,108970,119.34,108.97,9,656,101,134
"Lamut, Ifugao, Philippines",16.68241,121.19395,PLDT Home Fiber,98628,112414,98.63,112.41,9,655,177,309
"Candelaria, Quezon, Philippines",13.94899,121.42276,PLDT,82823,90077,82.82,90.08,11,653,174,248
"Maasin, Iloilo, Philippines",10.9199,122.42407,PLDT Home Fiber,82509,119916,82.51,119.92,11,652,31,43
"Calbayog, Samar, Philippines",12.0685,124.59081,Globe,82178,70787,82.18,70.79,14,651,110,147
"Malay, Aklan, Philippines",11.93033,121.95191,Globe,75429,77981,75.43,77.98,21,651,84,128
"Pinamalayan, Oriental Mindoro, Philippines",13.01533,121.37703,PLDT Home Fiber,92979,92394,92.98,92.39,8,650,101,135
"San Fernando, Masbate, Philippines",12.47959,123.7406,PLDT,66455,85016,66.46,85.02,28,649,19,25
"Vallehermoso, Negros Oriental, Philippines",10.33905,123.29249,PLDT,97760,137246,97.76,137.25,7,648,244,346
"Pavia, Iloilo, Philippines",10.7748,122.54261,Converge,96243,94656,96.24,94.66,13,644,142,190
"Infanta, Quezon, Philippines",14.74071,121.6451,PLDT Home Fiber,78898,84982,78.90,84.98,11,642,92,119
"Argao, Cebu, Philippines",9.88114,123.60535,Globe,112043,100373,112.04,100.37,10,641,102,131
"Echague, Isabela, Philippines",16.66606,121.78792,PLDT Home Fiber,58493,82835,58.49,82.84,15,639,151,207
"Malvar, Batangas, Philippines",14.04329,121.15875,Converge,137732,141897,137.73,141.90,6,635,109,173
"Surigao, Surigao del Norte, Philippines",9.79022,125.49311,Converge,163027,160267,163.03,160.27,25,635,92,116
"Pagadian City, Zamboanga del Sur, Philippines",7.86265,123.37106,PLDT,70692,67061,70.69,67.06,13,634,146,221
