Location Name,Latitude,Longitude,Provider,Download Speed,Upload Speed,Download Speed Mbps,Upload Speed Mbps,Minimum Latency,Test Count,Sample Count,User Count
"Quezon City, Metro Manila, Philippines",14.64879,121.05094,PLDT Home Fiber,158591,162243,158.59,162.24,3,15343,5020,7498
"Quezon City, Metro Manila, Philippines",14.64879,121.05094,Globe,234737,207408,234.74,207.41,5,13008,4673,7025
"Quezon City, Metro Manila, Philippines",14.64879,121.05094,Converge,198153,189475,198.15,189.48,4,11349,3747,6085
"Manila, Metro Manila, Philippines",14.59951,120.98423,Converge,216826,198806,216.83,198.81,4,7113,2172,3931
"Davao City, Davao del Sur, Philippines",7.06475,125.60884,PLDT Home Fiber,93997,92287,94.00,92.29,9,6337,1950,2795
"Pasig, Metro Manila, Philippines",14.56082,121.0776,Converge,209610,203435,209.61,203.44,3,5998,1938,3078
"Cebu City, Cebu, Philippines",10.29261,123.90219,PLDT Home Fiber,93906,100406,93.91,100.41,7,5900,1730,2476
"Manila, Metro Manila, Philippines",14.59951,120.98423,PLDT Home Fiber,99332,94783,99.33,94.78,5,5544,1955,2951
"Valenzuela, Metro Manila, Philippines",14.69247,120.96991,Converge,221245,208713,221.25,208.71,3,4875,1524,2727
"Parañaque, Metro Manila, Philippines",14.47929,121.01985,Converge,221759,203100,221.76,203.10,4,4681,1609,2604
"Pasig, Metro Manila, Philippines",14.56082,121.0776,PLDT Home Fiber,152220,138722,152.22,138.72,3,4648,1472,2144
"Davao City, Davao del Sur, Philippines",7.06475,125.60884,Globe,202888,188818,202.89,188.82,4,4496,1725,2276
"Quezon City, Metro Manila, Philippines",14.64879,121.05094,PLDT,67889,66933,67.89,66.93,8,4490,1361,2125
"Davao City, Davao del Sur, Philippines",7.06475,125.60884,Converge,172907,154798,172.91,154.80,3,4369,1642,2387
"Calamba, Laguna, Philippines",14.19488,121.15974,Converge,168105,155176,168.11,155.18,6,4364,1355,2298
"Cagayan De Oro City, Misamis Oriental, Philippines",8.48029,124.64975,Globe,119155,77723,119.16,77.72,8,4178,1284,1933
"Cagayan De Oro City, Misamis Oriental, Philippines",8.48029,124.64975,PLDT Home Fiber,92144,93078,92.14,93.08,9,4128,1364,1938
"Cebu City, Cebu, Philippines",10.29261,123.90219,Globe,190490,171851,190.49,171.85,6,4034,1439,2039
"Cebu City, Cebu, Philippines",10.29261,123.90219,PLDT,59512,60809,59.51,60.81,9,3854,1066,1624
"Parañaque, Metro Manila, Philippines",14.47929,121.01985,PLDT,110127,98613,110.13,98.61,5,3713,1299,2078
"Antipolo City, 1870 Rizal, Philippines",14.58584,121.17569,PLDT Home Fiber,144004,144907,144.00,144.91,4,3681,1178,1683
"Taguig, Metro Manila, Philippines",14.53063,121.05755,Converge,247197,233908,247.20,233.91,4,3663,1243,1975
"Biñan, Laguna, Philippines",14.31456,121.08316,PLDT,103892,106169,103.89,106.17,9,3647,1161,1874
"Mexico, Pampanga, Philippines",15.06457,120.72033,Converge,198059,200303,198.06,200.30,3,3599,1321,2063
"Pandi, Bulacan, Philippines",14.87572,120.95941,Converge,213122,100696,213.12,100.70,7,3511,1357,1936
"Cainta, Rizal, Philippines",14.58056,121.11565,PLDT Home Fiber,166273,174023,166.27,174.02,3,3360,1004,1486
"Manila, Metro Manila, Philippines",14.59951,120.98423,PLDT,86404,90571,86.40,90.57,5,3325,1115,1677
"Marikina, Metro Manila, Philippines",14.63493,121.10195,Converge,213732,193297,213.73,193.30,3,3141,1146,1773
"Taguig, Metro Manila, Philippines",14.53063,121.05755,Globe,228743,200477,228.74,200.48,4,3118,1252,1870
"Imus, Cavite, Philippines",14.42764,120.93724,PLDT Home Fiber,195139,199417,195.14,199.42,4,3082,994,1579
"San Pablo City, Laguna, Philippines",14.06422,121.32326,Converge,152651,169020,152.65,169.02,7,3046,975,1669
"Cebu City, Cebu, Philippines",10.29261,123.90219,Converge,215056,217152,215.06,217.15,15,3044,1037,1564
"Baguio, Benguet, Philippines",16.41297,120.5914,PLDT Home Fiber,93457,94039,93.46,94.04,7,2694,891,1424
"General Trias, Cavite, Philippines",14.38159,120.87915,Converge,205857,199187,205.86,199.19,5,2688,888,1539
"Pasig, Metro Manila, Philippines",14.56082,121.0776,Globe,299047,271686,299.05,271.69,5,2678,992,1431
"Parañaque, Metro Manila, Philippines",14.47929,121.01985,PLDT Home Fiber,174881,153815,174.88,153.82,4,2544,927,1358
"Calamba, Laguna, Philippines",14.19488,121.15974,PLDT Home Fiber,128459,119993,128.46,119.99,8,2480,817,1289
"Antipolo City, 1870 Rizal, Philippines",14.58584,121.17569,Converge,215216,209883,215.22,209.88,3,2434,857,1365
"Dasmariñas, Cavite, Philippines",14.33385,120.95423,PLDT Home Fiber,106238,137271,106.24,137.27,5,2408,795,1154
"Bacoor, Cavite, Philippines",14.43122,120.96567,PLDT Home Fiber,155619,155234,155.62,155.23,5,2378,765,1060
"Makati City, Metro Manila, Philippines",14.55474,121.02444,PLDT Home Fiber,151157,142371,151.16,142.37,4,2358,820,1208
"Tarlac City, Tarlac, Philippines",15.48808,120.58719,Converge,136086,129692,136.09,129.69,4,2328,863,1353
"Makati City, Metro Manila, Philippines",14.55474,121.02444,PLDT,67682,59644,67.68,59.64,12,2309,810,1219
"Caloocan, Metro Manila, Philippines",14.65136,120.99022,PLDT Home Fiber,150158,173645,150.16,173.65,3,2299,769,1104
"Batangas City, Batangas, Philippines",13.75641,121.05833,Globe,122258,106986,122.26,106.99,10,2225,687,1086
"San Carlos City, Negros Occidental, Philippines",10.48344,123.30371,PLDT,128405,125305,128.41,125.31,5,2208,814,1185
"Iligan City, Lanao del Norte, Philippines",8.22707,124.46418,PLDT Home Fiber,94733,92340,94.73,92.34,7,2162,642,908
"Bamban, Tarlac, Philippines",15.2885,120.57044,Converge,209678,203695,209.68,203.70,3,2160,796,1281
"Imus, Cavite, Philippines",14.42764,120.93724,Converge,239762,211862,239.76,211.86,5,2059,725,1185
"Bago, Negros Occidental, Philippines",10.53757,122.83609,Converge,196295,153888,196.30,153.89,15,2015,683,1145
"Valenzuela, Metro Manila, Philippines",14.69247,120.96991,PLDT Home Fiber,157219,147859,157.22,147.86,4,1939,721,1048
"Mandaluyong City, Metro Manila, Philippines",14.57627,121.03924,Converge,199634,190858,199.63,190.86,4,1868,628,1057
"Silang, Cavite, Philippines",14.22025,120.96469,PLDT Home Fiber,134631,173195,134.63,173.20,5,1856,681,946
"Pasay City, Metro Manila, Philippines",14.53767,121.00081,PLDT Home Fiber,127954,99519,127.95,99.52,4,1804,662,938
"Pasig, Metro Manila, Philippines",14.56082,121.0776,PLDT,88798,89629,88.80,89.63,7,1795,585,909
"Iloilo City, Iloilo, Philippines",10.73019,122.55911,Globe,119649,107726,119.65,107.73,6,1779,645,996
"Angeles, Pampanga, Philippines",15.16061,120.60908,Converge,163278,148775,163.28,148.78,3,1778,648,926
"Muntinlupa, Metro Manila, Philippines",14.39453,121.04483,PLDT,94473,95000,94.47,95.00,5,1755,546,793
"San Juan City, Metro Manila, Philippines",14.60196,121.0355,Globe,253199,217723,253.20,217.72,5,1745,544,863
"La Trinidad, Benguet, Philippines",16.44844,120.59047,Converge,128083,129595,128.08,129.60,4,1720,646,940
"Dasmariñas, Cavite, Philippines",14.33385,120.95423,PLDT,94602,99349,94.60,99.35,10,1698,544,847
"Mandaluyong City, Metro Manila, Philippines",14.57627,121.03924,Globe,266125,239132,266.13,239.13,5,1647,632,970
"San Simon, Pampanga, Philippines",14.98432,120.75127,Converge,160316,177835,160.32,177.84,4,1646,568,930
"Malabon, Metro Manila, Philippines",14.65793,120.95118,PLDT Home Fiber,136563,132385,136.56,132.39,3,1591,544,831
"San Fernando, Pampanga, Philippines",15.02781,120.69349,PLDT Home Fiber,130030,99484,130.03,99.48,8,1564,563,838
"Talisay, Cebu, Philippines",10.25859,123.82413,Converge,250284,234828,250.28,234.83,17,1534,626,943
"Davao City, Davao del Sur, Philippines",7.06475,125.60884,PLDT,94381,84584,94.38,84.58,9,1497,499,720
"Mabalacat City, Pampanga, Philippines",15.24525,120.56567,Converge,140814,147505,140.81,147.51,3,1491,515,741
"Itogon, Benguet, Philippines",16.36116,120.6787,PLDT,110095,103194,110.10,103.19,6,1470,436,690
"Taguig, Metro Manila, Philippines",14.53063,121.05755,PLDT Home Fiber,141259,154865,141.26,154.87,4,1470,454,655
"Tanauan City, Batangas, Philippines",14.08354,121.14762,PLDT Home Fiber,129417,100381,129.42,100.38,7,1463,502,775
"Bacolod, Negros Occidental, Philippines",10.66764,122.94556,PLDT Home Fiber,84152,83852,84.15,83.85,8,1459,448,636
"Magpet, Cotabato, Philippines",7.1332,125.17087,PLDT,99676,94448,99.68,94.45,9,1453,555,766
"Claveria, Misamis Oriental, Philippines",8.62972,124.90655,Converge,194576,167998,194.58,168.00,9,1451,525,839
"Taguig, Metro Manila, Philippines",14.53063,121.05755,PLDT,87595,85548,87.60,85.55,6,1441,518,753
"Caloocan, Metro Manila, Philippines",14.65136,120.99022,Globe,208053,172750,208.05,172.75,5,1412,495,683
"Las Piñas, Metro Manila, Philippines",14.44934,120.98186,PLDT Home Fiber,182325,161948,182.33,161.95,4,1411,457,664
"Iriga City, Camarines Sur, Philippines",13.42095,123.41361,Converge,122116,105179,122.12,105.18,12,1391,403,775
"San Antonio, Nueva Ecija, Philippines",15.31921,120.82692,Globe,240417,198466,240.42,198.47,5,1371,514,744
"Caloocan, Metro Manila, Philippines",14.65136,120.99022,Converge,233130,238145,233.13,238.15,4,1357,383,598
"Parañaque, Metro Manila, Philippines",14.47929,121.01985,Globe,241554,212704,241.55,212.70,4,1323,503,707
"Makati City, Metro Manila, Philippines",14.55474,121.02444,Globe,225817,175925,225.82,175.93,4,1307,406,592
"Binangonan, Rizal, Philippines",14.48441,121.1869,PLDT,134478,154944,134.48,154.94,3,1296,454,740
"General Trias, Cavite, Philippines",14.38159,120.87915,PLDT Home Fiber,180870,145967,180.87,145.97,4,1293,391,548
"Santa Cruz, Davao del Sur, Philippines",6.83551,125.41659,Converge,189035,193655,189.04,193.66,4,1285,502,750
"Baguio, Benguet, Philippines",16.41297,120.5914,PLDT,93619,93658,93.62,93.66,5,1268,385,592
"Iligan City, Lanao del Norte, Philippines",8.22707,124.46418,Converge,205183,198500,205.18,198.50,7,1265,518,747
"San Pablo City, Laguna, Philippines",14.06422,121.32326,PLDT Home Fiber,120750,134424,120.75,134.42,6,1238,349,558
"Magpet, Cotabato, Philippines",7.1332,125.17087,PLDT Home Fiber,135011,95898,135.01,95.90,9,1229,477,662
"Muntinlupa, Metro Manila, Philippines",14.39453,121.04483,PLDT Home Fiber,127041,97486,127.04,97.49,4,1202,300,452
"Marilao, Bulacan, Philippines",14.77237,120.96001,Converge,188845,128878,188.85,128.88,8,1197,302,438
"Dasmariñas, Cavite, Philippines",14.33385,120.95423,Globe,242626,210385,242.63,210.39,5,1154,446,650
"Los Baños, Laguna, Philippines",14.17731,121.22161,PLDT Home Fiber,132308,126957,132.31,126.96,8,1147,441,659
"Magalang, Pampanga, Philippines",15.21394,120.66181,Converge,128075,133443,128.08,133.44,3,1137,433,692
"San Fernando, Pampanga, Philippines",15.02781,120.69349,Converge,107428,106482,107.43,106.48,4,1111,399,561
"Tanauan City, Batangas, Philippines",14.08354,121.14762,PLDT,134841,100650,134.84,100.65,7,1104,396,578
"Bacolor, Pampanga, Philippines",14.99692,120.65235,PLDT Home Fiber,158541,102911,158.54,102.91,8,1033,397,554
"Tagaytay City, Cavite, Philippines",14.11541,120.96202,Converge,156426,121999,156.43,122.00,6,1030,321,523
"Pasay City, Metro Manila, Philippines",14.53767,121.00081,PLDT,92855,91286,92.86,91.29,5,1023,340,573
"Santa Barbara, Pangasinan, Philippines",15.9774,120.42424,Converge,97637,107600,97.64,107.60,6,1011,331,549
"Naga City, Camarines Sur, Philippines",13.6475,123.27003,Converge,93618,75295,93.62,75.30,9,1006,273,429
"Antipolo City, 1870 Rizal, Philippines",14.58584,121.17569,PLDT,65924,58370,65.92,58.37,10,983,282,445
"La Paz, Tarlac, Philippines",15.4497,120.7235,Globe,61842,53958,61.84,53.96,5,978,309,578
"Cabanatuan City, Nueva Ecija, Philippines",15.49943,121.01057,Globe,131414,113165,131.41,113.17,6,975,358,542
"Calapan City, Oriental Mindoro, Philippines",13.36643,121.19395,Converge,106322,103475,106.32,103.48,12,974,281,509
"San Rafael, Bulacan, Philippines",15.00184,120.93141,PLDT Home Fiber,116751,96993,116.75,96.99,7,960,252,363
"Malabon, Metro Manila, Philippines",14.65793,120.95118,Converge,220671,215207,220.67,215.21,4,945,242,418
"Marikina, Metro Manila, Philippines",14.63493,121.10195,PLDT Home Fiber,180739,170345,180.74,170.35,3,942,338,484
"Calamba, Laguna, Philippines",14.19488,121.15974,PLDT,93793,100285,93.79,100.29,8,926,344,534
"Baguio, Benguet, Philippines",16.41297,120.5914,Converge,94852,100082,94.85,100.08,4,922,304,443
"San Juan City, Metro Manila, Philippines",14.60196,121.0355,Converge,183498,157942,183.50,157.94,3,922,338,534
"Bacolod, Negros Occidental, Philippines",10.66764,122.94556,Globe,116765,105615,116.77,105.62,9,896,321,462
"Canlaon City, Negros Oriental, Philippines",10.36048,123.19137,PLDT Home Fiber,111139,132262,111.14,132.26,6,888,375,515
"SJDM, Bulacan, Philippines",14.82867,121.04324,Converge,129216,134417,129.22,134.42,7,884,360,462
"Magpet, Cotabato, Philippines",7.1332,125.17087,Globe,64033,105430,64.03,105.43,5,873,364,517
"Subic Bay Freeport Zone, Philippines",14.80319,120.30033,Converge,107880,110894,107.88,110.89,5,861,273,429
"Taytay, Rizal, Philippines",14.55288,121.12571,PLDT,94057,95940,94.06,95.94,7,858,246,407
"Itogon, Benguet, Philippines",16.36116,120.6787,PLDT Home Fiber,109620,112643,109.62,112.64,7,856,288,460
"Danao, Cebu, Philippines",10.52013,124.02712,Globe,67285,61973,67.29,61.97,7,854,311,471
"Cagayan De Oro City, Misamis Oriental, Philippines",8.48029,124.64975,Converge,150020,127386,150.02,127.39,9,841,245,324
"San Juan City, Metro Manila, Philippines",14.60196,121.0355,PLDT Home Fiber,154268,162538,154.27,162.54,3,832,321,464
"Taytay, Rizal, Philippines",14.55288,121.12571,Converge,207000,213679,207.00,213.68,3,828,275,425
"Caloocan, Metro Manila, Philippines",14.65136,120.99022,PLDT,94509,94552,94.51,94.55,4,823,270,427
"Talakag, Bukidnon, Philippines",8.05293,124.72988,PLDT Home Fiber,94441,99869,94.44,99.87,5,821,303,429
"Murcia, Negros Occidental, Philippines",10.60643,123.03944,Globe,122988,109176,122.99,109.18,8,821,366,491
"Cainta, Rizal, Philippines",14.58056,121.11565,Globe,295828,236847,295.83,236.85,5,811,284,369
"San Luis, Pampanga, Philippines",15.03986,120.81544,Converge,139159,160201,139.16,160.20,5,806,263,463
"New Lucena, Iloilo, Philippines",10.87841,122.59781,Converge,151490,137337,151.49,137.34,15,800,245,473
"San Juan City, Metro Manila, Philippines",14.60196,121.0355,PLDT,59660,57099,59.66,57.10,18,800,281,444
"Taytay, Rizal, Philippines",14.55288,121.12571,PLDT Home Fiber,156579,168539,156.58,168.54,4,799,289,406
"Bacolod, Negros Occidental, Philippines",10.66764,122.94556,Converge,197509,182706,197.51,182.71,15,790,208,307
"Polangui, Albay, Philippines",13.29368,123.48542,Converge,147941,100746,147.94,100.75,14,784,202,382
"City of Tayabas, Quezon, Philippines",14.01135,121.55983,PLDT Home Fiber,108539,141553,108.54,141.55,9,782,224,345
"Iloilo City, Iloilo, Philippines",10.73019,122.55911,PLDT Home Fiber,110091,113166,110.09,113.17,8,777,245,372
"Bacoor, Cavite, Philippines",14.43122,120.96567,PLDT,94176,90876,94.18,90.88,8,773,251,348
"Murcia, Negros Occidental, Philippines",10.60643,123.03944,PLDT Home Fiber,125566,127849,125.57,127.85,6,738,275,397
"San Carlos City, Negros Occidental, Philippines",10.48344,123.30371,PLDT Home Fiber,95884,147564,95.88,147.56,5,737,277,417
"Dolores, Quezon, Philippines",14.00193,121.41133,Converge,217915,236157,217.92,236.16,5,721,231,448
"Urdaneta City, Pangasinan, Philippines",15.98194,120.59698,Converge,96664,107815,96.66,107.82,6,721,229,400
"Cabuyao City, Laguna, Philippines",14.27433,121.11961,PLDT Home Fiber,188265,203704,188.27,203.70,7,694,233,349
"Iloilo City, Iloilo, Philippines",10.73019,122.55911,PLDT,58874,58086,58.87,58.09,10,681,181,291
"Makati City, Metro Manila, Philippines",14.55474,121.02444,Converge,214810,204207,214.81,204.21,5,681,204,311
"Lipa City, Batangas, Philippines",13.94047,121.19395,PLDT Home Fiber,122413,121967,122.41,121.97,6,677,235,337
"Manila, Metro Manila, Philippines",14.59951,120.98423,Globe,285321,244531,285.32,244.53,5,656,222,319
"Butuan City, Agusan Del Norte, Philippines",8.94753,125.54063,Globe,198165,75167,198.17,75.17,11,652,254,378
"Muntinlupa, Metro Manila, Philippines",14.39453,121.04483,Converge,234009,231177,234.01,231.18,4,648,246,361
"Butuan City, Agusan Del Norte, Philippines",8.94753,125.54063,PLDT Home Fiber,92680,91269,92.68,91.27,9,647,178,244
"Silay, Negros Occidental, Philippines",10.79968,122.97605,PLDT,66097,71935,66.10,71.94,23,638,174,274
"Danao, Cebu, Philippines",10.52013,124.02712,PLDT Home Fiber,108389,144214,108.39,144.21,6,631,253,366
"Antipolo City, 1870 Rizal, Philippines",14.58584,121.17569,Globe,230223,214854,230.22,214.85,5,628,230,300
"Nabua, Camarines Sur, Philippines",13.4069,123.37324,Converge,177707,147941,177.71,147.94,4,626,223,399
"Dasmariñas, Cavite, Philippines",14.33385,120.95423,Converge,214759,190384,214.76,190.38,5,626,230,376
"Balamban, Cebu, Philippines",10.48585,123.77412,Globe,181068,163329,181.07,163.33,8,623,251,366
"Marikina, Metro Manila, Philippines",14.63493,121.10195,Globe,193123,166496,193.12,166.50,5,615,208,295
"Compostela, Cebu, Philippines",10.45408,124.013,Globe,259381,224082,259.38,224.08,5,611,268,368
"Imus, Cavite, Philippines",14.42764,120.93724,Globe,248334,231345,248.33,231.35,5,607,241,344
"Tarlac City, Tarlac, Philippines",15.48808,120.58719,Globe,108820,105046,108.82,105.05,5,606,226,311
"Angeles, Pampanga, Philippines",15.16061,120.60908,PLDT Home Fiber,94765,93202,94.77,93.20,10,589,183,266
"Iloilo City, Iloilo, Philippines",10.73019,122.55911,Converge,151487,140483,151.49,140.48,15,580,187,268
"Bacoor, Cavite, Philippines",14.43122,120.96567,Converge,201759,182264,201.76,182.26,6,571,185,281
"Malabon, Metro Manila, Philippines",14.65793,120.95118,PLDT,66023,65285,66.02,65.29,8,570,154,271
"Lucena City, Quezon, Philippines",13.94139,121.62345,PLDT Home Fiber,104677,108114,104.68,108.11,5,567,176,262
"Mandaluyong City, Metro Manila, Philippines",14.57627,121.03924,PLDT Home Fiber,194004,185167,194.00,185.17,3,557,221,295
"Kidapawan, Cotabato, Philippines",7.02127,125.09019,PLDT Home Fiber,105346,94460,105.35,94.46,10,554,191,256
"Mandaluyong City, Metro Manila, Philippines",14.57627,121.03924,PLDT,54519,51306,54.52,51.31,14,552,198,304
"Pitogo, Quezon, Philippines",13.80951,122.10647,Converge,99952,94600,99.95,94.60,11,549,183,288
"Kawit, Cavite, Philippines",14.44588,120.90871,PLDT Home Fiber,94542,94265,94.54,94.27,8,535,191,298
"Binangonan, Rizal, Philippines",14.48441,121.1869,PLDT Home Fiber,156748,138281,156.75,138.28,3,529,204,303
"Kitaotao, Bukidnon, Philippines",7.59444,125.10487,Globe,92466,91195,92.47,91.20,5,527,246,343
"Cainta, Rizal, Philippines",14.58056,121.11565,Converge,138037,146775,138.04,146.78,3,521,160,227
"Cainta, Rizal, Philippines",14.58056,121.11565,PLDT,92826,88327,92.83,88.33,8,517,161,256
"Naga City, Camarines Sur, Philippines",13.6475,123.27003,PLDT Home Fiber,95176,117653,95.18,117.65,8,512,181,298
"Burgos, La Union, Philippines",16.53803,120.47033,Converge,113958,107981,113.96,107.98,4,511,180,323
"Subic, Zambales, Philippines",14.83066,120.18202,Converge,119892,129224,119.89,129.22,5,509,185,309
"Tarlac City, Tarlac, Philippines",15.48808,120.58719,PLDT Home Fiber,98224,94626,98.22,94.63,11,506,168,237
"Mambusao, Capiz, Philippines",11.44257,122.59383,Converge,124913,118265,124.91,118.27,16,499,147,288
"Las Piñas, Metro Manila, Philippines",14.44934,120.98186,PLDT,62871,69292,62.87,69.29,9,497,136,216
"Koronadal, South Cotabato, Philippines",6.50044,124.84333,PLDT Home Fiber,45924,52514,45.92,52.51,11,493,96,141
"Bago, Negros Occidental, Philippines",10.53757,122.83609,Globe,117002,104842,117.00,104.84,4,493,219,316
"Sablan, Benguet, Philippines",16.49609,120.48794,Converge,108320,108611,108.32,108.61,4,492,158,261
"Zamboanga City, Zamboanga del Sur, Philippines",6.90437,122.07612,PLDT Home Fiber,99473,66056,99.47,66.06,13,488,146,209
"Mauban, Quezon, Philippines",14.23756,121.69674,Converge,104309,104590,104.31,104.59,14,482,130,264
"Carmen, Cebu, Philippines",10.58876,123.96385,PLDT Home Fiber,150964,169210,150.96,169.21,5,479,187,276
"Bacoor, Cavite, Philippines",14.43122,120.96567,Globe,237294,234067,237.29,234.07,5,478,166,223
"Concepcion, Tarlac, Philippines",15.324,120.65596,Globe,253809,236088,253.81,236.09,5,472,152,240
"Valenzuela, Metro Manila, Philippines",14.69247,120.96991,Globe,190293,174399,190.29,174.40,5,471,184,250
"Tarlac City, Tarlac, Philippines",15.48808,120.58719,PLDT,93501,94352,93.50,94.35,9,471,173,258
"Bansalan, Davao del Sur, Philippines",6.84825,125.22584,PLDT Home Fiber,95680,94600,95.68,94.60,10,466,177,261
"Liloan, Cebu, Philippines",10.39926,124.00002,Globe,95220,99097,95.22,99.10,6,463,184,261
"Castillejos, Zambales, Philippines",14.94382,120.19357,Converge,107319,135889,107.32,135.89,5,463,152,270
"Dagupan City, Pangasinan, Philippines",16.03375,120.33202,PLDT Home Fiber,139554,94721,139.55,94.72,7,460,133,229
"Las Piñas, Metro Manila, Philippines",14.44934,120.98186,Converge,254912,250151,254.91,250.15,3,460,154,237
"SJDM, Bulacan, Philippines",14.82867,121.04324,PLDT,57163,62047,57.16,62.05,12,460,135,207
"Cardona, Rizal, Philippines",14.48493,121.232,PLDT,131550,160284,131.55,160.28,4,458,119,192
"Santo Domingo, Nueva Ecija, Philippines",15.61284,120.88434,Globe,125192,109817,125.19,109.82,6,457,177,269
"Biñan, Laguna, Philippines",14.31456,121.08316,PLDT Home Fiber,93657,93440,93.66,93.44,7,455,146,223
"Alfonso, Cavite, Philippines",14.1214,120.86138,PLDT Home Fiber,53061,83881,53.06,83.88,410,452,89,105
"City of Santa Rosa, Laguna, Philippines",14.31471,121.11232,PLDT Home Fiber,107115,103733,107.12,103.73,7,447,121,181
"Bacolod, Negros Occidental, Philippines",10.66764,122.94556,PLDT,79056,74153,79.06,74.15,8,442,144,219
"Olongapo City, Zambales, Philippines",14.88739,120.36661,Converge,208497,211743,208.50,211.74,4,434,148,220
"Bustos, Bulacan, Philippines",14.95239,120.91735,PLDT Home Fiber,151940,108307,151.94,108.31,7,426,176,260
"La Castellana, Negros Occidental, Philippines",10.33198,123.10141,PLDT Home Fiber,93344,94392,93.34,94.39,9,426,151,227
"Santa Maria, Bulacan, Philippines",14.82898,120.97616,PLDT Home Fiber,162871,112809,162.87,112.81,8,422,157,215
"Asturias, Cebu, Philippines",10.60209,123.77412,Globe,93551,90198,93.55,90.20,7,418,169,266
"Las Piñas, Metro Manila, Philippines",14.44934,120.98186,Globe,235649,195156,235.65,195.16,5,416,137,185
"Angono, Rizal, Philippines",14.52592,121.15321,Converge,293248,297949,293.25,297.95,3,415,138,246
"General Mamerto Natividad, Nueva Ecija, Philippines",15.58788,121.04498,Converge,185986,202538,185.99,202.54,5,410,140,261
"Marilao, Bulacan, Philippines",14.77237,120.96001,PLDT Home Fiber,148374,127672,148.37,127.67,8,409,146,221
"Kawit, Cavite, Philippines",14.44588,120.90871,PLDT,84203,85204,84.20,85.20,11,408,154,259
"Angadanan, Isabela, Philippines",16.7913,121.78792,Converge,95868,107159,95.87,107.16,8,396,121,214
"Llanera, Nueva Ecija, Philippines",15.66623,121.01057,Converge,144808,158382,144.81,158.38,5,388,146,234
"Tanza, Cavite, Philippines",14.34293,120.85032,Converge,199916,198736,199.92,198.74,5,385,130,202
"Malolos, Bulacan, Philippines",14.86049,120.80916,PLDT Home Fiber,104591,116954,104.59,116.95,7,385,137,201
"San Nicolas, Pangasinan, Philippines",16.12066,120.78097,PLDT,117193,101472,117.19,101.47,6,384,148,226
"Tacurong City, Sultan Kudarat, Philippines",6.6866,124.66353,PLDT Home Fiber,192539,157404,192.54,157.40,11,383,27,51
"San Pedro, Laguna, Philippines",14.36443,121.06192,PLDT Home Fiber,190890,136108,190.89,136.11,4,382,144,194
"San Antonio, Nueva Ecija, Philippines",15.31921,120.82692,PLDT Home Fiber,94391,94367,94.39,94.37,11,381,129,200
"Cabiao, Nueva Ecija, Philippines",15.25221,120.85957,PLDT Home Fiber,93572,93896,93.57,93.90,11,380,94,140
"Dagupan City, Pangasinan, Philippines",16.03375,120.33202,Converge,141110,126292,141.11,126.29,6,377,118,172
"Diadi, Nueva Vizcaya, Philippines",16.6595,121.33129,Converge,145013,128106,145.01,128.11,8,374,111,195
"Bago, Negros Occidental, Philippines",10.53757,122.83609,PLDT Home Fiber,94319,98931,94.32,98.93,6,372,131,209
"Talaingod, Davao del Norte, Philippines",7.68339,125.522,Globe,64166,56037,64.17,56.04,4,372,146,227
"Cabuyao City, Laguna, Philippines",14.27433,121.11961,PLDT,113027,94387,113.03,94.39,11,369,138,188
"Santo Tomas, Batangas, Philippines",14.08754,121.17764,PLDT Home Fiber,155506,192071,155.51,192.07,10,367,114,150
"SJDM, Bulacan, Philippines",14.82867,121.04324,PLDT Home Fiber,86462,93390,86.46,93.39,5,365,123,174
"Lipa City, Batangas, Philippines",13.94047,121.19395,Globe,157375,166010,157.38,166.01,7,365,165,224
"City of Santa Rosa, Laguna, Philippines",14.31471,121.11232,PLDT,87671,81917,87.67,81.92,10,364,137,207
"Cadiz City, Negros Occidental, Philippines",10.86192,123.23632,PLDT Home Fiber,75283,70920,75.28,70.92,8,363,91,145
"Roxas, Oriental Mindoro, Philippines",12.62617,121.47989,PLDT Home Fiber,40460,29105,40.46,29.11,8,362,10,13
"Candaba, Pampanga, Philippines",15.09289,120.8277,PLDT Home Fiber,117997,126423,118.00,126.42,7,361,145,206
"Concepcion, Tarlac, Philippines",15.324,120.65596,PLDT Home Fiber,93810,93291,93.81,93.29,11,359,115,178
"Kawit, Cavite, Philippines",14.44588,120.90871,Converge,208009,209369,208.01,209.37,5,358,117,187
"Meycauayan, Bulacan, Philippines",14.73772,120.96077,PLDT Home Fiber,113610,100083,113.61,100.08,8,352,128,194
"Marilao, Bulacan, Philippines",14.77237,120.96001,PLDT,58447,54690,58.45,54.69,7,347,99,141
"Nagcarlan, Laguna, Philippines",14.14903,121.38847,PLDT Home Fiber,94247,124551,94.25,124.55,9,341,92,162
"Rodriguez, Rizal, Philippines",14.73202,121.14516,PLDT Home Fiber,147199,170584,147.20,170.58,3,339,115,153
"Kayapa, Nueva Vizcaya, Philippines",16.49326,120.94174,PLDT Home Fiber,100203,93787,100.20,93.79,6,336,115,190
"Lapu-Lapu, Cebu, Philippines",10.31838,123.96395,Converge,186681,179355,186.68,179.36,3,334,115,176
"Baliwag, Bulacan, Philippines",14.96569,120.89431,PLDT Home Fiber,88814,92494,88.81,92.49,6,333,133,197
"General Santos City (Dadiangas), South Cotabato, Philippines",6.14327,125.19286,PLDT Home Fiber,83533,88074,83.53,88.07,11,331,125,162
"Tanza, Cavite, Philippines",14.34293,120.85032,PLDT Home Fiber,192392,225491,192.39,225.49,4,325,130,160
"La Trinidad, Benguet, Philippines",16.44844,120.59047,PLDT Home Fiber,95766,102908,95.77,102.91,9,324,94,150
"Nasugbu, Batangas, Philippines",14.09404,120.68901,Globe,179283,194243,179.28,194.24,7,323,78,118
"Arayat, Pampanga, Philippines",15.15443,120.771,PLDT Home Fiber,90692,83409,90.69,83.41,10,318,123,192
"San Quintin, Pangasinan, Philippines",15.9754,120.83841,Globe,62119,53728,62.12,53.73,6,317,112,211
"Pasay City, Metro Manila, Philippines",14.53767,121.00081,Converge,255451,246224,255.45,246.22,4,315,124,165
"Plaridel, Bulacan, Philippines",14.88591,120.85932,PLDT Home Fiber,134625,112023,134.63,112.02,7,315,95,160
"Calamba, Laguna, Philippines",14.19488,121.15974,Globe,240946,226151,240.95,226.15,5,315,138,187
"Sariaya, Quezon, Philippines",13.96301,121.52388,PLDT Home Fiber,94562,94972,94.56,94.97,5,311,98,155
"Valenzuela, Metro Manila, Philippines",14.69247,120.96991,PLDT,46892,70580,46.89,70.58,6,310,116,157
"Malolos, Bulacan, Philippines",14.86049,120.80916,PLDT,90364,89973,90.36,89.97,8,309,100,146
"Cabanatuan City, Nueva Ecija, Philippines",15.49943,121.01057,PLDT Home Fiber,75507,76271,75.51,76.27,10,307,94,156
"Kawit, Cavite, Philippines",14.44588,120.90871,Globe,266240,224279,266.24,224.28,5,302,118,163
"Lapu-Lapu, Cebu, Philippines",10.31838,123.96395,Globe,191163,184507,191.16,184.51,5,298,102,124
"Dumaguete City, Negros Oriental, Philippines",9.29841,123.29249,PLDT,134962,145600,134.96,145.60,7,296,36,45
"Bocaue, Bulacan, Philippines",14.7943,120.93073,PLDT Home Fiber,136682,123952,136.68,123.95,7,290,79,126
"Zamboanga City, Zamboanga del Sur, Philippines",6.90437,122.07612,Globe,90597,68712,90.60,68.71,13,287,77,106
"Angeles, Pampanga, Philippines",15.16061,120.60908,PLDT,55533,53216,55.53,53.22,11,286,120,193
"Bokod, Benguet, Philippines",16.45641,120.78097,PLDT Home Fiber,91631,93576,91.63,93.58,6,285,118,176
"Batangas City, Batangas, Philippines",13.75641,121.05833,PLDT Home Fiber,122351,115508,122.35,115.51,6,285,103,147
"San Mateo, Rizal, Philippines",14.69539,121.11767,PLDT Home Fiber,149972,132257,149.97,132.26,4,284,110,157
"Arayat, Pampanga, Philippines",15.15443,120.771,Globe,164449,142683,164.45,142.68,6,281,86,127
"Lucena City, Quezon, Philippines",13.94139,121.62345,PLDT,121283,117908,121.28,117.91,5,280,76,114
"Navotas, Metro Manila, Philippines",14.65819,120.94743,PLDT,53780,64883,53.78,64.88,9,279,102,165
"Kibungan, Benguet, Philippines",16.68162,120.68901,PLDT Home Fiber,90108,93114,90.11,93.11,6,278,82,146
"Tagaytay City, Cavite, Philippines",14.11541,120.96202,PLDT,94808,94600,94.81,94.60,9,278,85,140
"Lipa City, Batangas, Philippines",13.94047,121.19395,PLDT,123760,90649,123.76,90.65,6,276,114,160
"City of Guihulngan, Negros Oriental, Philippines",10.18323,123.21385,PLDT Home Fiber,92175,99231,92.18,99.23,7,274,118,157
"Orani, Bataan, Philippines",14.80086,120.53616,Converge,103410,124420,103.41,124.42,6,274,95,139
"San Pedro, Laguna, Philippines",14.36443,121.06192,Converge,217138,237003,217.14,237.00,5,273,100,158
"Marikina, Metro Manila, Philippines",14.63493,121.10195,PLDT,82510,93337,82.51,93.34,10,273,87,127
"Talisay, Cebu, Philippines",10.25859,123.82413,PLDT Home Fiber,132964,148266,132.96,148.27,4,270,57,83
"City of Santa Rosa, Laguna, Philippines",14.31471,121.11232,Globe,188447,181501,188.45,181.50,6,270,108,158
"Kidapawan, Cotabato, Philippines",7.02127,125.09019,PLDT,188408,112796,188.41,112.80,8,270,115,159
"San Nicolas, Pangasinan, Philippines",16.12066,120.78097,PLDT Home Fiber,121738,113956,121.74,113.96,8,266,84,144
"Mandaue, Cebu, Philippines",10.3279,123.94273,Globe,209563,203061,209.56,203.06,5,265,94,116
"General Trias, Cavite, Philippines",14.38159,120.87915,Globe,186365,157011,186.37,157.01,5,261,107,146
"Lapu-Lapu, Cebu, Philippines",10.31838,123.96395,PLDT Home Fiber,161717,151641,161.72,151.64,3,260,96,127
"Sagay City, Negros Occidental, Philippines",10.84555,123.37106,PLDT Home Fiber,70625,78694,70.63,78.69,9,257,79,116
"Rizal, Laguna, Philippines",14.08408,121.41133,PLDT Home Fiber,107602,165377,107.60,165.38,7,250,58,98
"San Mateo, Rizal, Philippines",14.69539,121.11767,Converge,191707,183830,191.71,183.83,4,250,97,119
"Obando, Bulacan, Philippines",14.70986,120.93674,PLDT,32209,60047,32.21,60.05,17,249,72,114
"Salvador Benedicto, Negros Occidental, Philippines",10.5887,123.23632,PLDT Home Fiber,141813,160063,141.81,160.06,6,248,97,150
"Mandaue, Cebu, Philippines",10.3279,123.94273,Converge,157096,139708,157.10,139.71,3,247,109,150
"Buhi, Camarines Sur, Philippines",13.40951,123.51681,Converge,65741,47739,65.74,47.74,4,246,61,163
"Bustos, Bulacan, Philippines",14.95239,120.91735,PLDT,108420,94296,108.42,94.30,7,246,79,130
"San Pedro, Laguna, Philippines",14.36443,121.06192,Globe,249000,189951,249.00,189.95,8,244,59,83
"Isabela, Basilan, Philippines",6.70387,121.9799,Globe,251207,162840,251.21,162.84,15,244,32,43
"Lucena City, Quezon, Philippines",13.94139,121.62345,Converge,117880,120712,117.88,120.71,12,243,61,111
"Naic, Cavite, Philippines",14.29649,120.79246,PLDT,83385,89557,83.39,89.56,9,239,75,100
"Baguio, Benguet, Philippines",16.41297,120.5914,Globe,221384,201129,221.38,201.13,6,237,66,93
"Mexico, Pampanga, Philippines",15.06457,120.72033,PLDT Home Fiber,96752,94247,96.75,94.25,9,237,90,146
"Talisay, Cebu, Philippines",10.25859,123.82413,PLDT,53584,55179,53.58,55.18,5,236,53,79
"Digos, Davao del Sur, Philippines",6.74347,125.35515,PLDT Home Fiber,111445,101607,111.45,101.61,10,235,90,142
"Subic Bay Freeport Zone, Philippines",14.80319,120.30033,PLDT,44862,48338,44.86,48.34,13,233,91,136
"Muntinlupa, Metro Manila, Philippines",14.39453,121.04483,Globe,229016,178827,229.02,178.83,5,233,100,131
"Cabanatuan City, Nueva Ecija, Philippines",15.49943,121.01057,PLDT,105333,103362,105.33,103.36,9,232,89,139
"Candelaria, Quezon, Philippines",13.94899,121.42276,PLDT Home Fiber,111221,101379,111.22,101.38,5,229,75,115
"Concepcion, Tarlac, Philippines",15.324,120.65596,PLDT,56257,57537,56.26,57.54,13,228,50,87
"Baao, Camarines Sur, Philippines",13.49319,123.35984,Converge,64909,48909,64.91,48.91,19,223,59,140
"City of Santa Rosa, Laguna, Philippines",14.31471,121.11232,Converge,151913,142574,151.91,142.57,5,223,70,119
"Salvador Benedicto, Negros Occidental, Philippines",10.5887,123.23632,PLDT,157120,204184,157.12,204.18,5,222,69,105
"Mandaue, Cebu, Philippines",10.3279,123.94273,PLDT Home Fiber,196737,172935,196.74,172.94,4,221,60,96
"Indang, Cavite, Philippines",14.19204,120.87286,PLDT,84944,89983,84.94,89.98,10,219,65,91
"Sarrat, Ilocos Norte, Philippines",18.11379,120.6545,Converge,99848,120863,99.85,120.86,10,216,66,121
"San Ildefonso, Bulacan, Philippines",15.07717,120.94171,PLDT,82241,79881,82.24,79.88,8,216,71,119
"Lubao, Pampanga, Philippines",14.92678,120.58795,PLDT Home Fiber,93858,99278,93.86,99.28,8,215,76,106
"Silang, Cavite, Philippines",14.22025,120.96469,PLDT,193602,147048,193.60,147.05,6,214,85,114
"Lipa City, Batangas, Philippines",13.94047,121.19395,Converge,176633,178847,176.63,178.85,7,212,70,108
"Rodriguez, Rizal, Philippines",14.73202,121.14516,Converge,199697,197738,199.70,197.74,4,212,81,111
"Bago, Negros Occidental, Philippines",10.53757,122.83609,PLDT,91309,93827,91.31,93.83,6,211,63,90
"San Marcelino, Zambales, Philippines",15.02605,120.27435,Converge,113484,109131,113.48,109.13,5,209,79,136
"Pandi, Bulacan, Philippines",14.87572,120.95941,PLDT,91821,66175,91.82,66.18,7,208,55,83
"Santo Nino, Cagayan, Philippines",17.91267,121.49132,Converge,99943,94441,99.94,94.44,11,208,70,111
"Gapan City, Nueva Ecija, Philippines",15.29121,121.01057,PLDT Home Fiber,68947,71956,68.95,71.96,11,208,60,95
"Imus, Cavite, Philippines",14.42764,120.93724,PLDT,161695,55961,161.70,55.96,7,205,59,84
"Santa Maria, Bulacan, Philippines",14.82898,120.97616,PLDT,81945,78022,81.95,78.02,7,205,72,108
"Daet, Camarines Norte, Philippines",14.10303,122.9325,Converge,130828,162365,130.83,162.37,9,203,35,51
"Matalam, Cotabato, Philippines",7.17236,124.92861,PLDT,106061,94888,106.06,94.89,9,203,55,78
"Santa Maria, Bulacan, Philippines",14.82898,120.97616,Converge,174493,187033,174.49,187.03,7,202,89,121
"Lapu-Lapu, Cebu, Philippines",10.31838,123.96395,PLDT,82222,80892,82.22,80.89,4,198,68,114
"Rosario, Batangas, Philippines",13.80433,121.28552,Globe,158614,150025,158.61,150.03,8,197,80,120
"Silang, Cavite, Philippines",14.22025,120.96469,Converge,194124,137701,194.12,137.70,7,196,65,114
"Guagua, Pampanga, Philippines",14.96374,120.63244,PLDT Home Fiber,156841,155583,156.84,155.58,8,194,92,126
"Arakan, Cotabato, Philippines",7.35122,125.17087,Globe,348017,311690,348.02,311.69,4,191,87,118
"Palayan City, Nueva Ecija, Philippines",15.53906,121.09083,Converge,99177,101074,99.18,101.07,6,191,47,66
"Tanay, Rizal, Philippines",14.61419,121.37703,PLDT,44951,54239,44.95,54.24,20,188,45,64
"Apalit, Pampanga, Philippines",14.95255,120.76688,PLDT Home Fiber,147490,140905,147.49,140.91,7,187,40,65
"Surallah, South Cotabato, Philippines",6.3195,124.75198,PLDT Home Fiber,41146,39775,41.15,39.78,14,187,54,79
"Calauan, Laguna, Philippines",14.14551,121.3146,PLDT Home Fiber,99058,106993,99.06,106.99,9,187,49,74
"Santiago, Ilocos Sur, Philippines",17.28073,120.44729,Converge,167714,162637,167.71,162.64,9,187,51,110
"General Santos City (Dadiangas), South Cotabato, Philippines",6.14327,125.19286,Globe,121669,136021,121.67,136.02,12,186,56,71
"Liliw, Laguna, Philippines",14.12617,121.4399,PLDT Home Fiber,94337,138674,94.34,138.67,10,186,49,85
"Santo Domingo, Nueva Ecija, Philippines",15.61284,120.88434,PLDT,7659,58686,7.66,58.69,16,186,33,57
"Toledo, Cebu, Philippines",10.38705,123.65017,Globe,132750,114484,132.75,114.48,15,186,73,95
"Bayombong, Nueva Vizcaya, Philippines",16.48042,121.14813,Converge,128267,172927,128.27,172.93,8,185,37,52
"Minglanilla, Cebu, Philippines",10.24543,123.79599,Globe,213693,177633,213.69,177.63,9,185,54,75
"Naga, Cebu, Philippines",10.20764,123.75821,Globe,111798,114410,111.80,114.41,18,184,87,116
"Tuguegarao City, Cagayan, Philippines",17.60306,121.75374,PLDT,71618,88468,71.62,88.47,14,183,64,92
"Burgos, Ilocos Sur, Philippines",17.31148,120.51639,Converge,95026,107990,95.03,107.99,10,181,46,84
"Tuba, Benguet, Philippines",16.39277,120.56034,PLDT Home Fiber,93542,111185,93.54,111.19,7,179,61,87
"Oas, Albay, Philippines",13.14041,123.37106,PLDT,38092,24206,38.09,24.21,26,178,5,8
"Vallehermoso, Negros Oriental, Philippines",10.33905,123.29249,PLDT Home Fiber,98005,117090,98.01,117.09,6,178,86,107
"Sagay City, Negros Occidental, Philippines",10.84555,123.37106,Globe,114691,104301,114.69,104.30,14,177,39,62
"Dipolog City, Zamboanga del Norte, Philippines",8.58717,123.34035,Globe,57784,38516,57.78,38.52,17,177,37,48
"Porac, Pampanga, Philippines",15.06974,120.55007,PLDT Home Fiber,89541,87693,89.54,87.69,8,177,52,77
"Calabanga, Camarines Sur, Philippines",13.71633,123.28126,PLDT Home Fiber,62763,122696,62.76,122.70,30,176,42,52
"Tagum, Davao del Norte, Philippines",7.44742,125.80246,PLDT Home Fiber,76810,75882,76.81,75.88,8,175,57,88
"Legazpi City, Albay, Philippines",13.11288,123.76295,Converge,146796,151579,146.80,151.58,5,175,48,81
"Guagua, Pampanga, Philippines",14.96374,120.63244,Converge,63792,69963,63.79,69.96,4,175,63,102
"Trece Martires City, Cavite, Philippines",14.28222,120.86837,PLDT Home Fiber,189539,189231,189.54,189.23,5,175,63,83
"Lucban, Quezon, Philippines",14.1144,121.55472,PLDT Home Fiber,94376,94834,94.38,94.83,8,174,55,91
"Carranglan, Nueva Ecija, Philippines",15.97584,121.03351,PLDT Home Fiber,96497,117300,96.50,117.30,6,173,56,96
"Panglao, Bohol, Philippines",9.56947,123.78721,Converge,85694,70057,85.69,70.06,26,173,34,51
"Daraga, Albay, Philippines",13.12278,123.69588,Converge,174250,183173,174.25,183.17,14,172,32,43
"Talisay, Cebu, Philippines",10.25859,123.82413,Globe,117965,106238,117.97,106.24,10,172,68,100
"Legazpi City, Albay, Philippines",13.11288,123.76295,PLDT,80498,72204,80.50,72.20,15,171,53,78
"Iligan City, Lanao del Norte, Philippines",8.22707,124.46418,Globe,120947,72355,120.95,72.36,11,171,32,47
"Concepcion, Tarlac, Philippines",15.324,120.65596,Converge,91089,89880,91.09,89.88,4,170,68,98
"Dumaguete City, Negros Oriental, Philippines",9.29841,123.29249,PLDT Home Fiber,211489,232430,211.49,232.43,7,169,39,52
"Polomolok, South Cotabato, Philippines",6.22451,125.06084,PLDT Home Fiber,79708,71158,79.71,71.16,12,169,57,81
"Malvar, Batangas, Philippines",14.04329,121.15875,PLDT Home Fiber,122078,112888,122.08,112.89,8,169,47,68
"Valencia City, Bukidnon, Philippines",7.86319,125.17087,PLDT Home Fiber,90148,94289,90.15,94.29,7,169,64,101
"Bulakan, Bulacan, Philippines",14.79484,120.87889,PLDT,62139,59755,62.14,59.76,7,169,54,82
"Santa Fe, Nueva Vizcaya, Philippines",16.18249,120.91878,PLDT,86880,90855,86.88,90.86,7,168,37,66
"Mexico, Pampanga, Philippines",15.06457,120.72033,Globe,131210,128441,131.21,128.44,6,168,59,86
"Santiago, Isabela, Philippines",16.69679,121.55865,PLDT Home Fiber,142514,62752,142.51,62.75,14,167,37,59
"Lupao, Nueva Ecija, Philippines",15.84768,120.91878,Globe,100432,92765,100.43,92.77,7,167,68,108
"San Ildefonso, Bulacan, Philippines",15.07717,120.94171,PLDT Home Fiber,124506,107536,124.51,107.54,6,167,58,86
"Carmona, Cavite, Philippines",14.3135,121.05712,PLDT,192249,180162,192.25,180.16,7,166,63,77
"Pandi, Bulacan, Philippines",14.87572,120.95941,PLDT Home Fiber,100518,76627,100.52,76.63,7,166,71,93
"Cadiz City, Negros Occidental, Philippines",10.86192,123.23632,PLDT,48318,48393,48.32,48.39,17,166,50,89
"Taytay, Rizal, Philippines",14.55288,121.12571,Globe,308997,285743,309.00,285.74,4,163,59,82
"San Juan, Batangas, Philippines",13.75044,121.37703,PLDT Home Fiber,92847,94104,92.85,94.10,9,163,62,97
"Mayoyao, Ifugao, Philippines",16.95131,121.21685,PLDT Home Fiber,83934,93192,83.93,93.19,10,163,60,88
"Bocaue, Bulacan, Philippines",14.7943,120.93073,PLDT,112775,95995,112.78,96.00,6,163,57,99
"Dipolog City, Zamboanga del Norte, Philippines",8.58717,123.34035,PLDT Home Fiber,87534,86432,87.53,86.43,11,162,42,56
"San Jose City, Nueva Ecija, Philippines",15.79188,120.99008,PLDT Home Fiber,67198,58934,67.20,58.93,11,162,47,76
"Malolos, Bulacan, Philippines",14.86049,120.80916,Converge,203258,152329,203.26,152.33,7,162,67,99
"Dumanjug, Cebu, Philippines",10.02819,123.47198,PLDT Home Fiber,93555,98375,93.56,98.38,5,162,59,90
"Carmona, Cavite, Philippines",14.3135,121.05712,Globe,182500,152381,182.50,152.38,6,162,59,87
"Calumpit, Bulacan, Philippines",14.91518,120.7662,PLDT Home Fiber,158059,132378,158.06,132.38,8,161,50,66
"Rosario, Cavite, Philippines",14.41672,120.85471,PLDT,74195,57170,74.20,57.17,8,161,51,73
"San Fernando, Pampanga, Philippines",15.02781,120.69349,PLDT,50712,56278,50.71,56.28,12,160,62,89
"Navotas, Metro Manila, Philippines",14.65819,120.94743,PLDT Home Fiber,121699,151430,121.70,151.43,4,159,58,94
"Cabuyao City, Laguna, Philippines",14.27433,121.11961,Converge,93953,97820,93.95,97.82,5,158,44,81
"Guiguinto, Bulacan, Philippines",14.82832,120.88429,PLDT Home Fiber,90497,81759,90.50,81.76,8,158,54,81
"Naic, Cavite, Philippines",14.29649,120.79246,PLDT Home Fiber,90860,91020,90.86,91.02,8,157,41,53
"Baliwag, Bulacan, Philippines",14.96569,120.89431,Globe,105092,97319,105.09,97.32,8,157,36,48
"General Santos City (Dadiangas), South Cotabato, Philippines",6.14327,125.19286,PLDT,68570,82019,68.57,82.02,11,157,60,82
"San Jose, Batangas, Philippines",13.87868,121.09942,Globe,164491,123660,164.49,123.66,8,157,66,97
"Nabunturan, Davao de Oro, Philippines",7.54501,126.02409,PLDT Home Fiber,73286,50009,73.29,50.01,10,156,56,78
"San Jose City, Nueva Ecija, Philippines",15.79188,120.99008,Converge,154802,127033,154.80,127.03,5,156,54,73
"San Pedro, Laguna, Philippines",14.36443,121.06192,PLDT,175942,124869,175.94,124.87,6,156,62,91
"Noveleta, Cavite, Philippines",14.42785,120.88009,PLDT Home Fiber,104690,91812,104.69,91.81,7,154,34,48
"Borbon, Cebu, Philippines",10.84627,123.9973,Globe,112899,115756,112.90,115.76,20,154,64,82
"Minglanilla, Cebu, Philippines",10.24543,123.79599,PLDT,91626,101288,91.63,101.29,3,153,52,61
"Guiguinto, Bulacan, Philippines",14.82832,120.88429,Converge,155354,139122,155.35,139.12,7,153,46,67
"Kiamba, Sarangani, Philippines",6.00076,124.70777,PLDT Home Fiber,76524,72705,76.52,72.71,12,152,4,7
"Lubao, Pampanga, Philippines",14.92678,120.58795,Converge,76996,74876,77.00,74.88,4,152,55,73
"Malabon, Metro Manila, Philippines",14.65793,120.95118,Globe,281018,250927,281.02,250.93,5,151,53,71
"General Trias, Cavite, Philippines",14.38159,120.87915,PLDT,53216,50698,53.22,50.70,9,150,58,83
"Dolores, Quezon, Philippines",14.00193,121.41133,PLDT Home Fiber,93036,94200,93.04,94.20,8,150,44,72
"Santa Ana, Pampanga, Philippines",15.09442,120.76623,PLDT Home Fiber,117553,102191,117.55,102.19,10,148,38,68
"Puerto Princesa City, Palawan, Philippines",9.78563,118.62648,PLDT Home Fiber,115046,107827,115.05,107.83,19,148,46,74
"Calatrava, Negros Occidental, Philippines",10.62843,123.39349,PLDT Home Fiber,75609,89909,75.61,89.91,8,147,41,63
"Cuyapo, Nueva Ecija, Philippines",15.79995,120.68901,PLDT Home Fiber,120127,120182,120.13,120.18,10,146,54,73
"Angono, Rizal, Philippines",14.52592,121.15321,PLDT Home Fiber,143497,117349,143.50,117.35,4,145,43,62
"Pagadian City, Zamboanga del Sur, Philippines",7.86265,123.37106,PLDT Home Fiber,104624,112150,104.62,112.15,6,145,33,48
"Rosario, Cavite, Philippines",14.41672,120.85471,Converge,202029,199546,202.03,199.55,6,145,37,55
"Carmona, Cavite, Philippines",14.3135,121.05712,Converge,183460,211708,183.46,211.71,6,144,46,64
"Tacloban City, Leyte, Philippines",11.22238,124.99221,PLDT,98059,93931,98.06,93.93,8,144,46,63
"Salvador Benedicto, Negros Occidental, Philippines",10.5887,123.23632,Globe,200068,168088,200.07,168.09,14,144,66,91
"Danao, Cebu, Philippines",10.52013,124.02712,PLDT,28490,25200,28.49,25.20,7,143,37,52
"Pagadian City, Zamboanga del Sur, Philippines",7.86265,123.37106,Globe,79839,58998,79.84,59.00,7,143,34,43
"Matalam, Cotabato, Philippines",7.17236,124.92861,PLDT Home Fiber,89682,93806,89.68,93.81,10,142,33,46
"Candaba, Pampanga, Philippines",15.09289,120.8277,Globe,277335,270911,277.34,270.91,7,142,65,86
"Cardona, Rizal, Philippines",14.48493,121.232,PLDT Home Fiber,95869,129844,95.87,129.84,3,141,26,38
"General Tinio (Papaya), Nueva Ecija, Philippines",15.36345,121.21685,PLDT,47334,44899,47.33,44.90,15,141,49,71
"Angono, Rizal, Philippines",14.52592,121.15321,PLDT,102085,103767,102.09,103.77,4,141,58,83
"Bay, Laguna, Philippines",14.14064,121.26836,PLDT Home Fiber,142012,160685,142.01,160.69,5,141,44,63
"Madamba, Lanao del Sur, Philippines",7.86931,124.06971,PLDT Home Fiber,93843,92777,93.84,92.78,6,140,45,60
"Nasugbu, Batangas, Philippines",14.09404,120.68901,Converge,92723,94157,92.72,94.16,6,140,49,81
"Magsaysay, Davao del Sur, Philippines",6.75271,125.15221,PLDT Home Fiber,140714,110400,140.71,110.40,9,140,50,73
"Kabayan, Benguet, Philippines",16.61702,120.82692,PLDT Home Fiber,89536,93436,89.54,93.44,6,140,29,39
"Calasiao, Pangasinan, Philippines",16.00949,120.35759,PLDT Home Fiber,84035,75771,84.04,75.77,7,140,40,68
"Naga City, Camarines Sur, Philippines",13.6475,123.27003,PLDT,45717,56347,45.72,56.35,14,139,44,64
"San Ildefonso, Bulacan, Philippines",15.07717,120.94171,Globe,323697,310741,323.70,310.74,7,137,61,84
"Batangas City, Batangas, Philippines",13.75641,121.05833,PLDT,91208,94482,91.21,94.48,6,136,43,77
"Banga, South Cotabato, Philippines",6.38791,124.79617,PLDT Home Fiber,45366,45174,45.37,45.17,14,136,31,46
"Navotas, Metro Manila, Philippines",14.65819,120.94743,Converge,181792,192724,181.79,192.72,4,135,42,65
"Infanta, Quezon, Philippines",14.74071,121.6451,PLDT Home Fiber,86963,81262,86.96,81.26,10,135,38,64
"Magalang, Pampanga, Philippines",15.21394,120.66181,PLDT,55724,62618,55.72,62.62,12,135,46,71
"Ragay, Camarines Sur, Philippines",13.83123,122.78588,PLDT,29278,28106,29.28,28.11,16,134,3,3
"Angeles, Pampanga, Philippines",15.16061,120.60908,Globe,122476,121816,122.48,121.82,4,134,46,67
"Trece Martires City, Cavite, Philippines",14.28222,120.86837,Converge,213439,174800,213.44,174.80,6,133,55,66
"Kayapa, Nueva Vizcaya, Philippines",16.49326,120.94174,PLDT,155850,112193,155.85,112.19,5,132,34,62
"Mandaue, Cebu, Philippines",10.3279,123.94273,PLDT,93949,102425,93.95,102.43,4,132,48,68
"Pasay City, Metro Manila, Philippines",14.53767,121.00081,Globe,183039,138365,183.04,138.37,4,131,55,80
"Ozamiz, Misamis Occidental, Philippines",8.15,123.85033,Globe,57873,47096,57.87,47.10,17,131,30,42
"La Carlota City, Negros Occidental, Philippines",10.41437,122.97757,PLDT Home Fiber,138288,173330,138.29,173.33,6,131,44,70
"Roxas City, Capiz, Philippines",11.55288,122.74072,PLDT Home Fiber,95549,102008,95.55,102.01,9,131,37,60
"Guimba, Nueva Ecija, Philippines",15.65641,120.76767,Globe,199910,113040,199.91,113.04,6,130,56,79
"Biñan, Laguna, Philippines",14.31456,121.08316,Converge,233725,220039,233.73,220.04,6,130,52,75
"Tagum, Davao del Norte, Philippines",7.44742,125.80246,Globe,152168,125363,152.17,125.36,5,129,42,47
"Santa Maria, Bulacan, Philippines",14.82898,120.97616,Globe,232673,182987,232.67,182.99,8,129,45,69
"Kabacan, Cotabato, Philippines",7.10719,124.84034,PLDT Home Fiber,83139,65566,83.14,65.57,12,128,28,39
"Dumaguete City, Negros Oriental, Philippines",9.29841,123.29249,Globe,111934,110240,111.93,110.24,11,128,36,51
"Santo Tomas, Davao del Norte, Philippines",7.50929,125.63142,PLDT Home Fiber,68542,66833,68.54,66.83,10,127,37,49
"Mabalacat City, Pampanga, Philippines",15.24525,120.56567,PLDT Home Fiber,90757,82552,90.76,82.55,8,127,52,79
"San Fernando, Cebu, Philippines",10.16316,123.70738,Globe,212545,207848,212.55,207.85,16,127,57,79
"Salug, Zamboanga del Norte, Philippines",8.06518,122.78588,PLDT,82641,60255,82.64,60.26,19,127,6,11
"Naic, Cavite, Philippines",14.29649,120.79246,Converge,215655,222416,215.66,222.42,4,126,37,54
"Meycauayan, Bulacan, Philippines",14.73772,120.96077,Converge,214850,163828,214.85,163.83,8,126,67,94
"General Mariano Alvarez, Cavite, Philippines",14.29525,121.0071,PLDT,115142,117622,115.14,117.62,6,126,23,30
"Cotabato City, Maguindanao, Philippines",7.20467,124.23104,PLDT Home Fiber,148940,162549,148.94,162.55,11,126,39,54
"General Emilio Aguinaldo, Cavite, Philippines",14.19312,120.79246,PLDT Home Fiber,28499,75543,28.50,75.54,328,125,28,34
"San Isidro, Nueva Ecija, Philippines",15.29656,120.9073,PLDT Home Fiber,77682,58559,77.68,58.56,11,124,46,74
"San Mateo, Rizal, Philippines",14.69539,121.11767,Globe,117577,121313,117.58,121.31,5,124,32,44
"Tubaran, Lanao del Sur, Philippines",7.68702,124.08641,PLDT Home Fiber,120173,94516,120.17,94.52,5,124,40,65
"City of Batac, Ilocos Norte, Philippines",18.04961,120.59698,Converge,136738,108717,136.74,108.72,10,123,47,79
"Pili, Camarines Sur, Philippines",13.55521,123.28126,PLDT,37522,33084,37.52,33.08,12,122,35,44
"Malasiqui, Pangasinan, Philippines",15.92028,120.41443,PLDT Home Fiber,96477,121591,96.48,121.59,9,121,45,68
"Digos, Davao del Sur, Philippines",6.74347,125.35515,Converge,90734,72656,90.73,72.66,4,121,50,62
"Naga City, Camarines Sur, Philippines",13.6475,123.27003,Globe,118938,110085,118.94,110.09,12,121,48,68
"Marilao, Bulacan, Philippines",14.77237,120.96001,Globe,228345,157808,228.35,157.81,8,120,38,50
"Norzagaray, Bulacan, Philippines",14.89659,121.14813,Converge,182569,119038,182.57,119.04,7,120,31,48
"Alaminos City, Pangasinan, Philippines",16.15053,119.98562,Converge,95686,124729,95.69,124.73,7,119,29,39
"Surigao, Surigao del Norte, Philippines",9.79022,125.49311,PLDT Home Fiber,74749,92116,74.75,92.12,10,118,33,49
"Bokod, Benguet, Philippines",16.45641,120.78097,PLDT,94492,96215,94.49,96.22,6,118,54,84
"Puerto Princesa City, Palawan, Philippines",9.78563,118.62648,Converge,224776,161667,224.78,161.67,15,118,31,46
"Binangonan, Rizal, Philippines",14.48441,121.1869,Globe,119868,115930,119.87,115.93,4,117,32,45
"SJDM, Bulacan, Philippines",14.82867,121.04324,Globe,214612,199082,214.61,199.08,8,117,36,50
"La Paz, Tarlac, Philippines",15.4497,120.7235,PLDT Home Fiber,85585,87433,85.59,87.43,9,117,46,70
"Olongapo City, Zambales, Philippines",14.88739,120.36661,PLDT Home Fiber,91950,67071,91.95,67.07,9,116,35,52
"Arayat, Pampanga, Philippines",15.15443,120.771,Converge,197000,245095,197.00,245.10,3,116,41,52
"Bulakan, Bulacan, Philippines",14.79484,120.87889,PLDT Home Fiber,117789,79759,117.79,79.76,7,115,34,53
"Mabalacat City, Pampanga, Philippines",15.24525,120.56567,PLDT,45124,50748,45.12,50.75,10,115,50,71
"San Miguel, Bulacan, Philippines",15.14158,120.9751,PLDT Home Fiber,120038,83934,120.04,83.93,11,115,35,52
"Atok, Benguet, Philippines",16.59745,120.68901,PLDT Home Fiber,160674,128688,160.67,128.69,7,113,39,68
"Nasugbu, Batangas, Philippines",14.09404,120.68901,PLDT Home Fiber,101771,92562,101.77,92.56,10,113,31,47
"Guimba, Nueva Ecija, Philippines",15.65641,120.76767,PLDT Home Fiber,55672,81277,55.67,81.28,11,113,36,50
"Legazpi City, Albay, Philippines",13.11288,123.76295,Globe,77690,84191,77.69,84.19,25,113,26,49
"Talisay, Negros Occidental, Philippines",10.74828,122.98012,PLDT,80153,77284,80.15,77.28,20,112,34,48
"Zaragoza, Nueva Ecija, Philippines",15.46003,120.79246,PLDT Home Fiber,182834,104016,182.83,104.02,13,111,32,50
"Tiaong, Quezon, Philippines",13.92962,121.34273,PLDT Home Fiber,92716,93426,92.72,93.43,6,111,35,53
"Tacloban City, Leyte, Philippines",11.22238,124.99221,Globe,136784,141633,136.78,141.63,22,111,36,45
"Ligao City, Albay, Philippines",13.17242,123.4944,Converge,77039,70071,77.04,70.07,5,110,32,49
"San Simon, Pampanga, Philippines",14.98432,120.75127,PLDT Home Fiber,84242,88380,84.24,88.38,8,110,32,53
"Daet, Camarines Norte, Philippines",14.10303,122.9325,PLDT,62788,45923,62.79,45.92,7,109,32,53
"Ormoc City, Leyte, Philippines",11.03843,124.61927,Globe,79374,79131,79.37,79.13,23,107,33,43
"Tayug, Pangasinan, Philippines",16.01085,120.74649,Globe,63214,53656,63.21,53.66,7,107,38,73
"Gandara, Samar, Philippines",12.06444,124.79617,PLDT Home Fiber,21852,25362,21.85,25.36,17,107,12,13
"Malaybalay City, Bukidnon, Philippines",8.15775,125.17087,PLDT Home Fiber,135737,148489,135.74,148.49,10,107,40,55
"San Miguel, Bulacan, Philippines",15.14158,120.9751,Globe,135435,106259,135.44,106.26,6,107,38,64
"Santo Nino, South Cotabato, Philippines",6.44221,124.67459,PLDT Home Fiber,35493,39994,35.49,39.99,12,106,15,23
"San Pablo City, Laguna, Philippines",14.06422,121.32326,PLDT,106972,103734,106.97,103.73,7,106,40,59
"Hagonoy, Bulacan, Philippines",14.83564,120.73371,PLDT,66490,74925,66.49,74.93,16,105,27,44
"Laurel, Batangas, Philippines",14.05302,120.9073,Globe,61612,53691,61.61,53.69,5,105,39,64
"President Roxas, Cotabato, Philippines",7.37928,125.06084,PLDT,38089,73249,38.09,73.25,12,105,30,42
"General Santos City (Dadiangas), South Cotabato, Philippines",6.14327,125.19286,Converge,142103,122246,142.10,122.25,4,104,42,60
"San Carlos City, Pangasinan, Philippines",15.92589,120.34827,PLDT Home Fiber,192146,186671,192.15,186.67,6,104,38,58
"Consolacion, Cebu, Philippines",10.37581,123.95694,Globe,303767,277189,303.77,277.19,4,103,37,46
"Padre Garcia, Batangas, Philippines",13.87668,121.24547,Globe,172657,195708,172.66,195.71,6,103,26,38
"Talisay, Negros Occidental, Philippines",10.74828,122.98012,PLDT Home Fiber,77344,80865,77.34,80.87,8,103,38,59
"Labason, Zamboanga del Norte, Philippines",8.01373,122.51464,PLDT Home Fiber,70629,50333,70.63,50.33,12,103,14,14
"Ipil, Zamboanga Sibugay, Philippines",7.77318,122.57121,Globe,90233,60177,90.23,60.18,13,102,18,24
"General Mariano Alvarez, Cavite, Philippines",14.29525,121.0071,Converge,259075,213177,259.08,213.18,6,102,28,42
"Naujan, Oriental Mindoro, Philippines",13.24381,121.19395,PLDT Home Fiber,156112,143047,156.11,143.05,7,102,27,43
"Meycauayan, Bulacan, Philippines",14.73772,120.96077,Globe,123572,115700,123.57,115.70,8,102,49,68
"Digos, Davao del Sur, Philippines",6.74347,125.35515,Globe,97379,117760,97.38,117.76,4,102,21,29
"Rosario, Cavite, Philippines",14.41672,120.85471,PLDT Home Fiber,148664,176868,148.66,176.87,4,102,38,49
"Sorsogon City, Sorsogon, Philippines",12.97888,123.98477,PLDT,49043,42691,49.04,42.69,17,101,33,49
"Butuan City, Agusan Del Norte, Philippines",8.94753,125.54063,Converge,191653,181610,191.65,181.61,12,101,28,39
"San Fernando, Pampanga, Philippines",15.02781,120.69349,Globe,76257,66596,76.26,66.60,6,101,37,53
"Manapla, Negros Occidental, Philippines",10.95795,123.12428,PLDT Home Fiber,52410,53445,52.41,53.45,8,100,37,51
"San Miguel, Bulacan, Philippines",15.14158,120.9751,Converge,97732,103303,97.73,103.30,6,100,42,54
"Liloy, Zamboanga del Norte, Philippines",8.07325,122.69555,PLDT,41600,52073,41.60,52.07,22,99,18,22
"Arakan, Cotabato, Philippines",7.35122,125.17087,PLDT Home Fiber,64854,53419,64.85,53.42,10,99,28,36
"Cardona, Rizal, Philippines",14.48493,121.232,Converge,52303,28551,52.30,28.55,22,99,8,8
"Talisay, Camarines Norte, Philippines",14.1394,122.92686,PLDT Home Fiber,191581,323912,191.58,323.91,7,99,6,9
"San Fernando City, La Union, Philippines",16.61592,120.32102,PLDT Home Fiber,171628,186265,171.63,186.27,4,99,39,62
"Binangonan, Rizal, Philippines",14.48441,121.1869,Converge,118490,99987,118.49,99.99,4,98,40,50
"Calapan City, Oriental Mindoro, Philippines",13.36643,121.19395,PLDT,59755,57359,59.76,57.36,12,98,22,45
"Roxas City, Capiz, Philippines",11.55288,122.74072,Globe,109402,106367,109.40,106.37,14,98,27,37
"Goa, Camarines Sur, Philippines",13.73619,123.41593,PLDT Home Fiber,95915,115395,95.92,115.40,8,98,21,27
"Santa Cruz, Laguna, Philippines",14.26911,121.41133,PLDT Home Fiber,151227,122029,151.23,122.03,10,98,22,25
"Los Baños, Laguna, Philippines",14.17731,121.22161,Globe,362853,273669,362.85,273.67,4,98,40,58
"Cabangan, Zambales, Philippines",15.17178,120.13583,Converge,65438,59325,65.44,59.33,6,98,10,19
"Porac, Pampanga, Philippines",15.06974,120.55007,Converge,130519,146574,130.52,146.57,3,98,56,65
"Janiuay, Iloilo, Philippines",10.99877,122.42407,PLDT Home Fiber,59884,78007,59.88,78.01,11,97,11,14
"Alcala, Pangasinan, Philippines",15.8546,120.53942,PLDT Home Fiber,92139,109857,92.14,109.86,12,97,30,40
"Jaen, Nueva Ecija, Philippines",15.39558,120.87286,PLDT Home Fiber,93462,71656,93.46,71.66,10,97,38,51
"Laoag City, Ilocos Norte, Philippines",18.21075,120.58547,PLDT Home Fiber,90128,67536,90.13,67.54,8,97,31,51
"Biñan, Laguna, Philippines",14.31456,121.08316,Globe,249335,197760,249.34,197.76,8,96,27,36
"Rosario, Batangas, Philippines",13.80433,121.28552,Converge,57259,136232,57.26,136.23,13,96,28,39
"Buguias, Benguet, Philippines",16.74318,120.82692,PLDT Home Fiber,93619,94192,93.62,94.19,6,96,38,60
"Mariveles, Bataan, Philippines",14.4354,120.49003,Converge,108583,98783,108.58,98.78,9,96,38,50
"Capas, Tarlac, Philippines",15.34633,120.59344,PLDT,92425,93626,92.43,93.63,7,96,32,53
"San Rafael, Bulacan, Philippines",15.00184,120.93141,Globe,259061,223295,259.06,223.30,6,96,40,56
"Ormoc City, Leyte, Philippines",11.03843,124.61927,Converge,91261,169948,91.26,169.95,5,95,30,43
"Liloan, Cebu, Philippines",10.39926,124.00002,Converge,147901,162989,147.90,162.99,3,94,36,44
"Natividad, Pangasinan, Philippines",16.03821,120.83841,PLDT,42962,50208,42.96,50.21,8,94,29,34
"Dauis, Bohol, Philippines",9.60401,123.82996,Converge,206951,182052,206.95,182.05,27,94,10,11
"Tugaya, Lanao del Sur, Philippines",7.89514,124.14207,PLDT Home Fiber,86085,83522,86.09,83.52,6,94,44,56
"City of Borongan, Eastern Samar, Philippines",11.61739,125.34663,Globe,114511,117266,114.51,117.27,25,93,18,23
"Consolacion, Cebu, Philippines",10.37581,123.95694,PLDT,110397,95626,110.40,95.63,4,93,37,50
"Sindangan, Zamboanga del Norte, Philippines",8.19151,123.05639,PLDT Home Fiber,18635,33805,18.64,33.81,13,93,24,40
"Ormoc City, Leyte, Philippines",11.03843,124.61927,PLDT Home Fiber,33470,47147,33.47,47.15,5,93,26,35
"San Andres, Catanduanes, Philippines",13.6332,124.08641,PLDT,9329,17451,9.33,17.45,13,93,14,17
"City of Mati, Davao Oriental, Philippines",6.95722,126.15454,PLDT Home Fiber,119277,119011,119.28,119.01,32,92,15,20
"Goa, Camarines Sur, Philippines",13.73619,123.41593,Converge,91617,87926,91.62,87.93,13,92,21,29
"Lobo, Batangas, Philippines",13.6877,121.23974,Globe,328614,285467,328.61,285.47,7,92,38,56
"Santa Catalina, Negros Oriental, Philippines",9.28676,122.94377,PLDT,33426,36170,33.43,36.17,16,91,16,22
"Sara, Iloilo, Philippines",11.28199,123.01136,PLDT Home Fiber,75645,76109,75.65,76.11,11,91,11,13
"Calumpit, Bulacan, Philippines",14.91518,120.7662,Converge,193535,131467,193.54,131.47,5,91,29,43
"Datu Montawal (Pagagawan), Maguindanao, Philippines",7.10469,124.76303,PLDT Home Fiber,37522,68393,37.52,68.39,13,90,26,44
"Solana, Cagayan, Philippines",17.65284,121.65113,Converge,95799,102628,95.80,102.63,12,90,30,53
"Bolinao, Pangasinan, Philippines",16.30742,119.85838,Converge,37331,41671,37.33,41.67,8,90,31,47
"Gapan City, Nueva Ecija, Philippines",15.29121,121.01057,Converge,90722,137819,90.72,137.82,6,90,26,39
"Capas, Tarlac, Philippines",15.34633,120.59344,Converge,94006,120400,94.01,120.40,4,90,31,57
"Zamboanga City, Zamboanga del Sur, Philippines",6.90437,122.07612,Converge,189099,174223,189.10,174.22,12,89,34,43
"Floridablanca, Pampanga, Philippines",14.9619,120.49471,Converge,94616,117546,94.62,117.55,4,88,32,48
"Dona Remedios Trinidad, Bulacan, Philippines",15.11427,121.21685,PLDT,47149,23951,47.15,23.95,14,88,38,58
"Cavite, Philippines",14.48151,120.90833,PLDT Home Fiber,158039,188770,158.04,188.77,6,88,33,41
"Titay, Zamboanga Sibugay, Philippines",7.84847,122.57121,PLDT Home Fiber,55135,54049,55.14,54.05,12,88,14,19
"Baliwag, Bulacan, Philippines",14.96569,120.89431,PLDT,120630,163904,120.63,163.90,5,88,17,22
"Silang, Cavite, Philippines",14.22025,120.96469,Globe,260808,151792,260.81,151.79,6,88,25,38
"San Carlos City, Pangasinan, Philippines",15.92589,120.34827,PLDT,73196,69543,73.20,69.54,6,87,21,32
"Orion, Bataan, Philippines",14.61604,120.56431,PLDT Home Fiber,73690,79675,73.69,79.68,8,87,19,21
"Palo, Leyte, Philippines",11.15847,124.99191,PLDT,72095,93437,72.10,93.44,10,87,29,50
"Sorsogon City, Sorsogon, Philippines",12.97888,123.98477,Converge,151430,111030,151.43,111.03,17,87,13,24
"Tanay, Rizal, Philippines",14.61419,121.37703,PLDT Home Fiber,101373,104513,101.37,104.51,4,87,26,35
"Oton, Iloilo, Philippines",10.69251,122.47868,PLDT Home Fiber,104164,103458,104.16,103.46,8,87,16,24
"San Simon, Pampanga, Philippines",14.98432,120.75127,PLDT,57979,57284,57.98,57.28,13,87,29,40
"Rosario, Batangas, Philippines",13.80433,121.28552,PLDT Home Fiber,52511,59420,52.51,59.42,5,86,36,45
"Tublay, Benguet, Philippines",16.52924,120.62073,PLDT Home Fiber,90074,87580,90.07,87.58,9,86,33,59
"Panabo City, Davao del Norte, Philippines",7.30822,125.68662,PLDT Home Fiber,95506,68747,95.51,68.75,9,86,27,42
"Tadian, Mountain Province, Philippines",16.96608,120.81544,PLDT Home Fiber,94050,52377,94.05,52.38,7,86,30,44
"Norala, South Cotabato, Philippines",6.5061,124.66353,PLDT Home Fiber,63169,43629,63.17,43.63,61,85,10,16
"Surigao, Surigao del Norte, Philippines",9.79022,125.49311,Converge,183902,200482,183.90,200.48,31,85,21,29
"Mariveles, Bataan, Philippines",14.4354,120.49003,PLDT Home Fiber,93821,96557,93.82,96.56,9,85,32,43
"Moises Padilla, Negros Occidental, Philippines",10.26269,123.11266,PLDT Home Fiber,71364,85632,71.36,85.63,7,85,22,38
"Guimbal, Iloilo, Philippines",10.66341,122.32057,PLDT,36389,42546,36.39,42.55,16,85,5,8
"Paniqui, Tarlac, Philippines",15.66603,120.53942,PLDT Home Fiber,109704,124139,109.70,124.14,10,84,16,29
"Virac, Catanduanes, Philippines",13.61939,124.17544,PLDT Home Fiber,53685,49848,53.69,49.85,13,84,31,46
"Compostela, Cebu, Philippines",10.45408,124.013,PLDT Home Fiber,183508,197472,183.51,197.47,4,84,30,55
"Tagbilaran City, Bohol, Philippines",9.6534,123.86703,Globe,201199,151848,201.20,151.85,8,84,18,25
"Puerto Princesa City, Palawan, Philippines",9.78563,118.62648,PLDT,52828,57796,52.83,57.80,18,84,30,54
"Kapangan, Benguet, Philippines",16.61238,120.59698,PLDT Home Fiber,170792,115042,170.79,115.04,4,84,32,56
"Ilagan City, Isabela, Philippines",17.12845,122.12918,Converge,88993,114576,88.99,114.58,10,84,11,17
"Cagayan De Oro City, Misamis Oriental, Philippines",8.48029,124.64975,PLDT,23539,24908,23.54,24.91,18,84,26,51
"San Juan, Batangas, Philippines",13.75044,121.37703,Converge,92018,71216,92.02,71.22,7,83,26,43
"Bocaue, Bulacan, Philippines",14.7943,120.93073,Converge,147464,110389,147.46,110.39,7,83,37,53
"Cabiao, Nueva Ecija, Philippines",15.25221,120.85957,PLDT,94244,94710,94.24,94.71,10,83,27,43
"Villareal, Samar, Philippines",11.53963,124.92861,PLDT Home Fiber,196513,221840,196.51,221.84,7,83,7,9
"Pavia, Iloilo, Philippines",10.7748,122.54261,PLDT Home Fiber,151290,142681,151.29,142.68,7,82,22,33
"Kidapawan, Cotabato, Philippines",7.02127,125.09019,Converge,203752,143902,203.75,143.90,4,82,33,46
"Baliwag, Bulacan, Philippines",14.96569,120.89431,Converge,182854,171715,182.85,171.72,7,82,32,49
"Silay, Negros Occidental, Philippines",10.79968,122.97605,PLDT Home Fiber,189580,164474,189.58,164.47,10,82,18,29
"Sultan Kudarat (Nuling), Maguindanao, Philippines",7.26221,124.30883,PLDT Home Fiber,86939,93036,86.94,93.04,11,82,22,31
"Basey, Samar, Philippines",11.40967,125.17087,PLDT,34539,33251,34.54,33.25,30,82,13,16
"Obando, Bulacan, Philippines",14.70986,120.93674,PLDT Home Fiber,155373,160068,155.37,160.07,4,82,27,32
"Dumangas, Iloilo, Philippines",10.82109,122.71167,PLDT Home Fiber,54915,76460,54.92,76.46,10,81,25,28
"Bayawan City, Negros Oriental, Philippines",9.53644,122.7633,PLDT,143552,178061,143.55,178.06,12,81,21,28
"Enrique B. Magalona, Negros Occidental, Philippines",10.87695,122.98281,PLDT Home Fiber,77636,73763,77.64,73.76,10,81,26,37
"Alicia, Isabela, Philippines",16.80691,121.69674,PLDT,31292,34804,31.29,34.80,16,80,22,32
"Malilipot, Albay, Philippines",13.29931,123.71824,PLDT,59051,75019,59.05,75.02,8,80,6,11
"Toledo, Cebu, Philippines",10.38705,123.65017,Converge,121982,125733,121.98,125.73,16,79,20,28
"Consolacion, Cebu, Philippines",10.37581,123.95694,Converge,249238,283194,249.24,283.19,3,79,24,41
"Gerona, Tarlac, Philippines",15.60489,120.59698,Converge,60649,91249,60.65,91.25,6,79,40,49
"Hamtic, Antique, Philippines",10.65189,122.01555,PLDT,35243,36644,35.24,36.64,12,79,12,13
"Trece Martires City, Cavite, Philippines",14.28222,120.86837,Globe,91256,104939,91.26,104.94,6,78,30,45
"Trento, Agusan del Sur, Philippines",8.05257,126.21969,PLDT,50999,29685,51.00,29.69,18,78,24,42
"Aguinaldo, Ifugao, Philippines",16.95291,121.33129,PLDT Home Fiber,33411,54058,33.41,54.06,13,78,17,26
"Santa Rita, Pampanga, Philippines",14.99762,120.61451,PLDT,29601,41780,29.60,41.78,23,78,22,29
"Sariaya, Quezon, Philippines",13.96301,121.52388,Converge,91179,101344,91.18,101.34,7,78,21,36
"Santo Tomas, Batangas, Philippines",14.08754,121.17764,Globe,160549,139538,160.55,139.54,7,78,32,49
"San Juan, Batangas, Philippines",13.75044,121.37703,Globe,175154,141261,175.15,141.26,5,77,36,51
"Cantilan, Surigao del Sur, Philippines",9.27827,125.88251,PLDT Home Fiber,202587,171724,202.59,171.72,14,77,1,6
"Narra, Palawan, Philippines",9.229,118.33047,PLDT,73880,83063,73.88,83.06,28,77,20,28
"Pontevedra, Negros Occidental, Philippines",10.35266,122.92123,PLDT Home Fiber,65210,135079,65.21,135.08,10,77,13,13
"Pulilan, Bulacan, Philippines",14.90243,120.8459,PLDT Home Fiber,132461,94423,132.46,94.42,3,77,30,41
"Malaybalay City, Bukidnon, Philippines",8.15775,125.17087,Converge,89220,114122,89.22,114.12,10,77,12,19
"San Juan, La Union, Philippines",16.6711,120.33844,PLDT,85137,66117,85.14,66.12,4,76,17,33
"Pakil, Laguna, Philippines",14.3694,121.39418,PLDT,94009,101859,94.01,101.86,7,76,29,43
"General Mariano Alvarez, Cavite, Philippines",14.29525,121.0071,Globe,321391,248358,321.39,248.36,6,76,30,45
"Barotac Viejo, Iloilo, Philippines",11.10187,122.87613,PLDT,24111,19735,24.11,19.74,20,76,17,19
"Pagadian City, Zamboanga del Sur, Philippines",7.86265,123.37106,PLDT,36903,36000,36.90,36.00,23,76,29,42
"Rodriguez, Rizal, Philippines",14.73202,121.14516,Globe,200156,139804,200.16,139.80,4,76,34,48
"Muñoz, Nueva Ecija, Philippines",15.70664,120.9029,PLDT Home Fiber,140822,149810,140.82,149.81,14,76,24,38
"Oroquieta City, Misamis Occidental, Philippines",8.48597,123.79825,PLDT Home Fiber,59376,69666,59.38,69.67,8,76,10,17
"Pototan, Iloilo, Philippines",10.94194,122.63874,PLDT,54592,39502,54.59,39.50,16,75,11,17
"Bacolor, Pampanga, Philippines",14.99692,120.65235,Converge,98930,142018,98.93,142.02,4,75,36,49
"Calapan City, Oriental Mindoro, Philippines",13.36643,121.19395,PLDT Home Fiber,101406,147368,101.41,147.37,9,75,25,36
"Urbiztondo, Pangasinan, Philippines",15.82012,120.35508,Converge,45893,51637,45.89,51.64,6,75,16,18
"Balanga City, Bataan, Philippines",14.67454,120.47033,Converge,113512,93508,113.51,93.51,6,75,27,39
"Masbate City, Masbate, Philippines",12.31777,123.55041,PLDT,185759,87334,185.76,87.33,18,75,21,27
"Tanauan City, Batangas, Philippines",14.08354,121.14762,Globe,132929,134696,132.93,134.70,7,75,34,54
"Candelaria, Quezon, Philippines",13.94899,121.42276,Converge,171700,163744,171.70,163.74,6,75,24,40
"Maria Aurora, Aurora, Philippines",15.75061,121.3999,PLDT,88701,76500,88.70,76.50,11,75,20,31
"Sariaya, Quezon, Philippines",13.96301,121.52388,PLDT,203551,215334,203.55,215.33,10,75,26,30
"Cabiao, Nueva Ecija, Philippines",15.25221,120.85957,Globe,128784,107842,128.78,107.84,5,75,24,30
"Pagbilao, Quezon, Philippines",13.99683,121.73095,PLDT Home Fiber,79602,83308,79.60,83.31,5,75,26,31
"Tagaytay City, Cavite, Philippines",14.11541,120.96202,PLDT Home Fiber,46683,33852,46.68,33.85,7,74,28,45
"Santa Fe, Nueva Vizcaya, Philippines",16.18249,120.91878,PLDT Home Fiber,94244,94413,94.24,94.41,8,74,29,40
"Nabua, Camarines Sur, Philippines",13.4069,123.37324,PLDT Home Fiber,74438,98407,74.44,98.41,9,74,24,36
"Baco, Oriental Mindoro, Philippines",13.35793,121.09628,PLDT Home Fiber,79987,87551,79.99,87.55,35,74,7,9
"La Carlota City, Negros Occidental, Philippines",10.41437,122.97757,PLDT,171158,185590,171.16,185.59,9,74,18,24
"Batangas City, Batangas, Philippines",13.75641,121.05833,Converge,114682,119922,114.68,119.92,7,74,34,52
"Lal-lo, Cagayan, Philippines",18.15767,121.87903,PLDT,29659,20666,29.66,20.67,15,74,8,13
"Balagtas, Bulacan, Philippines",14.81784,120.90646,Converge,150634,156278,150.63,156.28,7,73,28,38
"Bayambang, Pangasinan, Philippines",15.80947,120.45714,PLDT Home Fiber,81881,102764,81.88,102.76,12,73,14,18
"San Fernando City, La Union, Philippines",16.61592,120.32102,Converge,93896,97557,93.90,97.56,3,73,32,41
"Baler, Aurora, Philippines",15.73361,121.57125,PLDT,43133,50690,43.13,50.69,15,73,28,41
"Bakun, Benguet, Philippines",16.80796,120.68901,PLDT Home Fiber,87865,92475,87.87,92.48,6,73,30,47
"Morong, Bataan, Philippines",14.6798,120.26759,Converge,59803,43344,59.80,43.34,6,73,16,28
"City of Tayabas, Quezon, Philippines",14.01135,121.55983,PLDT,46373,54262,46.37,54.26,11,73,30,36
"Malolos, Bulacan, Philippines",14.86049,120.80916,Globe,113335,100939,113.34,100.94,8,73,22,34
"Marawi City, Lanao del Sur, Philippines",8.0292,124.29772,Globe,62733,39142,62.73,39.14,9,72,19,30
"Vigan City, Ilocos Sur, Philippines",17.56485,120.38781,PLDT,99775,166237,99.78,166.24,11,72,8,21
"Danao, Cebu, Philippines",10.52013,124.02712,Converge,197332,199289,197.33,199.29,3,72,21,26
"Marawi City, Lanao del Sur, Philippines",8.0292,124.29772,PLDT,45260,28217,45.26,28.22,33,72,14,35
"Kabankalan City, Negros Occidental, Philippines",9.91341,122.85358,PLDT,34908,37541,34.91,37.54,8,72,25,33
"Dumaguete City, Negros Oriental, Philippines",9.29841,123.29249,Converge,190938,173665,190.94,173.67,18,72,27,32
"Angat, Bulacan, Philippines",14.92586,121.02204,PLDT Home Fiber,94036,118316,94.04,118.32,8,72,25,45
"Lambayong (Mariano Marcos), Sultan Kudarat, Philippines",6.79879,124.61927,PLDT Home Fiber,57830,40326,57.83,40.33,12,72,17,23
"Balanga City, Bataan, Philippines",14.67454,120.47033,PLDT Home Fiber,172137,183332,172.14,183.33,7,72,28,41
"Paracale, Camarines Norte, Philippines",14.23721,122.78588,PLDT Home Fiber,28667,63836,28.67,63.84,7,72,17,27
"Tanza, Cavite, Philippines",14.34293,120.85032,Globe,121540,115331,121.54,115.33,5,72,33,43
"Dasol, Pangasinan, Philippines",15.96259,119.90466,Converge,144786,167494,144.79,167.49,7,72,6,7
"Meycauayan, Bulacan, Philippines",14.73772,120.96077,PLDT,107849,95052,107.85,95.05,7,71,24,42
"San Jose, Camarines Sur, Philippines",13.68724,123.53921,PLDT Home Fiber,177548,204128,177.55,204.13,36,71,10,21
"Plaridel, Bulacan, Philippines",14.88591,120.85932,Converge,141158,180355,141.16,180.36,7,71,27,42
"Tuguegarao City, Cagayan, Philippines",17.60306,121.75374,Converge,53421,54053,53.42,54.05,11,71,21,29
"Toboso, Negros Occidental, Philippines",10.71769,123.46077,PLDT Home Fiber,56219,94481,56.22,94.48,7,71,11,26
"Ozamiz, Misamis Occidental, Philippines",8.15,123.85033,PLDT Home Fiber,37848,40287,37.85,40.29,7,70,18,22
"Talitay, Maguindanao, Philippines",7.04528,124.38654,PLDT Home Fiber,53564,55733,53.56,55.73,10,70,17,31
"Urdaneta City, Pangasinan, Philippines",15.98194,120.59698,PLDT,158308,141172,158.31,141.17,6,70,22,35
"Guimba, Nueva Ecija, Philippines",15.65641,120.76767,Converge,82655,86139,82.66,86.14,5,69,14,28
"Trento, Agusan del Sur, Philippines",8.05257,126.21969,PLDT Home Fiber,116396,100611,116.40,100.61,22,69,26,40
"San Isidro, Nueva Ecija, Philippines",15.29656,120.9073,Globe,101241,104256,101.24,104.26,5,69,33,37
"Lingayen, Pangasinan, Philippines",16.00973,120.22449,PLDT Home Fiber,82863,86492,82.86,86.49,12,69,27,39
"Bantayan, Cebu, Philippines",11.18041,123.7406,PLDT,36650,56658,36.65,56.66,9,69,26,40
"Escalante City, Negros Occidental, Philippines",10.84117,123.49908,PLDT,50541,39163,50.54,39.16,11,69,16,27
"Alabel, Sarangani, Philippines",6.10416,125.28792,PLDT Home Fiber,59467,51987,59.47,51.99,11,69,20,30
"Pinamungahan, Cebu, Philippines",10.26958,123.63996,PLDT,46487,61688,46.49,61.69,7,69,13,18
"City of Cabadbaran, Agusan Del Norte, Philippines",9.14092,125.697,PLDT Home Fiber,147641,109952,147.64,109.95,11,69,26,42
"San Rafael, Bulacan, Philippines",15.00184,120.93141,PLDT,183586,155126,183.59,155.13,9,68,24,33
"Carles, Iloilo, Philippines",11.55216,123.13515,PLDT Home Fiber,47971,58286,47.97,58.29,9,68,5,14
"Cotabato City, Maguindanao, Philippines",7.20467,124.23104,Globe,113764,54975,113.76,54.98,10,68,12,16
"Mangaldan, Pangasinan, Philippines",16.06513,120.40474,Converge,94830,124463,94.83,124.46,6,68,17,23
"Pateros, Metro Manila, Philippines",14.54838,121.07077,PLDT Home Fiber,187423,174865,187.42,174.87,4,68,24,35
"Naval, Biliran, Philippines",11.56681,124.44201,Globe,161004,168452,161.00,168.45,10,68,19,21
"Kasibu, Nueva Vizcaya, Philippines",16.36659,121.33129,Converge,303225,516364,303.23,516.36,13,68,1,2
"Leon, Iloilo, Philippines",10.82086,122.34476,PLDT,92089,103089,92.09,103.09,15,67,19,24
"Malvar, Batangas, Philippines",14.04329,121.15875,Converge,210744,218308,210.74,218.31,7,67,20,40
"Rizal, Nueva Ecija, Philippines",15.69357,121.10229,PLDT,56033,49195,56.03,49.20,16,67,22,33
"Infanta, Quezon, Philippines",14.74071,121.6451,PLDT,24028,23671,24.03,23.67,13,67,26,40
"Kalibo, Aklan, Philippines",11.70734,122.36986,Converge,92785,105394,92.79,105.39,17,67,23,38
"Tagbilaran City, Bohol, Philippines",9.6534,123.86703,Converge,186287,185192,186.29,185.19,25,67,20,31
"Dona Remedios Trinidad, Bulacan, Philippines",15.11427,121.21685,PLDT Home Fiber,41508,44276,41.51,44.28,5,67,26,42
"Santo Tomas, Batangas, Philippines",14.08754,121.17764,Converge,197733,184267,197.73,184.27,7,66,26,34
"San Ildefonso, Bulacan, Philippines",15.07717,120.94171,Converge,78707,76658,78.71,76.66,7,66,17,27
"Kadingilan, Bukidnon, Philippines",7.53321,124.87345,PLDT Home Fiber,47484,49296,47.48,49.30,10,66,24,35
"Bayombong, Nueva Vizcaya, Philippines",16.48042,121.14813,PLDT Home Fiber,45879,54410,45.88,54.41,7,66,23,29
"Lala, Lanao del Norte, Philippines",7.9486,123.76295,PLDT Home Fiber,47088,51985,47.09,51.99,9,66,20,28
"Binmaley, Pangasinan, Philippines",16.02892,120.26882,PLDT Home Fiber,50274,61008,50.27,61.01,13,65,13,19
"Nagcarlan, Laguna, Philippines",14.14903,121.38847,Converge,73741,35954,73.74,35.95,7,65,22,34
"San Carlos City, Negros Occidental, Philippines",10.48344,123.30371,Converge,62943,59688,62.94,59.69,17,65,11,16
"M'lang, Cotabato, Philippines",6.93822,124.90655,PLDT Home Fiber,71564,82135,71.56,82.14,11,65,20,28
"San Leonardo, Nueva Ecija, Philippines",15.37285,120.95321,Converge,189499,224339,189.50,224.34,5,65,19,24
"Palayan City, Nueva Ecija, Philippines",15.53906,121.09083,PLDT Home Fiber,94265,132513,94.27,132.51,11,65,13,25
"Gasan, Marinduque, Philippines",13.32138,121.89041,PLDT Home Fiber,131961,149437,131.96,149.44,9,64,11,14
"Hermosa, Bataan, Philippines",14.83566,120.47709,Converge,204948,194283,204.95,194.28,5,64,20,31
"Dagupan City, Pangasinan, Philippines",16.03375,120.33202,PLDT,51830,55232,51.83,55.23,13,64,24,35
"Balagtas, Bulacan, Philippines",14.81784,120.90646,PLDT Home Fiber,57752,65024,57.75,65.02,10,64,24,35
"Tuguegarao City, Cagayan, Philippines",17.60306,121.75374,PLDT Home Fiber,128499,148727,128.50,148.73,13,64,17,35
"Asipulo, Ifugao, Philippines",16.66328,121.05644,Globe,58849,53942,58.85,53.94,9,64,15,35
"Roxas, Palawan, Philippines",10.42746,119.46436,PLDT Home Fiber,46811,50000,46.81,50.00,19,64,5,9
"San Mateo, Rizal, Philippines",14.69539,121.11767,PLDT,46736,80303,46.74,80.30,4,64,33,46
"General Tinio (Papaya), Nueva Ecija, Philippines",15.36345,121.21685,PLDT Home Fiber,105002,88283,105.00,88.28,13,64,25,36
"Alaminos City, Pangasinan, Philippines",16.15053,119.98562,PLDT Home Fiber,79723,94652,79.72,94.65,9,64,24,35
"Laoag City, Ilocos Norte, Philippines",18.21075,120.58547,Converge,92694,90790,92.69,90.79,10,63,17,24
"Tagum, Davao del Norte, Philippines",7.44742,125.80246,Converge,203011,223322,203.01,223.32,4,63,26,38
"Banate, Iloilo, Philippines",11.06503,122.77459,PLDT,29042,56507,29.04,56.51,12,63,10,11
"Nasugbu, Batangas, Philippines",14.09404,120.68901,PLDT,22543,44808,22.54,44.81,9,63,17,29
"Carcar, Cebu, Philippines",10.10478,123.64147,PLDT Home Fiber,66597,62391,66.60,62.39,4,63,18,28
"Sipocot, Camarines Sur, Philippines",13.83785,123.01136,PLDT Home Fiber,55731,90602,55.73,90.60,35,63,3,3
"Villareal, Samar, Philippines",11.53963,124.92861,Converge,182711,153069,182.71,153.07,10,62,6,8
"Pateros, Metro Manila, Philippines",14.54838,121.07077,Converge,224598,228796,224.60,228.80,4,62,31,35
"Pandan, Antique, Philippines",11.75185,122.10647,PLDT Home Fiber,57587,54315,57.59,54.32,25,62,5,7
"Balanga City, Bataan, Philippines",14.67454,120.47033,Globe,195217,159692,195.22,159.69,9,62,12,14
"Bayambang, Pangasinan, Philippines",15.80947,120.45714,PLDT,47379,44645,47.38,44.65,10,62,16,24
"Valencia City, Bukidnon, Philippines",7.86319,125.17087,Converge,160240,124649,160.24,124.65,9,62,25,31
"Minglanilla, Cebu, Philippines",10.24543,123.79599,Converge,165933,169718,165.93,169.72,17,62,24,32
"San Luis, Pampanga, Philippines",15.03986,120.81544,PLDT Home Fiber,63521,63631,63.52,63.63,7,62,20,33
"Sibulan, Negros Oriental, Philippines",9.35972,123.28476,Globe,87329,87119,87.33,87.12,10,61,16,24
"Carcar, Cebu, Philippines",10.10478,123.64147,PLDT,48019,45743,48.02,45.74,14,61,24,37
"Tanauan City, Batangas, Philippines",14.08354,121.14762,Converge,182136,142801,182.14,142.80,7,61,24,35
"Pateros, Metro Manila, Philippines",14.54838,121.07077,PLDT,82787,93967,82.79,93.97,34,61,26,31
"Candaba, Pampanga, Philippines",15.09289,120.8277,Converge,128122,126569,128.12,126.57,5,61,19,34
"Teresa, Rizal, Philippines",14.5597,121.20593,PLDT Home Fiber,127096,139859,127.10,139.86,3,61,16,24
"San Fabian, Pangasinan, Philippines",16.14188,120.44729,PLDT,96901,94083,96.90,94.08,6,61,21,33
"Santa Barbara, Pangasinan, Philippines",15.9774,120.42424,PLDT Home Fiber,83776,91115,83.78,91.12,6,61,27,32
"Nagcarlan, Laguna, Philippines",14.14903,121.38847,PLDT,65795,55253,65.80,55.25,11,61,30,40
"Calasiao, Pangasinan, Philippines",16.00949,120.35759,PLDT,79214,66219,79.21,66.22,5,61,14,17
"Iriga City, Camarines Sur, Philippines",13.42095,123.41361,PLDT,47980,47772,47.98,47.77,10,61,13,21
"Moalboal, Cebu, Philippines",9.93681,123.42714,PLDT Home Fiber,97323,108931,97.32,108.93,5,60,17,28
"Samal, Davao del Norte, Philippines",7.08352,125.70578,PLDT Home Fiber,90547,53637,90.55,53.64,10,60,23,35
"Apalit, Pampanga, Philippines",14.95255,120.76688,PLDT,37054,36910,37.05,36.91,8,60,11,15
"Rodriguez, Rizal, Philippines",14.73202,121.14516,PLDT,42743,29784,42.74,29.78,4,60,27,40
"Santa Rita, Pampanga, Philippines",14.99762,120.61451,PLDT Home Fiber,82875,94765,82.88,94.77,8,60,29,44
"Paracale, Camarines Norte, Philippines",14.23721,122.78588,PLDT,50888,59057,50.89,59.06,9,60,18,33
"Santa Cruz, Laguna, Philippines",14.26911,121.41133,PLDT,73309,77076,73.31,77.08,9,60,21,25
"Murcia, Negros Occidental, Philippines",10.60643,123.03944,Converge,68982,85697,68.98,85.70,17,59,20,31
"Pavia, Iloilo, Philippines",10.7748,122.54261,Globe,274418,259019,274.42,259.02,4,59,15,26
"Asuncion (Saug), Davao del Norte, Philippines",7.60603,125.76252,PLDT Home Fiber,37306,48211,37.31,48.21,12,59,10,14
"Panabo City, Davao del Norte, Philippines",7.30822,125.68662,Globe,126702,130491,126.70,130.49,5,59,18,24
"Villasis, Pangasinan, Philippines",15.90523,120.55094,PLDT Home Fiber,104977,122789,104.98,122.79,10,58,20,39
"Cabiao, Nueva Ecija, Philippines",15.25221,120.85957,Converge,281924,207921,281.92,207.92,5,58,17,22
"Botolan, Zambales, Philippines",15.26625,120.20511,Converge,235920,237442,235.92,237.44,6,58,19,28
"Los Baños, Laguna, Philippines",14.17731,121.22161,Converge,142943,121494,142.94,121.49,6,58,21,35
"Salay, Misamis Oriental, Philippines",8.8714,124.8293,PLDT Home Fiber,14454,14307,14.45,14.31,5,58,5,5
"Trece Martires City, Cavite, Philippines",14.28222,120.86837,PLDT,72571,65526,72.57,65.53,4,58,19,29
"Tuburan, Cebu, Philippines",10.66879,123.86345,PLDT Home Fiber,28649,36552,28.65,36.55,5,58,24,28
"Infanta, Quezon, Philippines",14.74071,121.6451,Converge,50097,42121,50.10,42.12,15,58,14,22
"Ibaan, Batangas, Philippines",13.81895,121.13082,PLDT Home Fiber,150528,126644,150.53,126.64,5,58,15,18
"Aritao, Nueva Vizcaya, Philippines",16.2515,121.01057,PLDT Home Fiber,95417,93929,95.42,93.93,6,58,30,41
"Governor Generoso, Davao Oriental, Philippines",6.45867,126.15454,PLDT Home Fiber,113470,115169,113.47,115.17,15,58,4,9
"Cadiz City, Negros Occidental, Philippines",10.86192,123.23632,Globe,117650,105827,117.65,105.83,11,58,22,33
"Libmanan, Camarines Sur, Philippines",13.69376,123.05982,PLDT Home Fiber,20081,19017,20.08,19.02,26,58,20,23
"Jaen, Nueva Ecija, Philippines",15.39558,120.87286,Globe,216200,221838,216.20,221.84,6,58,21,31
"Madridejos, Cebu, Philippines",11.25859,123.7406,Globe,139633,124492,139.63,124.49,10,57,6,10
"Indang, Cavite, Philippines",14.19204,120.87286,PLDT Home Fiber,75563,68115,75.56,68.12,468,57,13,19
"Toledo, Cebu, Philippines",10.38705,123.65017,PLDT,50765,32506,50.77,32.51,8,57,19,27
"Maitum, Sarangani, Philippines",6.12408,124.48636,PLDT,9683,11258,9.68,11.26,13,57,10,19
"Alaminos, Laguna, Philippines",14.0454,121.25119,Globe,97172,99882,97.17,99.88,4,57,23,37
"Kiamba, Sarangani, Philippines",6.00076,124.70777,PLDT,18066,25099,18.07,25.10,12,57,14,18
"San Rafael, Bulacan, Philippines",15.00184,120.93141,Converge,186900,166285,186.90,166.29,7,57,23,35
"Bauang, La Union, Philippines",16.51433,120.35508,PLDT Home Fiber,68957,72489,68.96,72.49,4,57,19,24
"Ibaan, Batangas, Philippines",13.81895,121.13082,Globe,388884,436905,388.88,436.91,7,56,25,29
"Santa Cruz, Zambales, Philippines",15.77308,120.04341,Converge,46686,52395,46.69,52.40,6,56,17,24
"Roxas City, Capiz, Philippines",11.55288,122.74072,Converge,96966,82149,96.97,82.15,16,56,24,37
"Jose Panganiban, Camarines Norte, Philippines",14.25107,122.69555,PLDT Home Fiber,36186,58337,36.19,58.34,7,56,11,15
"Polomolok, South Cotabato, Philippines",6.22451,125.06084,PLDT,29590,34429,29.59,34.43,12,56,11,18
"Hinunangan, Southern Leyte, Philippines",10.39458,125.14888,PLDT,181484,142999,181.48,143.00,11,56,14,17
"Sablan, Benguet, Philippines",16.49609,120.48794,PLDT Home Fiber,76200,96545,76.20,96.55,5,56,7,10
"Daraga, Albay, Philippines",13.12278,123.69588,Globe,117105,94470,117.11,94.47,23,56,19,31
"Tiaong, Quezon, Philippines",13.92962,121.34273,Globe,341964,213272,341.96,213.27,7,56,23,34
"Luisiana, Laguna, Philippines",14.19077,121.52558,PLDT Home Fiber,79449,105948,79.45,105.95,6,56,12,17
"Gen. S. K. Pendatun, Maguindanao, Philippines",6.81786,124.71882,PLDT Home Fiber,193657,80051,193.66,80.05,12,56,13,24
"Clarin, Misamis Occidental, Philippines",8.19969,123.86237,PLDT Home Fiber,23586,52372,23.59,52.37,11,56,13,30
"Naga, Cebu, Philippines",10.20764,123.75821,PLDT,161879,122729,161.88,122.73,5,56,19,27
"Magallanes, Cavite, Philippines",14.15828,120.74649,PLDT Home Fiber,17331,60599,17.33,60.60,482,56,12,18
"Glan, Sarangani, Philippines",5.82205,125.20413,PLDT Home Fiber,9068,8766,9.07,8.77,18,56,11,18
"Talitay, Maguindanao, Philippines",7.04528,124.38654,PLDT,45059,46172,45.06,46.17,16,55,16,28
"Quezon, Nueva Ecija, Philippines",15.56953,120.82692,Globe,176774,178583,176.77,178.58,4,55,7,8
"Santa Ignacia, Tarlac, Philippines",15.61667,120.43556,PLDT Home Fiber,48891,50974,48.89,50.97,10,55,13,17
"Limay, Bataan, Philippines",14.53661,120.56245,Converge,109191,140128,109.19,140.13,10,55,18,26
"Liloan, Cebu, Philippines",10.39926,124.00002,PLDT,124334,130344,124.33,130.34,6,55,14,21
"Iriga City, Camarines Sur, Philippines",13.42095,123.41361,PLDT Home Fiber,109897,117534,109.90,117.53,7,55,12,19
"Calasiao, Pangasinan, Philippines",16.00949,120.35759,Converge,140524,121989,140.52,121.99,8,55,12,16
"Tigaon, Camarines Sur, Philippines",13.61703,123.47198,PLDT Home Fiber,75883,117559,75.88,117.56,9,55,15,19
"Tanza, Cavite, Philippines",14.34293,120.85032,PLDT,80646,59303,80.65,59.30,7,55,17,30
"Cotabato City, Maguindanao, Philippines",7.20467,124.23104,PLDT,96378,103737,96.38,103.74,11,55,26,36
"Bay, Laguna, Philippines",14.14064,121.26836,Converge,257301,317001,257.30,317.00,6,54,16,23
"Pandi, Bulacan, Philippines",14.87572,120.95941,Globe,119911,105930,119.91,105.93,8,54,19,25
"Badian, Cebu, Philippines",9.83209,123.41593,PLDT Home Fiber,106397,120105,106.40,120.11,6,54,10,15
"Oton, Iloilo, Philippines",10.69251,122.47868,Globe,118263,102862,118.26,102.86,4,54,21,31
"Tagum, Davao del Norte, Philippines",7.44742,125.80246,PLDT,71510,92729,71.51,92.73,9,54,13,17
"Carles, Iloilo, Philippines",11.55216,123.13515,PLDT,10510,9813,10.51,9.81,25,53,7,10
"Dinalupihan, Bataan, Philippines",14.88605,120.44729,Converge,66565,70308,66.57,70.31,6,53,15,21
"Talibon, Bohol, Philippines",10.11933,124.26439,PLDT Home Fiber,46049,85719,46.05,85.72,8,53,15,19
"Kalibo, Aklan, Philippines",11.70734,122.36986,Globe,96553,97620,96.55,97.62,16,53,13,22
"Tabaco City, Albay, Philippines",13.36138,123.72876,Converge,53696,46972,53.70,46.97,9,53,12,21
"Tagkawayan, Quezon, Philippines",13.96843,122.53376,Converge,155883,121332,155.88,121.33,10,53,10,19
"Puerto Princesa City, Palawan, Philippines",9.78563,118.62648,Globe,116798,118757,116.80,118.76,17,53,15,21
"Old Kaabakan, Philippines",7.22147,124.85635,PLDT Home Fiber,99116,94724,99.12,94.72,8,53,17,28
"Hagonoy, Bulacan, Philippines",14.83564,120.73371,PLDT Home Fiber,169544,189693,169.54,189.69,8,53,18,25
"Pulilan, Bulacan, Philippines",14.90243,120.8459,PLDT,172162,178227,172.16,178.23,5,53,19,33
"Pili, Camarines Sur, Philippines",13.55521,123.28126,Converge,105511,90752,105.51,90.75,3,53,13,20
"Malilipot, Albay, Philippines",13.29931,123.71824,Converge,134852,46776,134.85,46.78,4,53,4,6
"San Pascual, Batangas, Philippines",13.81044,121.02204,Globe,121275,115851,121.28,115.85,5,52,13,20
"Victorias, Negros Occidental, Philippines",10.901,123.07045,PLDT Home Fiber,167719,256959,167.72,256.96,7,52,19,32
"Ibajay, Aklan, Philippines",11.75186,122.18596,Converge,47636,46096,47.64,46.10,15,52,11,17
"Bambang, Nueva Vizcaya, Philippines",16.40415,121.10229,PLDT Home Fiber,51526,50245,51.53,50.25,9,52,19,31
"Liloy, Zamboanga del Norte, Philippines",8.07325,122.69555,PLDT Home Fiber,31462,19477,31.46,19.48,26,52,8,12
"Victoria, Oriental Mindoro, Philippines",13.15599,121.23974,PLDT Home Fiber,178520,177430,178.52,177.43,8,52,11,18
"Toledo, Cebu, Philippines",10.38705,123.65017,PLDT Home Fiber,43608,27876,43.61,27.88,5,52,14,20
"Salay, Misamis Oriental, Philippines",8.8714,124.8293,Converge,43932,27042,43.93,27.04,30,52,14,20
"Plaridel, Bulacan, Philippines",14.88591,120.85932,PLDT,119268,96693,119.27,96.69,6,52,27,38
"Alaminos, Laguna, Philippines",14.0454,121.25119,Converge,114541,209356,114.54,209.36,10,52,8,12
"Panabo City, Davao del Norte, Philippines",7.30822,125.68662,PLDT,121417,82014,121.42,82.01,8,52,16,27
"Manolo Fortich, Bukidnon, Philippines",8.39002,124.88449,Converge,94599,79991,94.60,79.99,8,52,22,25
"Tacloban City, Leyte, Philippines",11.22238,124.99221,Converge,81393,93746,81.39,93.75,6,51,13,26
"Pilar, Bohol, Philippines",9.84115,124.35324,PLDT Home Fiber,6106,5129,6.11,5.13,10,51,2,5
"Labo, Camarines Norte, Philippines",14.13903,122.7633,PLDT Home Fiber,82181,60580,82.18,60.58,8,51,17,23
"Echague, Isabela, Philippines",16.66606,121.78792,PLDT Home Fiber,152648,179886,152.65,179.89,13,51,15,22
"Abucay, Bataan, Philippines",14.73361,120.49336,Converge,83086,103559,83.09,103.56,6,51,7,13
"Sogod, Southern Leyte, Philippines",10.44929,125.01679,PLDT,22044,31528,22.04,31.53,10,51,8,9
"Pinamalayan, Oriental Mindoro, Philippines",13.01533,121.37703,PLDT Home Fiber,40004,25911,40.00,25.91,7,51,14,18
"Boac, Marinduque, Philippines",13.39413,121.87903,PLDT,51770,46250,51.77,46.25,11,50,21,27
"Compostela, Cebu, Philippines",10.45408,124.013,PLDT,90976,95889,90.98,95.89,7,50,13,22
"Morong, Rizal, Philippines",14.51286,121.23855,PLDT Home Fiber,130952,146415,130.95,146.42,4,50,14,19
"Puerto Galera, Oriental Mindoro, Philippines",13.44475,120.91878,Converge,427547,353696,427.55,353.70,10,50,13,24
"Burauen, Leyte, Philippines",10.97109,124.84034,PLDT,29212,16675,29.21,16.68,23,50,18,26
"Balanga City, Bataan, Philippines",14.67454,120.47033,PLDT,45488,48354,45.49,48.35,19,50,11,22
"Magalang, Pampanga, Philippines",15.21394,120.66181,Globe,171809,196013,171.81,196.01,5,50,24,32
"Sogod, Cebu, Philippines",10.77419,123.9527,PLDT,36124,83505,36.12,83.51,8,50,10,13
"Olongapo City, Zambales, Philippines",14.88739,120.36661,PLDT,118454,86190,118.45,86.19,7,50,28,39
"Ormoc City, Leyte, Philippines",11.03843,124.61927,PLDT,49972,23827,49.97,23.83,15,50,10,22
"Tacloban City, Leyte, Philippines",11.22238,124.99221,PLDT Home Fiber,77623,79806,77.62,79.81,7,50,11,24
"Catarman, Northern Samar, Philippines",12.44271,124.61927,Globe,122268,53661,122.27,53.66,14,50,13,17
"Tagbilaran City, Bohol, Philippines",9.6534,123.86703,PLDT Home Fiber,54165,95440,54.17,95.44,8,50,20,32
"Rizal, Laguna, Philippines",14.08408,121.41133,PLDT,81133,71330,81.13,71.33,6,50,2,2
"Gapan City, Nueva Ecija, Philippines",15.29121,121.01057,Globe,268137,292216,268.14,292.22,5,49,23,30
"Ajuy, Iloilo, Philippines",11.13583,123.0001,PLDT,33244,43035,33.24,43.04,22,49,6,12
"Maria Aurora, Aurora, Philippines",15.75061,121.3999,PLDT Home Fiber,88182,94571,88.18,94.57,11,49,17,26
"Montevista, Davao de Oro, Philippines",7.69422,125.98055,PLDT Home Fiber,44780,45881,44.78,45.88,14,49,9,12
"Kidapawan, Cotabato, Philippines",7.02127,125.09019,Globe,118199,62943,118.20,62.94,17,49,7,14
"San Joaquin, Iloilo, Philippines",10.64155,122.10647,PLDT Home Fiber,33275,40727,33.28,40.73,7,49,9,13
"Jordan, Guimaras, Philippines",10.59807,122.57121,PLDT,45513,35467,45.51,35.47,23,49,20,29
"Cabangan, Zambales, Philippines",15.17178,120.13583,Globe,100357,100919,100.36,100.92,10,49,3,4
"Tapaz, Capiz, Philippines",11.28689,122.49201,PLDT,23613,21957,23.61,21.96,14,49,16,22
"Tupi, South Cotabato, Philippines",6.33849,124.97271,PLDT Home Fiber,50574,41779,50.57,41.78,11,49,10,16
"Lingayen, Pangasinan, Philippines",16.00973,120.22449,Converge,243936,153539,243.94,153.54,5,49,8,11
"Baao, Camarines Sur, Philippines",13.49319,123.35984,PLDT,76641,77947,76.64,77.95,11,49,15,26
"Minalin, Pampanga, Philippines",14.97052,120.68518,PLDT Home Fiber,54738,49569,54.74,49.57,6,49,18,29
"Labo, Camarines Norte, Philippines",14.13903,122.7633,PLDT,28563,48738,28.56,48.74,15,49,9,14
"Talisay, Negros Occidental, Philippines",10.74828,122.98012,Converge,171450,183288,171.45,183.29,15,49,19,26
"Sual, Pangasinan, Philippines",16.06783,120.04341,Converge,65310,73019,65.31,73.02,7,49,12,12
"Bulakan, Bulacan, Philippines",14.79484,120.87889,Converge,198724,159539,198.72,159.54,7,49,25,30
"Daraga, Albay, Philippines",13.12278,123.69588,PLDT,72203,73071,72.20,73.07,11,49,18,27
"City of Guihulngan, Negros Oriental, Philippines",10.18323,123.21385,Globe,122777,85649,122.78,85.65,10,48,8,9
"Kalayaan, Laguna, Philippines",14.32356,121.47757,PLDT,39065,26129,39.07,26.13,13,48,3,8
"Tiaong, Quezon, Philippines",13.92962,121.34273,PLDT,141447,102579,141.45,102.58,8,48,16,25
"T'boli, South Cotabato, Philippines",6.14683,124.90655,PLDT Home Fiber,31948,28630,31.95,28.63,29,48,11,13
"Naic, Cavite, Philippines",14.29649,120.79246,Globe,117874,106777,117.87,106.78,6,48,19,25
"Molave, Zamboanga del Sur, Philippines",8.10419,123.4944,PLDT Home Fiber,43455,43289,43.46,43.29,12,48,11,17
"Malay, Aklan, Philippines",11.93033,121.95191,Globe,186959,138703,186.96,138.70,16,48,9,17
"Panglao, Bohol, Philippines",9.56947,123.78721,PLDT,56471,41707,56.47,41.71,12,48,14,25
"Murcia, Negros Occidental, Philippines",10.60643,123.03944,PLDT,53811,50568,53.81,50.57,26,48,10,11
"Manapla, Negros Occidental, Philippines",10.95795,123.12428,PLDT,66083,60178,66.08,60.18,12,48,12,17
"Licab, Nueva Ecija, Philippines",15.54706,120.76948,PLDT,64158,107227,64.16,107.23,13,48,7,12
"San Francisco, Agusan del Sur, Philippines",8.44573,125.95878,PLDT Home Fiber,123322,111156,123.32,111.16,7,48,9,17
"Gerona, Tarlac, Philippines",15.60489,120.59698,PLDT Home Fiber,126290,125467,126.29,125.47,9,48,15,21
"Noveleta, Cavite, Philippines",14.42785,120.88009,Converge,163398,220817,163.40,220.82,5,48,7,9
"Laurel, Batangas, Philippines",14.05302,120.9073,PLDT,67637,109625,67.64,109.63,11,48,10,19
"Argao, Cebu, Philippines",9.88114,123.60535,PLDT,146536,131283,146.54,131.28,8,48,15,18
"Binalonan, Pangasinan, Philippines",16.05355,120.60848,PLDT,93966,71846,93.97,71.85,5,48,17,29
"General Luna, Surigao del Norte, Philippines",9.78375,126.15657,PLDT Home Fiber,87693,80255,87.69,80.26,17,47,13,16
"Buug, Zamboanga Sibugay, Philippines",7.74072,123.05639,Globe,119898,54638,119.90,54.64,27,47,5,7
"Santo Domingo, Nueva Ecija, Philippines",15.61284,120.88434,Converge,297557,304061,297.56,304.06,5,47,17,24
"Pulilan, Bulacan, Philippines",14.90243,120.8459,Converge,67356,62144,67.36,62.14,7,47,15,23
"San Policarpo, Eastern Samar, Philippines",12.203,125.45628,PLDT Home Fiber,11498,14725,11.50,14.73,10,47,3,4
"Jordan, Guimaras, Philippines",10.59807,122.57121,PLDT Home Fiber,81027,124697,81.03,124.70,7,47,8,16
"San Jose, Batangas, Philippines",13.87868,121.09942,PLDT,88956,122275,88.96,122.28,6,47,19,26
"Cordova, Cebu, Philippines",10.25278,123.9494,Converge,249466,283797,249.47,283.80,3,47,8,14
"Muñoz, Nueva Ecija, Philippines",15.70664,120.9029,Converge,194089,225421,194.09,225.42,5,47,19,28
"Dumarao, Capiz, Philippines",11.22554,122.83102,Converge,100434,116025,100.43,116.03,17,47,2,2
"Lagawe, Ifugao, Philippines",16.80825,121.19395,PLDT Home Fiber,107451,108072,107.45,108.07,7,47,23,32
"Calauan, Laguna, Philippines",14.14551,121.3146,Converge,76150,76526,76.15,76.53,6,47,23,32
"Plaridel, Bulacan, Philippines",14.88591,120.85932,Globe,113580,134493,113.58,134.49,8,46,16,19
"Camiling, Tarlac, Philippines",15.67495,120.41272,PLDT Home Fiber,60538,67137,60.54,67.14,10,46,14,18
"Talisay, Batangas, Philippines",14.11598,121.04498,Converge,74077,56811,74.08,56.81,6,46,6,8
"Tiwi, Albay, Philippines",13.4612,123.63996,Converge,153026,169455,153.03,169.46,5,46,3,5
"San Carlos City, Pangasinan, Philippines",15.92589,120.34827,Converge,108921,110374,108.92,110.37,8,46,20,25
"San Gabriel, La Union, Philippines",16.66943,120.50488,PLDT,38171,16679,38.17,16.68,38,46,3,5
"Isabela, Negros Occidental, Philippines",10.22566,123.01136,PLDT Home Fiber,74662,64800,74.66,64.80,12,46,13,23
"San Gabriel, La Union, Philippines",16.66943,120.50488,PLDT Home Fiber,93212,94510,93.21,94.51,5,46,8,14
"Floridablanca, Pampanga, Philippines",14.9619,120.49471,PLDT Home Fiber,127889,81475,127.89,81.48,7,46,20,28
"Calabanga, Camarines Sur, Philippines",13.71633,123.28126,Converge,184868,189716,184.87,189.72,12,46,10,14
"Digos, Davao del Sur, Philippines",6.74347,125.35515,PLDT,99810,69980,99.81,69.98,9,46,15,23
"Lubao, Pampanga, Philippines",14.92678,120.58795,PLDT,106701,55664,106.70,55.66,12,46,16,19
"Damulog, Bukidnon, Philippines",7.4602,124.97271,PLDT,299933,302535,299.93,302.54,9,46,16,22
"New Washington, Aklan, Philippines",11.6466,122.39009,Converge,71733,58160,71.73,58.16,17,46,8,12
"City of Catbalogan, Samar, Philippines",11.85683,124.88449,Globe,116598,130720,116.60,130.72,11,46,16,24
"Talavera, Nueva Ecija, Philippines",15.58575,120.9197,PLDT Home Fiber,77969,56193,77.97,56.19,11,46,14,23
"Himamaylan, Negros Occidental, Philippines",10.10162,122.86995,PLDT,21305,20842,21.31,20.84,23,46,16,25
"Anilao, Iloilo, Philippines",11.00026,122.74072,PLDT,55566,74623,55.57,74.62,12,45,10,13
"Surigao, Surigao del Norte, Philippines",9.79022,125.49311,Globe,92488,63465,92.49,63.47,16,45,13,15
"Bataraza, Palawan, Philippines",8.5878,117.43215,PLDT Home Fiber,69636,161147,69.64,161.15,38,45,10,13
"Mabini, Batangas, Philippines",13.72355,120.9073,Converge,155225,184062,155.23,184.06,9,45,18,26
"Old Kaabakan, Philippines",7.22147,124.85635,PLDT,63828,83366,63.83,83.37,18,45,13,18
"Quezon, Bukidnon, Philippines",7.71645,125.17087,Converge,262502,260542,262.50,260.54,8,45,4,6
"City of Baybay, Leyte, Philippines",10.66858,124.80409,Globe,91642,88687,91.64,88.69,19,45,14,16
"Mangatarem, Pangasinan, Philippines",15.73801,120.27435,PLDT Home Fiber,506479,404985,506.48,404.99,5,45,3,3
"Bagabag, Nueva Vizcaya, Philippines",16.58337,121.28552,PLDT Home Fiber,99052,121141,99.05,121.14,11,45,18,26
"Malay, Aklan, Philippines",11.93033,121.95191,Converge,90013,60434,90.01,60.43,15,45,18,32
"Candelaria, Quezon, Philippines",13.94899,121.42276,PLDT,109619,87997,109.62,88.00,4,45,20,29
"Gingoog City, Misamis Oriental, Philippines",8.81446,125.10406,Globe,49651,32180,49.65,32.18,8,45,7,10
"Kapatagan, Lanao del Norte, Philippines",7.86776,123.72942,PLDT Home Fiber,146251,231081,146.25,231.08,9,45,13,18
"Alfonso, Cavite, Philippines",14.1214,120.86138,PLDT,81322,106506,81.32,106.51,8,45,21,32
"San Fernando City, La Union, Philippines",16.61592,120.32102,PLDT,45344,81929,45.34,81.93,2,44,12,25
"Lopez, Quezon, Philippines",13.80005,122.31075,Converge,174898,214115,174.90,214.12,10,44,14,21
"Majayjay, Laguna, Philippines",14.14491,121.46983,PLDT,83872,121803,83.87,121.80,16,44,4,9
"Himamaylan, Negros Occidental, Philippines",10.10162,122.86995,PLDT Home Fiber,16232,27371,16.23,27.37,18,44,7,13
"Pikit, Cotabato, Philippines",7.05314,124.61927,PLDT Home Fiber,50292,54995,50.29,55.00,11,44,16,24
"Majayjay, Laguna, Philippines",14.14491,121.46983,Converge,91916,87383,91.92,87.38,6,44,6,13
"Apalit, Pampanga, Philippines",14.95255,120.76688,Converge,94897,109357,94.90,109.36,4,44,21,33
"Pantabangan, Nueva Ecija, Philippines",15.79424,121.12521,PLDT Home Fiber,194282,92157,194.28,92.16,13,43,13,25
"Santa Maria, Pangasinan, Philippines",15.95523,120.7005,PLDT Home Fiber,94134,80473,94.13,80.47,10,43,14,23
"San Leonardo, Nueva Ecija, Philippines",15.37285,120.95321,PLDT,28051,29364,28.05,29.36,11,43,20,29
"Aloran, Misamis Occidental, Philippines",8.41606,123.82447,PLDT Home Fiber,45955,60126,45.96,60.13,9,43,18,25
"Banisilan, Cotabato, Philippines",7.53701,124.72988,PLDT Home Fiber,45290,48048,45.29,48.05,14,43,16,24
"Mabalacat City, Pampanga, Philippines",15.24525,120.56567,Globe,121488,121338,121.49,121.34,4,43,17,24
"Rosales, Pangasinan, Philippines",15.86126,120.63149,PLDT Home Fiber,92112,89461,92.11,89.46,9,43,16,24
"Iligan City, Lanao del Norte, Philippines",8.22707,124.46418,PLDT,146186,106674,146.19,106.67,21,43,20,28
"Nueva Valencia, Guimaras, Philippines",10.46356,122.54859,PLDT Home Fiber,34497,39283,34.50,39.28,8,43,8,11
"Hagonoy, Bulacan, Philippines",14.83564,120.73371,Converge,267904,210396,267.90,210.40,5,43,16,18
"Cauayan City, Isabela, Philippines",16.91662,121.78792,Globe,115642,86202,115.64,86.20,8,43,15,17
"Santa Ana, Pampanga, Philippines",15.09442,120.76623,Globe,233178,279065,233.18,279.07,5,43,23,31
"Gubat, Sorsogon, Philippines",12.92415,124.09755,PLDT,60121,61954,60.12,61.95,19,43,6,12
"San Carlos City, Pangasinan, Philippines",15.92589,120.34827,Globe,117205,102614,117.21,102.61,5,43,19,25
"Canaman, Camarines Sur, Philippines",13.64758,123.13515,Converge,37391,174381,37.39,174.38,4,43,9,10
"Pateros, Metro Manila, Philippines",14.54838,121.07077,Globe,197215,233158,197.22,233.16,6,43,25,30
"Mangatarem, Pangasinan, Philippines",15.73801,120.27435,PLDT,51054,55687,51.05,55.69,7,43,13,20
"Calatagan, Batangas, Philippines",13.88203,120.6545,Converge,129913,149042,129.91,149.04,10,43,16,28
"Taysan, Batangas, Philippines",13.76108,121.2283,PLDT Home Fiber,76440,96619,76.44,96.62,5,43,12,17
"San Quintin, Pangasinan, Philippines",15.9754,120.83841,PLDT,94161,111925,94.16,111.93,4,43,15,28
"Santa Cruz, Laguna, Philippines",14.26911,121.41133,Converge,249498,183946,249.50,183.95,9,43,20,24
"Quezon, Nueva Vizcaya, Philippines",16.45779,121.28552,Converge,17578,26208,17.58,26.21,12,43,7,11
"Tiaong, Quezon, Philippines",13.92962,121.34273,Converge,94777,99072,94.78,99.07,5,43,19,27
"Bacolod, Lanao del Norte, Philippines",8.14754,124.03072,PLDT Home Fiber,95150,99349,95.15,99.35,5,42,2,6
