Location Name,Latitude,Longitude,Provider,Download Speed,Upload Speed,Download Speed Mbps,Upload Speed Mbps,Minimum Latency,Test Count,Sample Count,User Count
"Quezon City, Metro Manila, Philippines",14.64879,121.05094,PLDT Home Fiber,107275,133303,107.28,133.30,3,194010,40792,59544
"Quezon City, Metro Manila, Philippines",14.64879,121.05094,Converge,195111,188290,195.11,188.29,4,161765,35918,54037
"Quezon City, Metro Manila, Philippines",14.64879,121.05094,Globe,159500,139779,159.50,139.78,5,104180,25332,39134
"Davao City, Davao del Sur, Philippines",7.06475,125.60884,PLDT Home Fiber,96057,95637,96.06,95.64,9,95271,20221,30289
"Manila, Metro Manila, Philippines",14.59951,120.98423,Converge,203054,181648,203.05,181.65,4,90916,19019,33534
"Cebu City, Cebu, Philippines",10.29261,123.90219,PLDT Home Fiber,94852,101498,94.85,101.50,7,81720,15286,22877
"Manila, Metro Manila, Philippines",14.59951,120.98423,PLDT Home Fiber,93957,100576,93.96,100.58,6,80151,16152,24687
"Davao City, Davao del Sur, Philippines",7.06475,125.60884,Globe,122800,128854,122.80,128.85,5,71936,15572,21361
"Quezon City, Metro Manila, Philippines",14.64879,121.05094,PLDT,72630,70744,72.63,70.74,8,70671,16881,25300
"Valenzuela, Metro Manila, Philippines",14.69247,120.96991,Converge,206183,195723,206.18,195.72,3,63232,13732,24066
"Taguig, Metro Manila, Philippines",14.53063,121.05755,Converge,202987,202270,202.99,202.27,4,62987,13620,21632
"Cebu City, Cebu, Philippines",10.29261,123.90219,PLDT,80280,87781,80.28,87.78,9,61875,12198,18105
"Parañaque, Metro Manila, Philippines",14.47929,121.01985,Converge,212663,205827,212.66,205.83,4,59335,13830,22136
"Cebu City, Cebu, Philippines",10.29261,123.90219,Globe,122455,109293,122.46,109.29,6,57062,13886,20647
"Cebu City, Cebu, Philippines",10.29261,123.90219,Converge,173100,173762,173.10,173.76,4,51286,11749,18078
"Marikina, Metro Manila, Philippines",14.63493,121.10195,Converge,199991,199451,199.99,199.45,3,47756,11424,17984
"San Pablo City, Laguna, Philippines",14.06422,121.32326,Converge,178136,177223,178.14,177.22,5,47111,10372,18532
"Pasig, Metro Manila, Philippines",14.56082,121.0776,PLDT Home Fiber,115871,124256,115.87,124.26,3,46619,10833,16469
"Biñan, Laguna, Philippines",14.31456,121.08316,PLDT,95915,112147,95.92,112.15,9,44092,9548,16229
"Manila, Metro Manila, Philippines",14.59951,120.98423,PLDT,87361,87166,87.36,87.17,6,43842,10333,15164
"Parañaque, Metro Manila, Philippines",14.47929,121.01985,PLDT Home Fiber,99016,114283,99.02,114.28,4,42118,8130,11617
"Las Piñas, Metro Manila, Philippines",14.44934,120.98186,PLDT Home Fiber,99722,126700,99.72,126.70,6,40992,6267,8224
"Calamba, Laguna, Philippines",14.19488,121.15974,Converge,151953,133206,151.95,133.21,6,40239,8935,14239
"Pasig, Metro Manila, Philippines",14.56082,121.0776,Converge,123992,120011,123.99,120.01,3,39814,9636,12768
"Cagayan De Oro City, Misamis Oriental, Philippines",8.48029,124.64975,Globe,101679,84157,101.68,84.16,8,37889,7659,11469
"Baguio, Benguet, Philippines",16.41297,120.5914,PLDT Home Fiber,92574,95618,92.57,95.62,6,37824,8560,13209
"Antipolo City, 1870 Rizal, Philippines",14.58584,121.17569,PLDT Home Fiber,102428,129437,102.43,129.44,3,37245,7904,11897
"Davao City, Davao del Sur, Philippines",7.06475,125.60884,Converge,112535,109320,112.54,109.32,3,36689,8427,12821
"Iligan City, Lanao del Norte, Philippines",8.22707,124.46418,PLDT Home Fiber,90396,90445,90.40,90.45,7,35099,6342,9291
"Caloocan, Metro Manila, Philippines",14.65136,120.99022,PLDT Home Fiber,104252,141079,104.25,141.08,3,35080,7709,10734
"Pasay City, Metro Manila, Philippines",14.53767,121.00081,PLDT Home Fiber,96818,101966,96.82,101.97,5,34310,7711,11511
"Makati City, Metro Manila, Philippines",14.55474,121.02444,PLDT,71592,72291,71.59,72.29,11,34152,8909,13292
"Parañaque, Metro Manila, Philippines",14.47929,121.01985,PLDT,93439,95211,93.44,95.21,5,32652,8523,13121
"Taguig, Metro Manila, Philippines",14.53063,121.05755,Globe,158353,138418,158.35,138.42,4,31370,8517,13694
"Cainta, Rizal, Philippines",14.58056,121.11565,PLDT Home Fiber,110107,151766,110.11,151.77,3,30823,6893,9944
"Makati City, Metro Manila, Philippines",14.55474,121.02444,PLDT Home Fiber,100919,117395,100.92,117.40,4,29506,6550,9680
"Cagayan De Oro City, Misamis Oriental, Philippines",8.48029,124.64975,PLDT Home Fiber,93427,94698,93.43,94.70,7,28943,6271,9660
"Mexico, Pampanga, Philippines",15.06457,120.72033,Converge,117986,118626,117.99,118.63,3,26794,6656,10542
"Mandaluyong City, Metro Manila, Philippines",14.57627,121.03924,Converge,203983,196935,203.98,196.94,3,25884,6638,10378
"Antipolo City, 1870 Rizal, Philippines",14.58584,121.17569,Converge,203936,202830,203.94,202.83,3,25883,6484,9712
"Davao City, Davao del Sur, Philippines",7.06475,125.60884,PLDT,93358,93830,93.36,93.83,9,25834,6528,9417
"Polangui, Albay, Philippines",13.29368,123.48542,Converge,109272,93028,109.27,93.03,10,25524,5274,9900
"Caloocan, Metro Manila, Philippines",14.65136,120.99022,Converge,192650,193465,192.65,193.47,4,25426,4081,6281
"Taguig, Metro Manila, Philippines",14.53063,121.05755,PLDT Home Fiber,131230,159546,131.23,159.55,4,24890,5127,6955
"Bacoor, Cavite, Philippines",14.43122,120.96567,PLDT Home Fiber,113385,124079,113.39,124.08,5,24678,5038,7143
"Capas, Tarlac, Philippines",15.34633,120.59344,Converge,124422,121143,124.42,121.14,3,24156,6190,10076
"Angeles, Pampanga, Philippines",15.16061,120.60908,Converge,102750,105444,102.75,105.44,3,23905,5535,8072
"Muntinlupa, Metro Manila, Philippines",14.39453,121.04483,PLDT,95102,96504,95.10,96.50,5,23467,4993,7087
"Pandi, Bulacan, Philippines",14.87572,120.95941,Converge,148081,105000,148.08,105.00,7,23446,5437,8519
"Valenzuela, Metro Manila, Philippines",14.69247,120.96991,PLDT Home Fiber,106029,131422,106.03,131.42,3,21292,4737,6677
"Imus, Cavite, Philippines",14.42764,120.93724,PLDT Home Fiber,117532,139394,117.53,139.39,4,20995,4910,7203
"Malabon, Metro Manila, Philippines",14.65793,120.95118,PLDT Home Fiber,98834,109900,98.83,109.90,3,20579,4948,7289
"Batangas City, Batangas, Philippines",13.75641,121.05833,Globe,114177,103540,114.18,103.54,10,20227,4901,7606
"Pasig, Metro Manila, Philippines",14.56082,121.0776,Globe,232236,204366,232.24,204.37,5,20141,4628,6741
"Iloilo City, Iloilo, Philippines",10.73019,122.55911,Globe,107490,97447,107.49,97.45,9,19916,4387,6746
"Tanauan City, Batangas, Philippines",14.08354,121.14762,PLDT Home Fiber,98915,98842,98.92,98.84,7,19528,4726,7553
"Tarlac City, Tarlac, Philippines",15.48808,120.58719,Converge,98608,98254,98.61,98.25,4,19347,4820,7723
"Taguig, Metro Manila, Philippines",14.53063,121.05755,PLDT,81654,85128,81.65,85.13,8,19268,4816,6850
"Dasmariñas, Cavite, Philippines",14.33385,120.95423,PLDT Home Fiber,107001,135642,107.00,135.64,5,19035,3677,5553
"General Trias, Cavite, Philippines",14.38159,120.87915,Converge,171934,176634,171.93,176.63,6,18327,4478,7226
"Bacolod, Negros Occidental, Philippines",10.66764,122.94556,PLDT Home Fiber,89698,95059,89.70,95.06,12,18074,3638,5196
"Concepcion, Tarlac, Philippines",15.324,120.65596,Converge,107048,113348,107.05,113.35,3,17901,4661,7668
"Lipa City, Batangas, Philippines",13.94047,121.19395,PLDT Home Fiber,99704,106647,99.70,106.65,7,17542,3949,6124
"Bacolod, Negros Occidental, Philippines",10.66764,122.94556,Globe,115210,104338,115.21,104.34,9,17509,3471,4946
"Arayat, Pampanga, Philippines",15.15443,120.771,Converge,130058,150150,130.06,150.15,4,17421,4427,7504
"La Trinidad, Benguet, Philippines",16.44844,120.59047,Converge,104042,107376,104.04,107.38,3,17163,4079,6139
"San Fernando, Pampanga, Philippines",15.02781,120.69349,Converge,95733,98503,95.73,98.50,4,16870,4232,5850
"SJDM, Bulacan, Philippines",14.82867,121.04324,Converge,131495,116910,131.50,116.91,7,16346,3721,5202
"Santa Maria, Bulacan, Philippines",14.82898,120.97616,Converge,154297,114919,154.30,114.92,7,15840,4043,6204
"Anao, Tarlac, Philippines",15.7435,120.61424,Globe,163532,140010,163.53,140.01,6,15685,3725,5703
"Muntinlupa, Metro Manila, Philippines",14.39453,121.04483,PLDT Home Fiber,110620,104938,110.62,104.94,4,15643,3114,4551
"Imus, Cavite, Philippines",14.42764,120.93724,Converge,162660,183957,162.66,183.96,6,15560,2969,4854
"Bago, Negros Occidental, Philippines",10.53757,122.83609,Converge,156770,134632,156.77,134.63,12,15511,3615,6323
"Magpet, Cotabato, Philippines",7.1332,125.17087,PLDT Home Fiber,97364,96554,97.36,96.55,8,15152,4321,6261
"Dasmariñas, Cavite, Philippines",14.33385,120.95423,Globe,151795,128950,151.80,128.95,5,14553,4120,6192
"Muntinlupa, Metro Manila, Philippines",14.39453,121.04483,Converge,206742,202301,206.74,202.30,4,14477,3652,5664
"Murcia, Negros Occidental, Philippines",10.60643,123.03944,Globe,112855,103379,112.86,103.38,6,14416,4016,6248
"Pasay City, Metro Manila, Philippines",14.53767,121.00081,PLDT,90777,92916,90.78,92.92,6,14321,3624,5793
"Naga City, Camarines Sur, Philippines",13.6475,123.27003,Converge,90025,84346,90.03,84.35,9,14164,2322,3839
"Bulakan, Bulacan, Philippines",14.79484,120.87889,PLDT Home Fiber,98872,101470,98.87,101.47,6,14041,3549,5569
"Los Baños, Laguna, Philippines",14.17731,121.22161,PLDT Home Fiber,101400,123559,101.40,123.56,8,13972,3324,5141
"Makati City, Metro Manila, Philippines",14.55474,121.02444,Converge,171268,170127,171.27,170.13,4,13717,3243,4837
"General Trias, Cavite, Philippines",14.38159,120.87915,PLDT Home Fiber,118882,130544,118.88,130.54,5,13530,2850,4170
"Makati City, Metro Manila, Philippines",14.55474,121.02444,Globe,157447,134523,157.45,134.52,4,13501,3252,4734
"San Juan City, Metro Manila, Philippines",14.60196,121.0355,PLDT,71269,64506,71.27,64.51,12,13372,3623,5578
"San Fernando, Pampanga, Philippines",15.02781,120.69349,PLDT Home Fiber,106875,100573,106.88,100.57,7,13347,2968,4287
"Dasmariñas, Cavite, Philippines",14.33385,120.95423,PLDT,94089,100206,94.09,100.21,9,13007,3327,5318
"Bacolor, Pampanga, Philippines",14.99692,120.65235,PLDT Home Fiber,98962,97577,98.96,97.58,7,12738,3407,5508
"Butuan City, Agusan Del Norte, Philippines",8.94753,125.54063,PLDT Home Fiber,82088,90794,82.09,90.79,9,12653,2122,3203
"Danao, Cebu, Philippines",10.52013,124.02712,Globe,99289,96636,99.29,96.64,7,12564,3499,5506
"Tarlac City, Tarlac, Philippines",15.48808,120.58719,Globe,118367,105951,118.37,105.95,5,12296,2844,4458
"Bacoor, Cavite, Philippines",14.43122,120.96567,PLDT,92232,92876,92.23,92.88,8,12000,2979,4407
"Baguio, Benguet, Philippines",16.41297,120.5914,Converge,94280,96884,94.28,96.88,4,11939,2670,3799
"Itogon, Benguet, Philippines",16.36116,120.6787,PLDT,94057,97445,94.06,97.45,6,11844,3230,5112
"Butuan City, Agusan Del Norte, Philippines",8.94753,125.54063,Globe,110332,64039,110.33,64.04,12,11802,2633,3732
"Taytay, Rizal, Philippines",14.55288,121.12571,PLDT Home Fiber,103669,141636,103.67,141.64,4,11795,2727,3933
"Claveria, Misamis Oriental, Philippines",8.62972,124.90655,Converge,132812,128217,132.81,128.22,9,11621,2786,4446
"Caloocan, Metro Manila, Philippines",14.65136,120.99022,Globe,166948,141397,166.95,141.40,5,11603,2864,3992
"Cabanatuan City, Nueva Ecija, Philippines",15.49943,121.01057,Globe,118185,105703,118.19,105.70,6,11527,2500,3839
"Silang, Cavite, Philippines",14.22025,120.96469,PLDT Home Fiber,101323,103601,101.32,103.60,5,11427,2710,4269
"Calamba, Laguna, Philippines",14.19488,121.15974,PLDT Home Fiber,99321,108174,99.32,108.17,8,11347,2587,3886
"Caloocan, Metro Manila, Philippines",14.65136,120.99022,PLDT,89022,92403,89.02,92.40,4,11202,2743,4026
"Dasmariñas, Cavite, Philippines",14.33385,120.95423,Converge,183077,171513,183.08,171.51,5,10993,2570,4077
"San Pablo City, Laguna, Philippines",14.06422,121.32326,PLDT Home Fiber,97691,127527,97.69,127.53,6,10905,2408,3687
"Itogon, Benguet, Philippines",16.36116,120.6787,PLDT Home Fiber,94197,98445,94.20,98.45,6,10678,2853,4520
"Iloilo City, Iloilo, Philippines",10.73019,122.55911,Converge,110599,100911,110.60,100.91,12,10577,1901,2912
"Iloilo City, Iloilo, Philippines",10.73019,122.55911,PLDT Home Fiber,91172,94919,91.17,94.92,14,10396,1753,2651
"Calamba, Laguna, Philippines",14.19488,121.15974,PLDT,88099,93150,88.10,93.15,10,10342,2219,3467
"San Juan City, Metro Manila, Philippines",14.60196,121.0355,PLDT Home Fiber,116704,138334,116.70,138.33,3,10313,2425,3441
"Sariaya, Quezon, Philippines",13.96301,121.52388,Converge,201907,201684,201.91,201.68,4,10312,2499,4167
"Victoria, Tarlac, Philippines",15.59077,120.68901,Globe,63037,55476,63.04,55.48,5,10085,2002,4456
"Bacolod, Negros Occidental, Philippines",10.66764,122.94556,Converge,122157,112525,122.16,112.53,12,10069,2027,2910
"Tarlac City, Tarlac, Philippines",15.48808,120.58719,PLDT,84163,87531,84.16,87.53,9,9976,2042,3067
"Carmona, Cavite, Philippines",14.3135,121.05712,PLDT,100004,134719,100.00,134.72,8,9959,2340,3749
"San Juan City, Metro Manila, Philippines",14.60196,121.0355,Converge,165765,166591,165.77,166.59,3,9952,2837,4427
"Baguio, Benguet, Philippines",16.41297,120.5914,PLDT,89359,90279,89.36,90.28,6,9920,2543,3795
"Mandaluyong City, Metro Manila, Philippines",14.57627,121.03924,Globe,180486,150058,180.49,150.06,5,9867,2362,3604
"Iligan City, Lanao del Norte, Philippines",8.22707,124.46418,Converge,128780,123507,128.78,123.51,7,9832,2606,3987
"La Paz, Tarlac, Philippines",15.4497,120.7235,Globe,130505,113576,130.51,113.58,5,9393,2431,4139
"Pasig, Metro Manila, Philippines",14.56082,121.0776,PLDT,73194,63729,73.19,63.73,5,9383,2506,3631
"Tagaytay City, Cavite, Philippines",14.11541,120.96202,Converge,114969,103346,114.97,103.35,6,9375,1898,3065
"Olongapo City, Zambales, Philippines",14.88739,120.36661,Converge,106621,105915,106.62,105.92,5,9322,2493,3986
"Binangonan, Rizal, Philippines",14.48441,121.1869,PLDT,96925,118286,96.93,118.29,3,9318,2547,4011
"Marikina, Metro Manila, Philippines",14.63493,121.10195,PLDT Home Fiber,130125,149972,130.13,149.97,3,9279,1929,2705
"Bago, Negros Occidental, Philippines",10.53757,122.83609,PLDT Home Fiber,96867,132176,96.87,132.18,11,9218,2502,3848
"Cagayan De Oro City, Misamis Oriental, Philippines",8.48029,124.64975,Converge,116870,115205,116.87,115.21,8,9201,2013,2785
"Subic Bay Freeport Zone, Philippines",14.80319,120.30033,Converge,140994,114928,140.99,114.93,5,9171,2348,3592
"Digos, Davao del Sur, Philippines",6.74347,125.35515,Converge,110908,108600,110.91,108.60,4,9164,2097,3159
"Bustos, Bulacan, Philippines",14.95239,120.91735,PLDT Home Fiber,98277,99518,98.28,99.52,7,9048,2109,2975
"Parañaque, Metro Manila, Philippines",14.47929,121.01985,Globe,158732,132642,158.73,132.64,5,8982,2321,3084
"Bacoor, Cavite, Philippines",14.43122,120.96567,Converge,162061,163366,162.06,163.37,6,8777,1669,2642
"New Lucena, Iloilo, Philippines",10.87841,122.59781,Converge,138634,120552,138.63,120.55,11,8770,1954,3573
"Bacolod, Negros Occidental, Philippines",10.66764,122.94556,PLDT,69287,76974,69.29,76.97,9,8716,1603,2302
"Pandi, Bulacan, Philippines",14.87572,120.95941,PLDT Home Fiber,96759,98660,96.76,98.66,8,8559,2138,3053
"Las Piñas, Metro Manila, Philippines",14.44934,120.98186,PLDT,84976,89296,84.98,89.30,7,8484,2266,3409
"Talakag, Bukidnon, Philippines",8.05293,124.72988,PLDT Home Fiber,93566,95085,93.57,95.09,5,8457,2123,3214
"San Carlos City, Negros Occidental, Philippines",10.48344,123.30371,PLDT Home Fiber,94884,128682,94.88,128.68,10,8388,2179,3336
"San Carlos City, Negros Occidental, Philippines",10.48344,123.30371,PLDT,96066,125577,96.07,125.58,6,8352,2296,3421
"Biñan, Laguna, Philippines",14.31456,121.08316,PLDT Home Fiber,98030,112175,98.03,112.18,8,8348,1708,2467
"Taytay, Rizal, Philippines",14.55288,121.12571,Converge,210383,209894,210.38,209.89,3,8278,2011,3097
"Mandaluyong City, Metro Manila, Philippines",14.57627,121.03924,PLDT Home Fiber,145880,162188,145.88,162.19,3,8273,1728,2267
"Navotas, Metro Manila, Philippines",14.65819,120.94743,Converge,191553,193081,191.55,193.08,4,8214,1684,2857
"Antipolo City, 1870 Rizal, Philippines",14.58584,121.17569,PLDT,58164,59943,58.16,59.94,8,8126,1878,2893
"Murcia, Negros Occidental, Philippines",10.60643,123.03944,PLDT Home Fiber,95694,105945,95.69,105.95,12,7980,2135,3258
"Mandaluyong City, Metro Manila, Philippines",14.57627,121.03924,PLDT,65936,49865,65.94,49.87,11,7751,1770,2700
"Consolacion, Cebu, Philippines",10.37581,123.95694,Converge,177793,193920,177.79,193.92,2,7670,2086,3099
"Cainta, Rizal, Philippines",14.58056,121.11565,Globe,181471,149114,181.47,149.11,5,7621,1749,2342
"San Nicolas, Pangasinan, Philippines",16.12066,120.78097,PLDT,97102,100364,97.10,100.36,5,7571,1989,3196
"Malolos, Bulacan, Philippines",14.86049,120.80916,PLDT Home Fiber,96758,99289,96.76,99.29,7,7525,1530,2140
"Calapan City, Oriental Mindoro, Philippines",13.36643,121.19395,Converge,93836,93958,93.84,93.96,10,7488,1368,2596
"Cainta, Rizal, Philippines",14.58056,121.11565,PLDT,91243,93923,91.24,93.92,6,7394,1956,2780
"Iloilo City, Iloilo, Philippines",10.73019,122.55911,PLDT,79145,80328,79.15,80.33,10,7317,1681,2489
"Tanauan City, Batangas, Philippines",14.08354,121.14762,PLDT,91574,94376,91.57,94.38,7,7286,1960,2988
"Burgos, La Union, Philippines",16.53803,120.47033,Converge,97449,100412,97.45,100.41,4,7234,1672,2729
"Candelaria, Quezon, Philippines",13.94899,121.42276,Converge,188357,197179,188.36,197.18,4,7167,1810,3013
"Marikina, Metro Manila, Philippines",14.63493,121.10195,Globe,169416,143051,169.42,143.05,5,7134,1805,2815
"Nasugbu, Batangas, Philippines",14.09404,120.68901,Globe,115576,103358,115.58,103.36,7,7106,1792,2617
"Batangas City, Batangas, Philippines",13.75641,121.05833,PLDT Home Fiber,105827,110885,105.83,110.89,8,7023,1558,2276
"Malabon, Metro Manila, Philippines",14.65793,120.95118,Converge,199716,189408,199.72,189.41,4,6931,1320,2117
"Santa Maria, Bulacan, Philippines",14.82898,120.97616,PLDT Home Fiber,94189,95310,94.19,95.31,9,6726,1405,1951
"Urdaneta City, Pangasinan, Philippines",15.98194,120.59698,Converge,97874,100110,97.87,100.11,6,6615,1543,2596
"Magpet, Cotabato, Philippines",7.1332,125.17087,PLDT,98318,97602,98.32,97.60,8,6351,1809,2615
"Cainta, Rizal, Philippines",14.58056,121.11565,Converge,185836,176344,185.84,176.34,3,6321,1343,1730
"Las Piñas, Metro Manila, Philippines",14.44934,120.98186,Converge,195957,180840,195.96,180.84,4,6240,1142,1696
"Zamboanga City, Zamboanga del Sur, Philippines",6.90437,122.07612,PLDT Home Fiber,99866,91728,99.87,91.73,11,6203,1022,1374
"Kawit, Cavite, Philippines",14.44588,120.90871,PLDT Home Fiber,93705,104468,93.71,104.47,9,6061,1375,2052
"Bacoor, Cavite, Philippines",14.43122,120.96567,Globe,212998,174719,213.00,174.72,5,6005,1212,1458
"La Castellana, Negros Occidental, Philippines",10.33198,123.10141,PLDT Home Fiber,96281,132294,96.28,132.29,12,6004,1394,2045
"Lucena City, Quezon, Philippines",13.94139,121.62345,PLDT Home Fiber,100618,133396,100.62,133.40,5,5998,1270,1813
"Arayat, Pampanga, Philippines",15.15443,120.771,PLDT Home Fiber,93424,94731,93.42,94.73,9,5997,1398,2251
"Manila, Metro Manila, Philippines",14.59951,120.98423,Globe,155531,130225,155.53,130.23,5,5865,1334,1841
"Santo Domingo, Nueva Ecija, Philippines",15.61284,120.88434,Globe,118372,106828,118.37,106.83,7,5840,1541,2358
"General Trias, Cavite, Philippines",14.38159,120.87915,Globe,202145,179581,202.15,179.58,6,5834,1336,2067
"Angeles, Pampanga, Philippines",15.16061,120.60908,PLDT Home Fiber,104709,102400,104.71,102.40,8,5728,1134,1611
"City of Santa Rosa, Laguna, Philippines",14.31471,121.11232,PLDT Home Fiber,109985,135793,109.99,135.79,7,5676,1048,1497
"San Mateo, Rizal, Philippines",14.69539,121.11767,PLDT Home Fiber,112603,155778,112.60,155.78,3,5667,1145,1636
"Cabuyao City, Laguna, Philippines",14.27433,121.11961,PLDT Home Fiber,106640,114396,106.64,114.40,7,5609,1369,2055
"Agoncillo, Batangas, Philippines",13.94675,120.93026,Converge,216560,199352,216.56,199.35,7,5595,1358,2307
"Canlaon City, Negros Oriental, Philippines",10.36048,123.19137,PLDT Home Fiber,96840,134188,96.84,134.19,9,5502,1545,2238
"General Santos City (Dadiangas), South Cotabato, Philippines",6.14327,125.19286,PLDT Home Fiber,98685,95084,98.69,95.08,10,5466,914,1194
"San Pedro, Laguna, Philippines",14.36443,121.06192,PLDT Home Fiber,117524,137505,117.52,137.51,5,5388,1028,1297
"Digos, Davao del Sur, Philippines",6.74347,125.35515,PLDT Home Fiber,95677,94948,95.68,94.95,9,5260,1468,2149
"SJDM, Bulacan, Philippines",14.82867,121.04324,PLDT,63797,65580,63.80,65.58,11,5246,1223,1656
"Lipa City, Batangas, Philippines",13.94047,121.19395,PLDT,98901,101038,98.90,101.04,8,5230,1377,1990
"Navotas, Metro Manila, Philippines",14.65819,120.94743,PLDT Home Fiber,96438,117777,96.44,117.78,4,5207,1129,1574
"Marilao, Bulacan, Philippines",14.77237,120.96001,PLDT Home Fiber,96768,97257,96.77,97.26,10,5152,1134,1621
"Liloan, Cebu, Philippines",10.39926,124.00002,Converge,168014,178094,168.01,178.09,3,5136,1339,2070
"Kawit, Cavite, Philippines",14.44588,120.90871,PLDT,92023,94047,92.02,94.05,10,5112,1384,2215
"Candaba, Pampanga, Philippines",15.09289,120.8277,PLDT Home Fiber,95424,99319,95.42,99.32,8,5107,1344,2210
"Kawit, Cavite, Philippines",14.44588,120.90871,Globe,157838,132030,157.84,132.03,5,5071,1340,1908
"Antipolo City, 1870 Rizal, Philippines",14.58584,121.17569,Globe,149747,130078,149.75,130.08,5,5037,1038,1336
"Valenzuela, Metro Manila, Philippines",14.69247,120.96991,Globe,166335,145665,166.34,145.67,4,5017,1005,1299
"Calauan, Laguna, Philippines",14.14551,121.3146,Converge,205840,209862,205.84,209.86,4,4983,1320,2272
"Calamba, Laguna, Philippines",14.19488,121.15974,Globe,168917,142150,168.92,142.15,6,4974,1356,1932
"Meycauayan, Bulacan, Philippines",14.73772,120.96077,PLDT Home Fiber,96232,99844,96.23,99.84,9,4915,997,1364
"Pasay City, Metro Manila, Philippines",14.53767,121.00081,Converge,211040,208084,211.04,208.08,4,4770,1039,1509
"Tarlac City, Tarlac, Philippines",15.48808,120.58719,PLDT Home Fiber,89914,93683,89.91,93.68,10,4766,1191,1706
"Bocaue, Bulacan, Philippines",14.7943,120.93073,PLDT Home Fiber,93972,94258,93.97,94.26,11,4763,870,1251
"Valenzuela, Metro Manila, Philippines",14.69247,120.96991,PLDT,91220,93744,91.22,93.74,6,4753,1185,1684
"Unisan, Quezon, Philippines",13.86351,122.01555,Converge,107150,100719,107.15,100.72,11,4610,835,1317
"Mexico, Pampanga, Philippines",15.06457,120.72033,PLDT Home Fiber,96647,96095,96.65,96.10,8,4594,1085,1687
"Kidapawan, Cotabato, Philippines",7.02127,125.09019,PLDT Home Fiber,95375,99129,95.38,99.13,9,4584,1148,1678
"Mambusao, Capiz, Philippines",11.44257,122.59383,Converge,140118,119655,140.12,119.66,14,4486,913,1830
"Danao, Cebu, Philippines",10.52013,124.02712,PLDT Home Fiber,95498,152987,95.50,152.99,6,4484,1258,1904
"Lapu-Lapu, Cebu, Philippines",10.31838,123.96395,Converge,137778,151216,137.78,151.22,3,4480,768,1123
"Marikina, Metro Manila, Philippines",14.63493,121.10195,PLDT,78814,74748,78.81,74.75,11,4409,1059,1543
"Cabanatuan City, Nueva Ecija, Philippines",15.49943,121.01057,PLDT Home Fiber,95778,98212,95.78,98.21,11,4402,889,1351
"Rodriguez, Rizal, Philippines",14.73202,121.14516,PLDT Home Fiber,115355,147608,115.36,147.61,4,4385,816,1030
"Taytay, Rizal, Philippines",14.55288,121.12571,PLDT,82871,91516,82.87,91.52,5,4369,1166,1760
"Angono, Rizal, Philippines",14.52592,121.15321,Converge,241979,237160,241.98,237.16,3,4348,1123,1696
"Las Piñas, Metro Manila, Philippines",14.44934,120.98186,Globe,190475,144626,190.48,144.63,6,4342,913,1181
"Marilao, Bulacan, Philippines",14.77237,120.96001,Converge,137942,123263,137.94,123.26,7,4326,991,1389
"Banga, South Cotabato, Philippines",6.38791,124.79617,PLDT Home Fiber,73001,72485,73.00,72.49,11,4253,806,1224
"Santo Tomas, Batangas, Philippines",14.08754,121.17764,PLDT Home Fiber,111530,122530,111.53,122.53,9,4227,991,1374
"San Rafael, Bulacan, Philippines",15.00184,120.93141,PLDT Home Fiber,94057,99374,94.06,99.37,6,4221,1083,1617
"SJDM, Bulacan, Philippines",14.82867,121.04324,PLDT Home Fiber,99842,114555,99.84,114.56,6,4160,860,1210
"Matalam, Cotabato, Philippines",7.17236,124.92861,PLDT Home Fiber,95306,95371,95.31,95.37,9,4138,1092,1659
"President Roxas, Cotabato, Philippines",7.37928,125.06084,PLDT Home Fiber,101113,98521,101.11,98.52,8,4101,1145,1604
"San Fernando, Pampanga, Philippines",15.02781,120.69349,PLDT,76292,78558,76.29,78.56,11,4043,1188,1779
"Santa Cruz, Davao del Sur, Philippines",6.83551,125.41659,Converge,133387,125873,133.39,125.87,4,4032,1072,1630
"Dagupan City, Pangasinan, Philippines",16.03375,120.33202,Converge,93917,94747,93.92,94.75,6,3991,868,1256
"Mabalacat City, Pampanga, Philippines",15.24525,120.56567,Converge,103987,104642,103.99,104.64,3,3925,930,1246
"San Nicolas, Pangasinan, Philippines",16.12066,120.78097,PLDT Home Fiber,93720,95452,93.72,95.45,5,3890,1049,1659
"Navotas, Metro Manila, Philippines",14.65819,120.94743,Globe,164698,134634,164.70,134.63,5,3890,1146,1771
"Talaingod, Davao del Norte, Philippines",7.68339,125.522,Globe,63714,55985,63.71,55.99,5,3883,1219,1854
"General Santos City (Dadiangas), South Cotabato, Philippines",6.14327,125.19286,Globe,105080,106521,105.08,106.52,15,3872,416,560
"Carmen, Cebu, Philippines",10.58876,123.96385,PLDT Home Fiber,97578,178974,97.58,178.97,5,3856,1082,1665
"Alicia, Isabela, Philippines",16.80691,121.69674,Converge,100725,113902,100.73,113.90,8,3815,728,1337
"Bansalan, Davao del Sur, Philippines",6.84825,125.22584,Globe,62023,82420,62.02,82.42,8,3792,1176,1887
"Santa Barbara, Pangasinan, Philippines",15.9774,120.42424,Converge,96097,104173,96.10,104.17,6,3781,950,1602
"Iriga City, Camarines Sur, Philippines",13.42095,123.41361,Converge,100473,96370,100.47,96.37,4,3776,950,1793
"Malolos, Bulacan, Philippines",14.86049,120.80916,PLDT,74552,78868,74.55,78.87,8,3717,885,1357
"Obando, Bulacan, Philippines",14.70986,120.93674,PLDT Home Fiber,93928,126323,93.93,126.32,6,3712,906,1225
"Tanza, Cavite, Philippines",14.34293,120.85032,PLDT Home Fiber,122556,159096,122.56,159.10,5,3696,652,848
"Nagcarlan, Laguna, Philippines",14.14903,121.38847,PLDT Home Fiber,107053,156907,107.05,156.91,8,3694,843,1367
"Mandaue, Cebu, Philippines",10.3279,123.94273,PLDT Home Fiber,110050,149452,110.05,149.45,3,3684,699,905
"Talavera, Nueva Ecija, Philippines",15.58575,120.9197,Converge,111875,110251,111.88,110.25,5,3608,808,1433
"Cadiz City, Negros Occidental, Philippines",10.86192,123.23632,PLDT Home Fiber,87366,91273,87.37,91.27,12,3604,849,1403
"Talisay, Negros Occidental, Philippines",10.74828,122.98012,Globe,123108,109054,123.11,109.05,13,3602,938,1375
"Angono, Rizal, Philippines",14.52592,121.15321,PLDT Home Fiber,100475,117781,100.48,117.78,4,3586,577,798
"San Antonio, Nueva Ecija, Philippines",15.31921,120.82692,Globe,206927,191101,206.93,191.10,5,3549,976,1576
"Panglao, Bohol, Philippines",9.56947,123.78721,Converge,74912,60815,74.91,60.82,26,3532,215,314
"Subic Bay Freeport Zone, Philippines",14.80319,120.30033,PLDT,72033,71414,72.03,71.41,12,3505,867,1285
"Lapu-Lapu, Cebu, Philippines",10.31838,123.96395,Globe,124918,120398,124.92,120.40,5,3490,656,860
"San Antonio, Nueva Ecija, Philippines",15.31921,120.82692,PLDT Home Fiber,94489,95539,94.49,95.54,9,3485,878,1365
"Angono, Rizal, Philippines",14.52592,121.15321,PLDT,99826,140639,99.83,140.64,3,3458,1009,1523
"Diadi, Nueva Vizcaya, Philippines",16.6595,121.33129,Converge,98408,100440,98.41,100.44,9,3456,689,1361
"Concepcion, Tarlac, Philippines",15.324,120.65596,PLDT Home Fiber,92519,94156,92.52,94.16,10,3437,781,1160
"Lapu-Lapu, Cebu, Philippines",10.31838,123.96395,PLDT Home Fiber,114007,165269,114.01,165.27,3,3392,670,854
"Lipa City, Batangas, Philippines",13.94047,121.19395,Converge,149329,143099,149.33,143.10,7,3374,748,1205
"Llanera, Nueva Ecija, Philippines",15.66623,121.01057,Converge,103608,108347,103.61,108.35,6,3372,768,1438
"Rosario, Batangas, Philippines",13.80433,121.28552,Globe,131472,107991,131.47,107.99,8,3347,985,1416
"Minalin, Pampanga, Philippines",14.97052,120.68518,PLDT Home Fiber,98472,97932,98.47,97.93,7,3319,871,1403
"Santa Rita, Pampanga, Philippines",14.99762,120.61451,PLDT Home Fiber,105315,100752,105.32,100.75,7,3262,791,1239
"Angeles, Pampanga, Philippines",15.16061,120.60908,PLDT,69363,71113,69.36,71.11,10,3256,925,1456
"Naga City, Camarines Sur, Philippines",13.6475,123.27003,PLDT Home Fiber,100297,112007,100.30,112.01,8,3223,640,855
"Silang, Cavite, Philippines",14.22025,120.96469,PLDT,96826,100926,96.83,100.93,7,3182,762,1135
"Imus, Cavite, Philippines",14.42764,120.93724,Globe,134292,109907,134.29,109.91,5,3181,852,1169
"Zamboanga City, Zamboanga del Sur, Philippines",6.90437,122.07612,Globe,96581,61695,96.58,61.70,14,3156,458,625
"Mauban, Quezon, Philippines",14.23756,121.69674,Converge,136373,153275,136.37,153.28,12,3156,607,1114
"Compostela, Cebu, Philippines",10.45408,124.013,Globe,64028,56734,64.03,56.73,6,3155,917,1464
"La Carlota City, Negros Occidental, Philippines",10.41437,122.97757,Converge,185895,153441,185.90,153.44,16,3155,878,1562
"San Mateo, Rizal, Philippines",14.69539,121.11767,Converge,152388,146898,152.39,146.90,4,3131,703,893
"Malasiqui, Pangasinan, Philippines",15.92028,120.41443,PLDT Home Fiber,95692,135890,95.69,135.89,9,3115,607,949
"Batangas City, Batangas, Philippines",13.75641,121.05833,PLDT,87942,89590,87.94,89.59,8,3091,738,1127
"San Pedro, Laguna, Philippines",14.36443,121.06192,Converge,182616,163045,182.62,163.05,5,3081,687,1166
"Rosario, Cavite, Philippines",14.41672,120.85471,Converge,148871,150822,148.87,150.82,6,3077,776,1254
"Dagupan City, Pangasinan, Philippines",16.03375,120.33202,PLDT Home Fiber,92545,95573,92.55,95.57,6,3068,738,1116
"Quezon, Nueva Ecija, Philippines",15.56953,120.82692,Globe,198177,176826,198.18,176.83,6,3056,781,1313
"Manaoag, Pangasinan, Philippines",16.04627,120.4876,Converge,103571,106998,103.57,107.00,5,3051,796,1302
"Mandaue, Cebu, Philippines",10.3279,123.94273,Globe,155929,126814,155.93,126.81,5,3040,538,676
"City of Santa Rosa, Laguna, Philippines",14.31471,121.11232,PLDT,81217,79210,81.22,79.21,8,3029,750,1099
"Arayat, Pampanga, Philippines",15.15443,120.771,Globe,120133,107087,120.13,107.09,5,3002,770,1208
"San Manuel, Pangasinan, Philippines",16.10561,120.67751,PLDT Home Fiber,96140,103718,96.14,103.72,7,3002,693,1119
"Toledo, Cebu, Philippines",10.38705,123.65017,Globe,175120,149785,175.12,149.79,16,2985,952,1292
"San Ildefonso, Bulacan, Philippines",15.07717,120.94171,PLDT Home Fiber,95259,96023,95.26,96.02,7,2976,743,1132
"San Juan, Batangas, Philippines",13.75044,121.37703,PLDT Home Fiber,93546,102426,93.55,102.43,7,2945,648,1000
"Bay, Laguna, Philippines",14.14064,121.26836,PLDT Home Fiber,102635,116683,102.64,116.68,4,2926,722,1103
"General Trias, Cavite, Philippines",14.38159,120.87915,PLDT,108802,138299,108.80,138.30,8,2912,527,661
"Malvar, Batangas, Philippines",14.04329,121.15875,PLDT Home Fiber,100750,103313,100.75,103.31,9,2900,644,979
"Candelaria, Quezon, Philippines",13.94899,121.42276,PLDT Home Fiber,92841,97473,92.84,97.47,6,2897,693,1055
"Bago, Negros Occidental, Philippines",10.53757,122.83609,Globe,136306,117475,136.31,117.48,4,2889,769,1144
"Cabuyao City, Laguna, Philippines",14.27433,121.11961,PLDT,93118,94759,93.12,94.76,9,2855,654,958
"Lapu-Lapu, Cebu, Philippines",10.31838,123.96395,PLDT,81324,88294,81.32,88.29,3,2841,627,910
"Kibungan, Benguet, Philippines",16.68162,120.68901,PLDT Home Fiber,93418,95959,93.42,95.96,6,2840,764,1180
"Tuguegarao City, Cagayan, Philippines",17.60306,121.75374,PLDT,81819,79354,81.82,79.35,13,2825,661,925
"Koronadal, South Cotabato, Philippines",6.50044,124.84333,PLDT Home Fiber,94774,91950,94.77,91.95,10,2798,425,541
"Polomolok, South Cotabato, Philippines",6.22451,125.06084,PLDT Home Fiber,87395,91492,87.40,91.49,10,2790,472,670
"San Manuel, Pangasinan, Philippines",16.10561,120.67751,PLDT,95543,96925,95.54,96.93,6,2774,755,1212
"Subic, Zambales, Philippines",14.83066,120.18202,Converge,107213,105644,107.21,105.64,5,2763,793,1282
"La Trinidad, Benguet, Philippines",16.44844,120.59047,PLDT Home Fiber,92316,95769,92.32,95.77,8,2718,576,842
"Cabiao, Nueva Ecija, Philippines",15.25221,120.85957,PLDT Home Fiber,96578,97246,96.58,97.25,9,2705,676,1185
"Liloan, Cebu, Philippines",10.39926,124.00002,Globe,134087,119570,134.09,119.57,6,2687,567,844
"Tagaytay City, Cavite, Philippines",14.11541,120.96202,PLDT,87733,92608,87.73,92.61,9,2620,689,1042
"San Pedro, Laguna, Philippines",14.36443,121.06192,PLDT,105266,110231,105.27,110.23,7,2617,562,742
"Baliwag, Bulacan, Philippines",14.96569,120.89431,PLDT Home Fiber,98265,108715,98.27,108.72,8,2591,608,915
"Rodriguez, Rizal, Philippines",14.73202,121.14516,Converge,163038,159127,163.04,159.13,4,2590,581,717
"Mandaue, Cebu, Philippines",10.3279,123.94273,Converge,154119,141310,154.12,141.31,3,2513,568,841
"San Simon, Pampanga, Philippines",14.98432,120.75127,PLDT Home Fiber,92435,94543,92.44,94.54,9,2510,533,854
"Imus, Cavite, Philippines",14.42764,120.93724,PLDT,100930,107860,100.93,107.86,7,2482,562,745
"City of Tayabas, Quezon, Philippines",14.01135,121.55983,PLDT Home Fiber,98696,123601,98.70,123.60,7,2471,562,879
"Lucena City, Quezon, Philippines",13.94139,121.62345,Converge,106502,102889,106.50,102.89,10,2456,429,697
"Umingan, Pangasinan, Philippines",15.90396,120.82692,Globe,60610,53356,60.61,53.36,6,2453,545,1252
"Cabanatuan City, Nueva Ecija, Philippines",15.49943,121.01057,PLDT,79424,77019,79.42,77.02,11,2440,545,833
"Calatrava, Negros Occidental, Philippines",10.62843,123.39349,PLDT,93529,111048,93.53,111.05,7,2416,641,992
"Navotas, Metro Manila, Philippines",14.65819,120.94743,PLDT,88330,90123,88.33,90.12,6,2408,610,914
"Tuburan, Cebu, Philippines",10.66879,123.86345,Globe,118050,105152,118.05,105.15,19,2404,671,929
"Porac, Pampanga, Philippines",15.06974,120.55007,PLDT Home Fiber,96927,99381,96.93,99.38,7,2403,498,734
"Magsaysay, Davao del Sur, Philippines",6.75271,125.15221,PLDT Home Fiber,99894,96319,99.89,96.32,9,2377,664,1033
"San Jose City, Nueva Ecija, Philippines",15.79188,120.99008,Converge,104690,105970,104.69,105.97,5,2359,466,652
"Candaba, Pampanga, Philippines",15.09289,120.8277,Globe,135228,117259,135.23,117.26,6,2356,565,865
"Lipa City, Batangas, Philippines",13.94047,121.19395,Globe,143152,113590,143.15,113.59,7,2327,631,854
"Tacloban City, Leyte, Philippines",11.22238,124.99221,PLDT,83144,85470,83.14,85.47,14,2320,486,688
"Talisay, Cebu, Philippines",10.25859,123.82413,PLDT Home Fiber,121115,142269,121.12,142.27,3,2296,356,466
"Cardona, Rizal, Philippines",14.48493,121.232,PLDT,105239,147035,105.24,147.04,3,2288,648,1074
"Tuguegarao City, Cagayan, Philippines",17.60306,121.75374,Converge,61751,55160,61.75,55.16,13,2271,418,629
"Orani, Bataan, Philippines",14.80086,120.53616,Converge,95488,99209,95.49,99.21,6,2248,601,903
"Lucena City, Quezon, Philippines",13.94139,121.62345,PLDT,89106,95805,89.11,95.81,6,2246,521,817
"Lucban, Quezon, Philippines",14.1144,121.55472,PLDT Home Fiber,101093,140956,101.09,140.96,7,2243,481,779
"Danao, Cebu, Philippines",10.52013,124.02712,PLDT,49837,55582,49.84,55.58,7,2240,277,349
"Tuba, Benguet, Philippines",16.39277,120.56034,PLDT Home Fiber,94861,95207,94.86,95.21,7,2230,578,946
"Balamban, Cebu, Philippines",10.48585,123.77412,Globe,123875,107004,123.88,107.00,7,2221,621,1011
"Bulakan, Bulacan, Philippines",14.79484,120.87889,PLDT,86143,92952,86.14,92.95,5,2194,611,972
"Cuyapo, Nueva Ecija, Philippines",15.79995,120.68901,Globe,60796,53351,60.80,53.35,6,2168,465,1038
"San Jose City, Nueva Ecija, Philippines",15.79188,120.99008,PLDT Home Fiber,87100,84362,87.10,84.36,13,2166,286,410
"San Antonio, Nueva Ecija, Philippines",15.31921,120.82692,Converge,142616,154794,142.62,154.79,4,2163,588,935
"Kapangan, Benguet, Philippines",16.61238,120.59698,PLDT Home Fiber,93614,96727,93.61,96.73,6,2154,605,970
"San Jose City, Nueva Ecija, Philippines",15.79188,120.99008,PLDT,69816,70907,69.82,70.91,13,2146,355,514
"Minglanilla, Cebu, Philippines",10.24543,123.79599,Converge,237322,226433,237.32,226.43,4,2117,635,943
"Bansalan, Davao del Sur, Philippines",6.84825,125.22584,PLDT Home Fiber,104558,96106,104.56,96.11,9,2112,648,1003
"Tagum, Davao del Norte, Philippines",7.44742,125.80246,PLDT Home Fiber,95101,98385,95.10,98.39,8,2106,510,709
"Old Kaabakan, Philippines",7.22147,124.85635,PLDT Home Fiber,98842,99230,98.84,99.23,8,2099,625,910
"Daet, Camarines Norte, Philippines",14.10303,122.9325,PLDT,79040,88786,79.04,88.79,7,2095,285,390
"Puerto Princesa City, Palawan, Philippines",9.78563,118.62648,PLDT Home Fiber,87511,95645,87.51,95.65,21,2094,363,508
"Malabon, Metro Manila, Philippines",14.65793,120.95118,PLDT,91100,93361,91.10,93.36,5,2086,507,766
"General Santos City (Dadiangas), South Cotabato, Philippines",6.14327,125.19286,PLDT,65687,67533,65.69,67.53,10,2077,451,659
"Talisay, Cebu, Philippines",10.25859,123.82413,Globe,136952,123542,136.95,123.54,8,2074,390,489
"Mandaue, Cebu, Philippines",10.3279,123.94273,PLDT,74840,73665,74.84,73.67,4,2046,430,673
"Consolacion, Cebu, Philippines",10.37581,123.95694,Globe,114184,107898,114.18,107.90,5,2042,401,540
"City of Guihulngan, Negros Oriental, Philippines",10.18323,123.21385,PLDT Home Fiber,87528,90819,87.53,90.82,11,2033,449,694
"Valladolid, Negros Occidental, Philippines",10.46898,122.8423,PLDT Home Fiber,90260,93724,90.26,93.72,15,2029,448,724
"Talisay, Cebu, Philippines",10.25859,123.82413,PLDT,112637,138408,112.64,138.41,3,2023,424,525
"Baguio, Benguet, Philippines",16.41297,120.5914,Globe,110482,96390,110.48,96.39,6,2021,462,618
"San Juan City, Metro Manila, Philippines",14.60196,121.0355,Globe,230053,191654,230.05,191.65,5,2017,538,825
"Muntinlupa, Metro Manila, Philippines",14.39453,121.04483,Globe,194095,178952,194.10,178.95,6,2011,481,608
"President Roxas, Cotabato, Philippines",7.37928,125.06084,PLDT,97138,97521,97.14,97.52,9,1999,563,802
"Guiguinto, Bulacan, Philippines",14.82832,120.88429,PLDT Home Fiber,116719,112476,116.72,112.48,8,1998,506,717
"Sagay City, Negros Occidental, Philippines",10.84555,123.37106,PLDT Home Fiber,79466,92376,79.47,92.38,12,1985,383,602
"Tanza, Cavite, Philippines",14.34293,120.85032,Converge,152836,146887,152.84,146.89,6,1977,382,621
"Bokod, Benguet, Philippines",16.45641,120.78097,PLDT Home Fiber,98214,99596,98.21,99.60,5,1976,559,906
"Silang, Cavite, Philippines",14.22025,120.96469,Converge,125658,121573,125.66,121.57,6,1973,374,553
"Iligan City, Lanao del Norte, Philippines",8.22707,124.46418,Globe,110040,56685,110.04,56.69,14,1968,293,370
"Naic, Cavite, Philippines",14.29649,120.79246,PLDT,84690,88583,84.69,88.58,8,1954,493,699
"Silay, Negros Occidental, Philippines",10.79968,122.97605,PLDT Home Fiber,91557,95995,91.56,96.00,13,1950,459,750
"Vallehermoso, Negros Oriental, Philippines",10.33905,123.29249,PLDT Home Fiber,96169,108834,96.17,108.83,10,1946,529,822
"Tacurong City, Sultan Kudarat, Philippines",6.6866,124.66353,PLDT Home Fiber,84124,87910,84.12,87.91,11,1942,394,530
"Asturias, Cebu, Philippines",10.60209,123.77412,Globe,123820,106347,123.82,106.35,8,1936,548,820
"Talisay, Negros Occidental, Philippines",10.74828,122.98012,PLDT Home Fiber,88920,95304,88.92,95.30,13,1934,410,596
"La Paz, Tarlac, Philippines",15.4497,120.7235,PLDT Home Fiber,94216,95113,94.22,95.11,9,1923,444,686
"Roxas City, Capiz, Philippines",11.55288,122.74072,PLDT Home Fiber,78492,93726,78.49,93.73,12,1904,332,471
"Santa Maria, Bulacan, Philippines",14.82898,120.97616,Globe,142786,127015,142.79,127.02,8,1895,304,391
"Daet, Camarines Norte, Philippines",14.10303,122.9325,Converge,109252,110433,109.25,110.43,5,1885,224,348
"Naga City, Camarines Sur, Philippines",13.6475,123.27003,Globe,117149,105557,117.15,105.56,12,1882,332,450
"Apalit, Pampanga, Philippines",14.95255,120.76688,PLDT Home Fiber,99948,108458,99.95,108.46,7,1881,452,676
"Marilao, Bulacan, Philippines",14.77237,120.96001,PLDT,55479,55267,55.48,55.27,15,1880,504,739
"San Fernando City, La Union, Philippines",16.61592,120.32102,PLDT Home Fiber,94800,97744,94.80,97.74,3,1875,305,420
"Tagbilaran City, Bohol, Philippines",9.6534,123.86703,PLDT Home Fiber,103281,122324,103.28,122.32,10,1861,278,356
"Antipas, Cotabato, Philippines",7.27386,125.01679,PLDT Home Fiber,98300,98373,98.30,98.37,9,1859,617,859
"Naga City, Camarines Sur, Philippines",13.6475,123.27003,PLDT,70618,64349,70.62,64.35,15,1856,407,658
"Toboso, Negros Occidental, Philippines",10.71769,123.46077,PLDT Home Fiber,86482,93941,86.48,93.94,11,1855,457,766
"Virac, Catanduanes, Philippines",13.61939,124.17544,PLDT Home Fiber,77254,85126,77.25,85.13,11,1840,211,294
"Biñan, Laguna, Philippines",14.31456,121.08316,Converge,163868,150905,163.87,150.91,6,1831,463,763
"Magpet, Cotabato, Philippines",7.1332,125.17087,Globe,77935,96773,77.94,96.77,5,1821,653,935
"Malabon, Metro Manila, Philippines",14.65793,120.95118,Globe,182847,167869,182.85,167.87,5,1813,314,407
"Lambunao, Iloilo, Philippines",11.12265,122.37876,PLDT,59538,54776,59.54,54.78,11,1812,491,733
"Calumpit, Bulacan, Philippines",14.91518,120.7662,PLDT Home Fiber,96981,104545,96.98,104.55,8,1795,405,572
"Palo, Leyte, Philippines",11.15847,124.99191,PLDT,65343,76249,65.34,76.25,19,1793,258,376
"Calauan, Laguna, Philippines",14.14551,121.3146,PLDT Home Fiber,99630,146836,99.63,146.84,8,1789,398,625
"Santo Tomas, Davao del Norte, Philippines",7.50929,125.63142,PLDT Home Fiber,73670,62076,73.67,62.08,8,1785,312,463
"Calatrava, Negros Occidental, Philippines",10.62843,123.39349,PLDT Home Fiber,70184,86660,70.18,86.66,13,1777,388,595
"Balagtas, Bulacan, Philippines",14.81784,120.90646,PLDT Home Fiber,96332,97496,96.33,97.50,7,1776,501,692
"Binangonan, Rizal, Philippines",14.48441,121.1869,PLDT Home Fiber,106650,132157,106.65,132.16,4,1772,422,584
"Meycauayan, Bulacan, Philippines",14.73772,120.96077,PLDT,59660,66197,59.66,66.20,12,1771,433,624
"San Pablo City, Laguna, Philippines",14.06422,121.32326,PLDT,96572,108310,96.57,108.31,8,1770,393,581
"City of Santa Rosa, Laguna, Philippines",14.31471,121.11232,Converge,154216,153588,154.22,153.59,6,1766,372,571
"Sablan, Benguet, Philippines",16.49609,120.48794,Converge,98930,104240,98.93,104.24,4,1760,505,802
"Santo Tomas, Batangas, Philippines",14.08754,121.17764,PLDT,94122,95898,94.12,95.90,8,1759,486,715
"Naic, Cavite, Philippines",14.29649,120.79246,PLDT Home Fiber,107187,128335,107.19,128.34,7,1759,257,328
"SJDM, Bulacan, Philippines",14.82867,121.04324,Globe,128525,112638,128.53,112.64,8,1756,325,415
"Talisay, Negros Occidental, Philippines",10.74828,122.98012,PLDT,60057,57445,60.06,57.45,17,1749,370,561
"Dumaguete City, Negros Oriental, Philippines",9.29841,123.29249,PLDT,76061,76910,76.06,76.91,11,1749,285,419
"Silang, Cavite, Philippines",14.22025,120.96469,Globe,98275,89074,98.28,89.07,6,1745,399,684
"Tagum, Davao del Norte, Philippines",7.44742,125.80246,Globe,119183,114242,119.18,114.24,5,1744,252,318
"Pinamungahan, Cebu, Philippines",10.26958,123.63996,Globe,147042,135365,147.04,135.37,17,1741,623,838
"Dumaguete City, Negros Oriental, Philippines",9.29841,123.29249,PLDT Home Fiber,114474,167236,114.47,167.24,10,1736,265,333
"Dipolog City, Zamboanga del Norte, Philippines",8.58717,123.34035,PLDT Home Fiber,94655,97533,94.66,97.53,11,1736,297,407
"Kayapa, Nueva Vizcaya, Philippines",16.49326,120.94174,PLDT Home Fiber,97884,101691,97.88,101.69,6,1724,360,639
"Nasugbu, Batangas, Philippines",14.09404,120.68901,PLDT,88083,95368,88.08,95.37,8,1702,426,658
"Cadiz City, Negros Occidental, Philippines",10.86192,123.23632,PLDT,54615,63091,54.62,63.09,10,1700,401,603
"Salvador Benedicto, Negros Occidental, Philippines",10.5887,123.23632,PLDT Home Fiber,94697,105363,94.70,105.36,9,1690,491,762
"Talisay, Cebu, Philippines",10.25859,123.82413,Converge,197467,189280,197.47,189.28,5,1681,296,442
"Porac, Pampanga, Philippines",15.06974,120.55007,Converge,98924,99111,98.92,99.11,3,1680,415,553
"Consolacion, Cebu, Philippines",10.37581,123.95694,PLDT,93509,101625,93.51,101.63,5,1679,378,483
"Santa Fe, Nueva Vizcaya, Philippines",16.18249,120.91878,PLDT Home Fiber,97731,103920,97.73,103.92,6,1662,457,747
"Morong, Rizal, Philippines",14.51286,121.23855,PLDT Home Fiber,97291,103965,97.29,103.97,4,1655,433,704
"Vintar, Ilocos Norte, Philippines",18.31413,120.78097,Converge,98982,104987,98.98,104.99,11,1654,401,689
"Pili, Camarines Sur, Philippines",13.55521,123.28126,PLDT Home Fiber,86247,105811,86.25,105.81,9,1642,186,255
"Santa Maria, Bulacan, Philippines",14.82898,120.97616,PLDT,58066,62100,58.07,62.10,14,1635,392,572
"Lubao, Pampanga, Philippines",14.92678,120.58795,Converge,55221,59246,55.22,59.25,4,1635,408,627
"Santo Nino, Cagayan, Philippines",17.91267,121.49132,Converge,98650,97937,98.65,97.94,13,1627,385,656
"Meycauayan, Bulacan, Philippines",14.73772,120.96077,Converge,166295,143554,166.30,143.55,7,1624,329,464
"Dumanjug, Cebu, Philippines",10.02819,123.47198,PLDT Home Fiber,95806,142649,95.81,142.65,7,1621,392,596
"Obando, Bulacan, Philippines",14.70986,120.93674,PLDT,90402,95279,90.40,95.28,5,1615,470,689
"Biñan, Laguna, Philippines",14.31456,121.08316,Globe,150162,114850,150.16,114.85,7,1608,376,534
"Dolores, Quezon, Philippines",14.00193,121.41133,Converge,163884,176681,163.88,176.68,4,1603,490,772
"Tanauan City, Batangas, Philippines",14.08354,121.14762,Globe,165834,142455,165.83,142.46,6,1601,465,638
"Urdaneta City, Pangasinan, Philippines",15.98194,120.59698,PLDT Home Fiber,85738,92557,85.74,92.56,7,1601,343,511
"Cabiao, Nueva Ecija, Philippines",15.25221,120.85957,Converge,137145,175443,137.15,175.44,4,1594,469,814
"Tuguegarao City, Cagayan, Philippines",17.60306,121.75374,PLDT Home Fiber,74351,74382,74.35,74.38,13,1591,330,457
"La Carlota City, Negros Occidental, Philippines",10.41437,122.97757,PLDT Home Fiber,96525,134982,96.53,134.98,11,1590,440,715
"Sindangan, Zamboanga del Norte, Philippines",8.19151,123.05639,PLDT Home Fiber,64763,63167,64.76,63.17,12,1585,117,149
"Marilao, Bulacan, Philippines",14.77237,120.96001,Globe,207717,205059,207.72,205.06,8,1574,306,384
"Santiago, Isabela, Philippines",16.69679,121.55865,PLDT Home Fiber,84693,79125,84.69,79.13,14,1570,285,374
"Surigao, Surigao del Norte, Philippines",9.79022,125.49311,PLDT Home Fiber,78439,83530,78.44,83.53,11,1565,276,342
"Legazpi City, Albay, Philippines",13.11288,123.76295,PLDT,93759,114622,93.76,114.62,7,1546,316,437
"Taal, Batangas, Philippines",13.87826,120.92508,Globe,236287,198999,236.29,199.00,5,1534,463,650
"Cagayan De Oro City, Misamis Oriental, Philippines",8.48029,124.64975,PLDT,60913,55286,60.91,55.29,9,1527,332,501
"Santa Fe, Nueva Vizcaya, Philippines",16.18249,120.91878,PLDT,82294,92131,82.29,92.13,6,1523,309,558
"Dumaguete City, Negros Oriental, Philippines",9.29841,123.29249,Globe,118789,105359,118.79,105.36,11,1521,290,392
"San Miguel, Bulacan, Philippines",15.14158,120.9751,PLDT Home Fiber,93343,94227,93.34,94.23,10,1502,345,553
"Mabalacat City, Pampanga, Philippines",15.24525,120.56567,PLDT Home Fiber,117052,122192,117.05,122.19,7,1494,351,477
"Sariaya, Quezon, Philippines",13.96301,121.52388,PLDT Home Fiber,91941,98846,91.94,98.85,5,1493,370,540
"Pulilan, Bulacan, Philippines",14.90243,120.8459,PLDT Home Fiber,92520,94887,92.52,94.89,8,1481,388,565
"Cotabato City, Maguindanao, Philippines",7.20467,124.23104,PLDT Home Fiber,98610,117197,98.61,117.20,12,1476,280,394
"Pavia, Iloilo, Philippines",10.7748,122.54261,PLDT,82643,81202,82.64,81.20,14,1476,358,466
"Baliwag, Bulacan, Philippines",14.96569,120.89431,PLDT,78623,79303,78.62,79.30,6,1473,315,466
"Ormoc City, Leyte, Philippines",11.03843,124.61927,Globe,105043,94352,105.04,94.35,19,1470,238,313
"Trece Martires City, Cavite, Philippines",14.28222,120.86837,PLDT Home Fiber,118612,183634,118.61,183.63,4,1463,280,382
"Infanta, Quezon, Philippines",14.74071,121.6451,PLDT,52171,56359,52.17,56.36,12,1456,341,477
"Taytay, Rizal, Philippines",14.55288,121.12571,Globe,214052,171049,214.05,171.05,5,1455,314,403
"Natividad, Pangasinan, Philippines",16.03821,120.83841,PLDT Home Fiber,95154,99918,95.15,99.92,7,1455,350,526
"Taysan, Batangas, Philippines",13.76108,121.2283,Globe,135715,118814,135.72,118.81,8,1448,500,705
"Pagbilao, Quezon, Philippines",13.99683,121.73095,PLDT Home Fiber,93581,102179,93.58,102.18,8,1446,325,526
"Concepcion, Tarlac, Philippines",15.324,120.65596,PLDT,64450,57223,64.45,57.22,10,1446,359,503
"Surallah, South Cotabato, Philippines",6.3195,124.75198,PLDT Home Fiber,63241,67349,63.24,67.35,11,1441,232,332
"Plaridel, Bulacan, Philippines",14.88591,120.85932,PLDT Home Fiber,92222,96386,92.22,96.39,8,1441,342,518
"San Quintin, Pangasinan, Philippines",15.9754,120.83841,PLDT Home Fiber,94937,97045,94.94,97.05,6,1436,319,480
"Gapan City, Nueva Ecija, Philippines",15.29121,121.01057,PLDT Home Fiber,93378,93093,93.38,93.09,12,1433,326,489
"Santa Barbara, Pangasinan, Philippines",15.9774,120.42424,PLDT Home Fiber,92753,95108,92.75,95.11,6,1428,356,558
"Malolos, Bulacan, Philippines",14.86049,120.80916,Converge,108633,107331,108.63,107.33,6,1427,379,538
"Muñoz, Nueva Ecija, Philippines",15.70664,120.9029,PLDT Home Fiber,93842,95419,93.84,95.42,12,1425,337,468
"General Santos City (Dadiangas), South Cotabato, Philippines",6.14327,125.19286,Converge,101137,109990,101.14,109.99,5,1421,285,363
"Palayan City, Nueva Ecija, Philippines",15.53906,121.09083,Converge,99178,99738,99.18,99.74,7,1420,322,507
"San Isidro, Nueva Ecija, Philippines",15.29656,120.9073,PLDT Home Fiber,92431,94330,92.43,94.33,10,1420,322,553
"Cabiao, Nueva Ecija, Philippines",15.25221,120.85957,Globe,142409,130500,142.41,130.50,5,1419,272,413
"Bayombong, Nueva Vizcaya, Philippines",16.48042,121.14813,PLDT Home Fiber,77489,86408,77.49,86.41,8,1418,276,436
"Carmona, Cavite, Philippines",14.3135,121.05712,Converge,184006,201236,184.01,201.24,6,1413,254,398
"Malaybalay City, Bukidnon, Philippines",8.15775,125.17087,PLDT Home Fiber,93072,117736,93.07,117.74,10,1411,290,439
"Matalam, Cotabato, Philippines",7.17236,124.92861,PLDT,99908,97890,99.91,97.89,9,1395,516,686
"Tagaytay City, Cavite, Philippines",14.11541,120.96202,Globe,67799,63820,67.80,63.82,6,1394,378,636
"Angeles, Pampanga, Philippines",15.16061,120.60908,Globe,119766,106736,119.77,106.74,5,1388,301,400
"General Mariano Alvarez, Cavite, Philippines",14.29525,121.0071,PLDT,107937,152814,107.94,152.81,7,1385,209,253
"Escalante City, Negros Occidental, Philippines",10.84117,123.49908,PLDT Home Fiber,87316,93862,87.32,93.86,12,1382,361,566
"General Tinio (Papaya), Nueva Ecija, Philippines",15.36345,121.21685,PLDT,45798,28802,45.80,28.80,11,1379,189,275
"Silay, Negros Occidental, Philippines",10.79968,122.97605,PLDT,89982,93741,89.98,93.74,24,1379,314,454
"Pasay City, Metro Manila, Philippines",14.53767,121.00081,Globe,117489,103388,117.49,103.39,4,1379,367,538
"Himamaylan, Negros Occidental, Philippines",10.10162,122.86995,PLDT Home Fiber,75196,98228,75.20,98.23,12,1365,79,114
"Capas, Tarlac, Philippines",15.34633,120.59344,PLDT,74531,71855,74.53,71.86,7,1364,223,320
"Rosario, Batangas, Philippines",13.80433,121.28552,PLDT Home Fiber,98280,108595,98.28,108.60,6,1360,292,387
"Legazpi City, Albay, Philippines",13.11288,123.76295,Converge,90415,91021,90.42,91.02,5,1359,265,398
"Santo Tomas, Pampanga, Philippines",14.99601,120.70407,PLDT Home Fiber,98701,94902,98.70,94.90,7,1358,404,627
"Plaridel, Bulacan, Philippines",14.88591,120.85932,PLDT,88129,93459,88.13,93.46,5,1357,334,474
"Santa Rosa, Nueva Ecija, Philippines",15.42502,120.93838,PLDT Home Fiber,93853,92813,93.85,92.81,11,1352,278,422
"Laoag City, Ilocos Norte, Philippines",18.21075,120.58547,Converge,119219,144855,119.22,144.86,11,1350,385,598
"Roxas City, Capiz, Philippines",11.55288,122.74072,Globe,89852,81985,89.85,81.99,13,1342,159,249
"Lobo, Batangas, Philippines",13.6877,121.23974,Globe,125230,103827,125.23,103.83,8,1337,420,616
"Meycauayan, Bulacan, Philippines",14.73772,120.96077,Globe,168155,143712,168.16,143.71,8,1330,310,406
"Calatrava, Negros Occidental, Philippines",10.62843,123.39349,Globe,19359,6994,19.36,6.99,38,1327,359,766
"Aguinaldo, Ifugao, Philippines",16.95291,121.33129,PLDT Home Fiber,87213,92702,87.21,92.70,12,1314,285,570
"Liliw, Laguna, Philippines",14.12617,121.4399,PLDT Home Fiber,116313,152136,116.31,152.14,8,1305,293,470
"Datu Montawal (Pagagawan), Maguindanao, Philippines",7.10469,124.76303,PLDT Home Fiber,91370,93493,91.37,93.49,11,1303,272,419
"Digos, Davao del Sur, Philippines",6.74347,125.35515,Globe,114782,110831,114.78,110.83,4,1300,121,164
"Daraga, Albay, Philippines",13.12278,123.69588,Globe,122730,111694,122.73,111.69,23,1299,115,145
"Mariveles, Bataan, Philippines",14.4354,120.49003,Converge,111880,103082,111.88,103.08,8,1289,225,309
"Suyo, Ilocos Sur, Philippines",16.96582,120.56245,Converge,91418,104782,91.42,104.78,9,1288,160,236
"Minglanilla, Cebu, Philippines",10.24543,123.79599,PLDT,95920,98982,95.92,98.98,4,1277,330,450
"Toledo, Cebu, Philippines",10.38705,123.65017,PLDT,31567,26827,31.57,26.83,7,1275,142,199
"Balanga City, Bataan, Philippines",14.67454,120.47033,PLDT Home Fiber,95221,113560,95.22,113.56,7,1268,289,390
"Santa Ana, Pampanga, Philippines",15.09442,120.76623,PLDT Home Fiber,93617,94359,93.62,94.36,8,1267,310,468
"Bayambang, Pangasinan, Philippines",15.80947,120.45714,PLDT Home Fiber,94289,105121,94.29,105.12,12,1265,216,330
"Catmon, Cebu, Philippines",10.65242,123.9973,PLDT Home Fiber,94735,145330,94.74,145.33,7,1261,253,379
"City of Santa Rosa, Laguna, Philippines",14.31471,121.11232,Globe,148873,152136,148.87,152.14,6,1260,347,479
"Hagonoy, Bulacan, Philippines",14.83564,120.73371,PLDT,68740,71438,68.74,71.44,7,1252,223,313
"Mariveles, Bataan, Philippines",14.4354,120.49003,PLDT Home Fiber,79560,85025,79.56,85.03,8,1231,190,249
"Calapan City, Oriental Mindoro, Philippines",13.36643,121.19395,PLDT Home Fiber,107136,113709,107.14,113.71,9,1225,198,274
"Carmen, Cotabato, Philippines",7.38261,124.81826,PLDT Home Fiber,92447,98906,92.45,98.91,9,1224,327,526
"Magalang, Pampanga, Philippines",15.21394,120.66181,PLDT,55207,57512,55.21,57.51,12,1218,275,418
"Tagum, Davao del Norte, Philippines",7.44742,125.80246,PLDT,85916,86342,85.92,86.34,9,1218,159,216
"Butuan City, Agusan Del Norte, Philippines",8.94753,125.54063,PLDT,53147,54109,53.15,54.11,18,1207,356,526
"Lagawe, Ifugao, Philippines",16.80825,121.19395,PLDT Home Fiber,94378,109610,94.38,109.61,9,1206,300,536
"Rosario, Cavite, Philippines",14.41672,120.85471,PLDT Home Fiber,100133,115834,100.13,115.83,5,1204,225,334
"Bago, Negros Occidental, Philippines",10.53757,122.83609,PLDT,72927,76909,72.93,76.91,7,1201,173,236
"San Rafael, Bulacan, Philippines",15.00184,120.93141,Globe,178963,137263,178.96,137.26,7,1200,363,502
"Pagadian City, Zamboanga del Sur, Philippines",7.86265,123.37106,PLDT Home Fiber,100487,100788,100.49,100.79,6,1198,234,303
"Tanay, Rizal, Philippines",14.61419,121.37703,PLDT,60976,61379,60.98,61.38,8,1197,280,388
"Ligao City, Albay, Philippines",13.17242,123.4944,Converge,84231,82155,84.23,82.16,16,1196,173,299
"Cabuyao City, Laguna, Philippines",14.27433,121.11961,Converge,122183,112336,122.18,112.34,6,1195,159,279
"San Isidro, Nueva Ecija, Philippines",15.29656,120.9073,Globe,133600,126176,133.60,126.18,6,1194,311,466
"Puerto Princesa City, Palawan, Philippines",9.78563,118.62648,PLDT,72261,78894,72.26,78.89,19,1187,291,441
"Mexico, Pampanga, Philippines",15.06457,120.72033,PLDT,57505,76534,57.51,76.53,14,1181,336,491
"Calasiao, Pangasinan, Philippines",16.00949,120.35759,PLDT Home Fiber,94254,107962,94.25,107.96,6,1177,263,427
"Alfonso, Cavite, Philippines",14.1214,120.86138,PLDT,93781,95783,93.78,95.78,9,1176,318,453
"Tagbilaran City, Bohol, Philippines",9.6534,123.86703,Converge,144395,98968,144.40,98.97,24,1170,266,356
"Pozorrubio, Pangasinan, Philippines",16.11642,120.54316,PLDT,94411,94636,94.41,94.64,7,1170,192,302
"Molave, Zamboanga del Sur, Philippines",8.10419,123.4944,PLDT Home Fiber,84441,85931,84.44,85.93,10,1167,195,285
"San Pedro, Laguna, Philippines",14.36443,121.06192,Globe,147810,130713,147.81,130.71,9,1165,260,350
"Guimba, Nueva Ecija, Philippines",15.65641,120.76767,Converge,92439,94357,92.44,94.36,5,1163,216,288
"San Ildefonso, Bulacan, Philippines",15.07717,120.94171,PLDT,50614,51383,50.61,51.38,12,1161,148,204
"Cavite, Philippines",14.48151,120.90833,PLDT Home Fiber,106633,152489,106.63,152.49,5,1159,225,292
"Bayombong, Nueva Vizcaya, Philippines",16.48042,121.14813,Converge,100909,106057,100.91,106.06,9,1157,291,411
"San Luis, Pampanga, Philippines",15.03986,120.81544,PLDT Home Fiber,91772,94289,91.77,94.29,8,1153,309,480
"Pavia, Iloilo, Philippines",10.7748,122.54261,PLDT Home Fiber,134149,185199,134.15,185.20,12,1148,219,287
"Sorsogon City, Sorsogon, Philippines",12.97888,123.98477,PLDT,93419,95616,93.42,95.62,13,1146,238,318
"Panabo City, Davao del Norte, Philippines",7.30822,125.68662,PLDT Home Fiber,101181,105401,101.18,105.40,8,1141,243,347
"Dagupan City, Pangasinan, Philippines",16.03375,120.33202,PLDT,73330,82063,73.33,82.06,6,1139,292,445
"Bocaue, Bulacan, Philippines",14.7943,120.93073,Converge,119237,119844,119.24,119.84,7,1136,223,305
"Cauayan City, Isabela, Philippines",16.91662,121.78792,Converge,102465,100918,102.47,100.92,9,1125,258,367
"Los Baños, Laguna, Philippines",14.17731,121.22161,PLDT,97115,110881,97.12,110.88,6,1113,267,371
"San Leonardo, Nueva Ecija, Philippines",15.37285,120.95321,PLDT,29504,31841,29.50,31.84,11,1112,163,254
"Bakun, Benguet, Philippines",16.80796,120.68901,PLDT Home Fiber,94243,99852,94.24,99.85,6,1106,279,462
"Bocaue, Bulacan, Philippines",14.7943,120.93073,PLDT,95679,98021,95.68,98.02,8,1105,262,360
"Tagbilaran City, Bohol, Philippines",9.6534,123.86703,Globe,111016,98579,111.02,98.58,9,1101,146,185
"Hinigaran, Negros Occidental, Philippines",10.27479,122.92123,PLDT Home Fiber,84310,69344,84.31,69.34,14,1095,92,117
"Dona Remedios Trinidad, Bulacan, Philippines",15.11427,121.21685,Converge,145932,76500,145.93,76.50,9,1095,250,316
"Butuan City, Agusan Del Norte, Philippines",8.94753,125.54063,Converge,115762,113766,115.76,113.77,10,1095,163,217
"Trece Martires City, Cavite, Philippines",14.28222,120.86837,PLDT,79786,83417,79.79,83.42,8,1091,228,322
"Pagadian City, Zamboanga del Sur, Philippines",7.86265,123.37106,Globe,75962,60802,75.96,60.80,7,1085,178,237
"Magalang, Pampanga, Philippines",15.21394,120.66181,Converge,93672,93008,93.67,93.01,3,1084,226,305
"Daraga, Albay, Philippines",13.12278,123.69588,Converge,130398,89888,130.40,89.89,13,1083,151,266
"Rodriguez, Rizal, Philippines",14.73202,121.14516,Globe,141956,130955,141.96,130.96,4,1082,192,233
"Binangonan, Rizal, Philippines",14.48441,121.1869,Converge,187769,200577,187.77,200.58,3,1074,255,309
"Alabel, Sarangani, Philippines",6.10416,125.28792,PLDT Home Fiber,90125,93240,90.13,93.24,11,1073,175,237
"Goa, Camarines Sur, Philippines",13.73619,123.41593,PLDT Home Fiber,56012,68872,56.01,68.87,9,1072,159,227
"Legazpi City, Albay, Philippines",13.11288,123.76295,Globe,111525,92514,111.53,92.51,23,1066,177,247
"Agoncillo, Batangas, Philippines",13.94675,120.93026,Globe,260167,217315,260.17,217.32,6,1062,322,496
"Mangaldan, Pangasinan, Philippines",16.06513,120.40474,PLDT Home Fiber,89115,111229,89.12,111.23,8,1057,206,291
"Laoag City, Ilocos Norte, Philippines",18.21075,120.58547,PLDT Home Fiber,89637,90466,89.64,90.47,9,1049,193,292
"Puerto Princesa City, Palawan, Philippines",9.78563,118.62648,Converge,99220,105186,99.22,105.19,14,1046,213,286
"Olongapo City, Zambales, Philippines",14.88739,120.36661,PLDT Home Fiber,127699,103547,127.70,103.55,7,1046,279,380
"San Mateo, Rizal, Philippines",14.69539,121.11767,Globe,145467,143903,145.47,143.90,5,1045,199,248
"Pili, Camarines Sur, Philippines",13.55521,123.28126,PLDT,40590,41770,40.59,41.77,15,1045,111,164
"Balete, Batangas, Philippines",14.0092,121.10802,PLDT Home Fiber,100908,101005,100.91,101.01,8,1043,262,396
"Guiguinto, Bulacan, Philippines",14.82832,120.88429,Converge,124264,129341,124.26,129.34,7,1042,216,308
"San Fabian, Pangasinan, Philippines",16.14188,120.44729,PLDT,69469,67126,69.47,67.13,5,1041,177,261
"Majayjay, Laguna, Philippines",14.14491,121.46983,PLDT Home Fiber,100909,154831,100.91,154.83,8,1039,240,406
"Calabanga, Camarines Sur, Philippines",13.71633,123.28126,PLDT Home Fiber,90550,93164,90.55,93.16,8,1039,149,200
"Batangas City, Batangas, Philippines",13.75641,121.05833,Converge,113378,118834,113.38,118.83,7,1032,206,332
"Zamboanga City, Zamboanga del Sur, Philippines",6.90437,122.07612,Converge,90996,91761,91.00,91.76,16,1032,196,272
"Kibawe, Bukidnon, Philippines",7.48878,125.06084,PLDT Home Fiber,93309,94615,93.31,94.62,10,1022,275,386
"San Carlos City, Negros Occidental, Philippines",10.48344,123.30371,Converge,96201,88270,96.20,88.27,13,1020,60,72
"Guagua, Pampanga, Philippines",14.96374,120.63244,PLDT Home Fiber,96530,103929,96.53,103.93,9,1003,276,388
"Tanza, Cavite, Philippines",14.34293,120.85032,Globe,163392,142232,163.39,142.23,7,1002,254,342
"Guagua, Pampanga, Philippines",14.96374,120.63244,Converge,44123,39079,44.12,39.08,4,1002,290,424
"Malaybalay City, Bukidnon, Philippines",8.15775,125.17087,PLDT,73919,42387,73.92,42.39,10,997,271,393
"Ormoc City, Leyte, Philippines",11.03843,124.61927,PLDT Home Fiber,79342,80883,79.34,80.88,6,997,166,210
"Pakil, Laguna, Philippines",14.3694,121.39418,Converge,116257,134442,116.26,134.44,11,997,163,288
"Tagbina, Surigao del Sur, Philippines",8.43879,126.19798,PLDT Home Fiber,76361,81659,76.36,81.66,8,994,155,210
"Ormoc City, Leyte, Philippines",11.03843,124.61927,Converge,75172,80330,75.17,80.33,5,991,166,246
"Sagay City, Negros Occidental, Philippines",10.84555,123.37106,PLDT,63486,65426,63.49,65.43,11,989,160,235
"Gerona, Tarlac, Philippines",15.60489,120.59698,PLDT Home Fiber,72612,74582,72.61,74.58,10,988,201,286
"Nabua, Camarines Sur, Philippines",13.4069,123.37324,PLDT Home Fiber,54395,73208,54.40,73.21,9,982,121,165
"Kabankalan City, Negros Occidental, Philippines",9.91341,122.85358,PLDT,48238,56460,48.24,56.46,10,981,159,203
"Matanao, Davao del Sur, Philippines",6.70421,125.22584,PLDT Home Fiber,109212,98198,109.21,98.20,9,980,310,448
"Carmona, Cavite, Philippines",14.3135,121.05712,Globe,145091,115699,145.09,115.70,5,978,301,457
"Plaridel, Bulacan, Philippines",14.88591,120.85932,Converge,106698,108306,106.70,108.31,7,975,218,313
"Paniqui, Tarlac, Philippines",15.66603,120.53942,PLDT Home Fiber,93684,96176,93.68,96.18,11,973,141,201
"Zaragoza, Nueva Ecija, Philippines",15.46003,120.79246,Globe,225374,200783,225.37,200.78,5,971,281,483
"Kalibo, Aklan, Philippines",11.70734,122.36986,Converge,101551,84859,101.55,84.86,14,968,144,214
"Butig, Lanao del Sur, Philippines",7.69371,124.31993,PLDT Home Fiber,97633,97896,97.63,97.90,8,966,86,144
"Dona Remedios Trinidad, Bulacan, Philippines",15.11427,121.21685,PLDT,44683,28240,44.68,28.24,14,959,322,476
"Tiaong, Quezon, Philippines",13.92962,121.34273,PLDT Home Fiber,101714,116444,101.71,116.44,7,956,202,296
"Anao, Tarlac, Philippines",15.7435,120.61424,PLDT,45088,46792,45.09,46.79,19,956,254,405
"Dumangas, Iloilo, Philippines",10.82109,122.71167,PLDT Home Fiber,80166,80129,80.17,80.13,13,954,99,115
"Rodriguez, Rizal, Philippines",14.73202,121.14516,PLDT,71917,64919,71.92,64.92,6,954,210,305
"Puerto Princesa City, Palawan, Philippines",9.78563,118.62648,Globe,92992,86079,92.99,86.08,15,953,186,288
"Kumalarang, Zamboanga del Sur, Philippines",7.7703,123.1464,PLDT Home Fiber,96672,108569,96.67,108.57,10,951,188,288
"Odiongan, Romblon, Philippines",12.36445,122.01555,PLDT,62492,74950,62.49,74.95,9,950,108,145
"Rizal, Nueva Ecija, Philippines",15.69357,121.10229,PLDT,63064,72958,63.06,72.96,9,948,265,391
"Bacolor, Pampanga, Philippines",14.99692,120.65235,Converge,153739,141868,153.74,141.87,3,945,225,314
"Bula, Camarines Sur, Philippines",13.44119,123.23632,PLDT Home Fiber,63872,90073,63.87,90.07,9,944,100,171
"Cotabato City, Maguindanao, Philippines",7.20467,124.23104,PLDT,69559,87043,69.56,87.04,14,942,229,335
"Polomolok, South Cotabato, Philippines",6.22451,125.06084,Globe,111515,110543,111.52,110.54,14,939,134,162
"Dolores, Quezon, Philippines",14.00193,121.41133,PLDT Home Fiber,99626,156885,99.63,156.89,5,937,290,436
"Tuburan, Cebu, Philippines",10.66879,123.86345,PLDT Home Fiber,54707,73469,54.71,73.47,7,935,158,219
"San Fernando, Pampanga, Philippines",15.02781,120.69349,Globe,102128,96019,102.13,96.02,6,933,204,276
"San Rafael, Bulacan, Philippines",15.00184,120.93141,Converge,75674,109020,75.67,109.02,7,933,168,224
"San Simon, Pampanga, Philippines",14.98432,120.75127,PLDT,63365,76387,63.37,76.39,16,931,253,356
"Masbate City, Masbate, Philippines",12.31777,123.55041,PLDT,82406,80228,82.41,80.23,20,929,157,205
"Umingan, Pangasinan, Philippines",15.90396,120.82692,PLDT Home Fiber,89015,93881,89.02,93.88,8,928,219,353
"Tanauan City, Batangas, Philippines",14.08354,121.14762,Converge,111543,123501,111.54,123.50,7,927,187,266
"Argao, Cebu, Philippines",9.88114,123.60535,PLDT,68626,75963,68.63,75.96,6,926,94,125
"Samal, Davao del Norte, Philippines",7.08352,125.70578,PLDT Home Fiber,71673,71496,71.67,71.50,8,925,144,173
"Kawit, Cavite, Philippines",14.44588,120.90871,Converge,186710,189451,186.71,189.45,6,923,235,383
"San Leonardo, Nueva Ecija, Philippines",15.37285,120.95321,Converge,99601,127689,99.60,127.69,6,922,82,100
"Balanga City, Bataan, Philippines",14.67454,120.47033,Converge,102153,101973,102.15,101.97,5,922,182,262
"Sultan Kudarat (Nuling), Maguindanao, Philippines",7.26221,124.30883,PLDT Home Fiber,44261,45042,44.26,45.04,12,922,76,107
"Magalang, Pampanga, Philippines",15.21394,120.66181,PLDT Home Fiber,93446,92538,93.45,92.54,11,920,277,456
"Balamban, Cebu, Philippines",10.48585,123.77412,PLDT,61554,59050,61.55,59.05,5,914,152,208
"Talavera, Nueva Ecija, Philippines",15.58575,120.9197,Globe,122228,122084,122.23,122.08,6,912,170,242
"Panabo City, Davao del Norte, Philippines",7.30822,125.68662,Globe,119481,106851,119.48,106.85,10,910,136,195
"Maramag, Bukidnon, Philippines",7.82687,124.97271,Globe,16186,6520,16.19,6.52,28,905,201,377
"Ozamiz, Misamis Occidental, Philippines",8.15,123.85033,PLDT Home Fiber,109375,115345,109.38,115.35,6,904,125,156
"Carcar, Cebu, Philippines",10.10478,123.64147,PLDT Home Fiber,87827,97845,87.83,97.85,4,901,106,139
"Pili, Camarines Sur, Philippines",13.55521,123.28126,Converge,90003,88125,90.00,88.13,4,896,121,164
"Mambajao, Camiguin, Philippines",9.22153,124.71882,PLDT Home Fiber,28973,46996,28.97,47.00,16,895,106,134
"Libmanan, Camarines Sur, Philippines",13.69376,123.05982,PLDT Home Fiber,41995,45071,42.00,45.07,16,889,98,131
"Floridablanca, Pampanga, Philippines",14.9619,120.49471,PLDT Home Fiber,112282,114022,112.28,114.02,11,885,130,170
"La Carlota City, Negros Occidental, Philippines",10.41437,122.97757,PLDT,78920,93170,78.92,93.17,11,882,114,146
"Amadeo, Cavite, Philippines",14.18985,120.92452,PLDT,110783,124354,110.78,124.35,9,881,183,252
"Infanta, Quezon, Philippines",14.74071,121.6451,PLDT Home Fiber,68422,77447,68.42,77.45,12,879,111,148
"Victorias, Negros Occidental, Philippines",10.901,123.07045,PLDT Home Fiber,91918,94042,91.92,94.04,13,872,183,271
"Escalante City, Negros Occidental, Philippines",10.84117,123.49908,PLDT,73577,64615,73.58,64.62,9,872,142,189
"Plaridel, Misamis Occidental, Philippines",8.61148,123.69588,PLDT Home Fiber,90701,94021,90.70,94.02,8,870,47,57
"City of Mati, Davao Oriental, Philippines",6.95722,126.15454,PLDT Home Fiber,89689,107447,89.69,107.45,12,869,160,224
"Midsayap, Cotabato, Philippines",7.19181,124.53474,PLDT Home Fiber,89618,88323,89.62,88.32,12,867,142,198
"Norzagaray, Bulacan, Philippines",14.89659,121.14813,Converge,113272,106134,113.27,106.13,7,862,150,211
"Pantukan, Davao de Oro, Philippines",7.20012,126.04584,PLDT Home Fiber,47870,52848,47.87,52.85,16,860,68,92
"Bagabag, Nueva Vizcaya, Philippines",16.58337,121.28552,PLDT Home Fiber,95439,94885,95.44,94.89,10,860,69,112
"City of Mati, Davao Oriental, Philippines",6.95722,126.15454,Globe,84623,72437,84.62,72.44,16,859,93,126
"Lobo, Batangas, Philippines",13.6877,121.23974,PLDT Home Fiber,95519,102032,95.52,102.03,6,855,215,324
"Dinalupihan, Bataan, Philippines",14.88605,120.44729,PLDT Home Fiber,184199,164484,184.20,164.48,7,849,133,168
"Valencia City, Bukidnon, Philippines",7.86319,125.17087,Converge,94036,96798,94.04,96.80,9,848,142,185
"Koronadal, South Cotabato, Philippines",6.50044,124.84333,Globe,112189,102840,112.19,102.84,6,847,83,112
"Baao, Camarines Sur, Philippines",13.49319,123.35984,PLDT,39288,43171,39.29,43.17,11,847,75,101
"Rosario, Cavite, Philippines",14.41672,120.85471,PLDT,93430,103538,93.43,103.54,8,846,197,284
"Indang, Cavite, Philippines",14.19204,120.87286,PLDT,100011,122699,100.01,122.70,8,845,233,324
"Malolos, Bulacan, Philippines",14.86049,120.80916,Globe,120219,115764,120.22,115.76,7,840,154,206
"Tacloban City, Leyte, Philippines",11.22238,124.99221,Globe,118835,110414,118.84,110.41,14,838,159,225
"Jaen, Nueva Ecija, Philippines",15.39558,120.87286,PLDT Home Fiber,77664,74571,77.66,74.57,10,837,193,311
"Calapan City, Oriental Mindoro, Philippines",13.36643,121.19395,PLDT,51332,52014,51.33,52.01,13,836,224,334
"Baliwag, Bulacan, Philippines",14.96569,120.89431,Converge,100039,114401,100.04,114.40,7,831,185,250
"Natividad, Pangasinan, Philippines",16.03821,120.83841,PLDT,92254,94146,92.25,94.15,6,826,170,299
"Kidapawan, Cotabato, Philippines",7.02127,125.09019,PLDT,93325,94905,93.33,94.91,10,826,217,307
"Aliaga, Nueva Ecija, Philippines",15.51204,120.86138,Globe,225290,219461,225.29,219.46,6,821,236,410
"Catarman, Northern Samar, Philippines",12.44271,124.61927,Globe,67321,72536,67.32,72.54,14,821,107,143
"Trece Martires City, Cavite, Philippines",14.28222,120.86837,Globe,122125,117607,122.13,117.61,6,821,196,263
"Moises Padilla, Negros Occidental, Philippines",10.26269,123.11266,PLDT Home Fiber,91862,95183,91.86,95.18,12,820,114,173
"San Fernando City, La Union, Philippines",16.61592,120.32102,Converge,95092,92436,95.09,92.44,4,817,152,208
"Cardona, Rizal, Philippines",14.48493,121.232,PLDT Home Fiber,97934,142362,97.93,142.36,4,817,156,235
"Arakan, Cotabato, Philippines",7.35122,125.17087,PLDT Home Fiber,91982,88372,91.98,88.37,9,816,230,342
"Pateros, Metro Manila, Philippines",14.54838,121.07077,PLDT Home Fiber,119814,152283,119.81,152.28,3,815,202,268
"Gapan City, Nueva Ecija, Philippines",15.29121,121.01057,Converge,118658,126111,118.66,126.11,7,815,152,223
"Lambayong (Mariano Marcos), Sultan Kudarat, Philippines",6.79879,124.61927,PLDT Home Fiber,65408,45106,65.41,45.11,12,815,78,97
"Olongapo City, Zambales, Philippines",14.88739,120.36661,PLDT,107776,72546,107.78,72.55,6,814,227,309
"Santa Maria, Pangasinan, Philippines",15.95523,120.7005,PLDT Home Fiber,93667,99766,93.67,99.77,8,814,180,298
"Barotac Viejo, Iloilo, Philippines",11.10187,122.87613,PLDT,45912,44586,45.91,44.59,12,812,107,151
"Dapitan City, Zamboanga del Norte, Philippines",8.58118,123.42714,PLDT Home Fiber,58203,59580,58.20,59.58,9,811,112,148
"Ozamiz, Misamis Occidental, Philippines",8.15,123.85033,Globe,81472,49463,81.47,49.46,13,811,88,122
"Aringay, La Union, Philippines",16.40163,120.40119,PLDT,48803,56691,48.80,56.69,9,810,195,315
"Sorsogon City, Sorsogon, Philippines",12.97888,123.98477,Converge,88137,74778,88.14,74.78,16,810,94,155
"Liloan, Cebu, Philippines",10.39926,124.00002,PLDT,106504,147844,106.50,147.84,4,807,193,248
"Toledo, Cebu, Philippines",10.38705,123.65017,PLDT Home Fiber,90471,95276,90.47,95.28,5,805,167,225
"M'lang, Cotabato, Philippines",6.93822,124.90655,PLDT Home Fiber,93549,92858,93.55,92.86,9,803,168,251
"Abra De Ilog, Occidental Mindoro, Philippines",13.36383,120.75798,Globe,61589,53494,61.59,53.49,6,802,230,394
"San Isidro, Bohol, Philippines",9.84036,123.94155,PLDT,41002,43763,41.00,43.76,20,800,170,277
"Iligan City, Lanao del Norte, Philippines",8.22707,124.46418,PLDT,57862,63545,57.86,63.55,19,798,253,340
"Rizal, Nueva Ecija, Philippines",15.69357,121.10229,PLDT Home Fiber,74393,80848,74.39,80.85,5,798,152,206
"Roxas City, Capiz, Philippines",11.55288,122.74072,Converge,97211,84111,97.21,84.11,12,794,138,209
"Floridablanca, Pampanga, Philippines",14.9619,120.49471,Converge,82650,89128,82.65,89.13,4,791,175,233
"Trece Martires City, Cavite, Philippines",14.28222,120.86837,Converge,142657,126790,142.66,126.79,6,789,203,260
"San Ildefonso, Bulacan, Philippines",15.07717,120.94171,Converge,106685,98187,106.69,98.19,7,787,136,185
"Mayoyao, Ifugao, Philippines",16.95131,121.21685,PLDT Home Fiber,91767,95248,91.77,95.25,12,780,169,288
"Tanay, Rizal, Philippines",14.61419,121.37703,PLDT Home Fiber,90198,100761,90.20,100.76,4,779,164,231
"Malvar, Batangas, Philippines",14.04329,121.15875,PLDT,71778,87978,71.78,87.98,13,777,195,280
"San Jose, Batangas, Philippines",13.87868,121.09942,PLDT Home Fiber,127495,111501,127.50,111.50,6,776,186,292
"Alcala, Cagayan, Philippines",17.90497,121.65113,Converge,95847,99034,95.85,99.03,13,775,198,356
"Cauayan City, Isabela, Philippines",16.91662,121.78792,PLDT Home Fiber,114574,109161,114.57,109.16,12,772,151,204
"Catarman, Northern Samar, Philippines",12.44271,124.61927,PLDT Home Fiber,113178,121919,113.18,121.92,17,771,108,146
"New Corella, Davao del Norte, Philippines",7.59777,125.84981,PLDT Home Fiber,87652,85394,87.65,85.39,10,771,101,134
"Hagonoy, Bulacan, Philippines",14.83564,120.73371,PLDT Home Fiber,108476,106556,108.48,106.56,8,770,177,247
"Isulan, Sultan Kudarat, Philippines",6.6318,124.44201,PLDT,63022,65154,63.02,65.15,12,770,123,157
"Naujan, Oriental Mindoro, Philippines",13.24381,121.19395,PLDT Home Fiber,92031,99119,92.03,99.12,7,769,143,218
"Carmen, Cebu, Philippines",10.58876,123.96385,PLDT,54255,88112,54.26,88.11,14,768,154,219
"Talisay, Batangas, Philippines",14.11598,121.04498,PLDT,119341,157218,119.34,157.22,5,768,190,262
"San Ildefonso, Bulacan, Philippines",15.07717,120.94171,Globe,264496,207932,264.50,207.93,6,768,204,269
"Limay, Bataan, Philippines",14.53661,120.56245,PLDT Home Fiber,101563,109295,101.56,109.30,7,762,101,140
"Pavia, Iloilo, Philippines",10.7748,122.54261,Globe,98419,94436,98.42,94.44,5,762,117,158
"Antipas, Cotabato, Philippines",7.27386,125.01679,PLDT,95895,97875,95.90,97.88,8,762,242,354
"Bamban, Tarlac, Philippines",15.2885,120.57044,Converge,71272,75330,71.27,75.33,4,758,214,285
"Guiguinto, Bulacan, Philippines",14.82832,120.88429,PLDT,90761,101080,90.76,101.08,6,754,227,367
"Kabacan, Cotabato, Philippines",7.10719,124.84034,PLDT Home Fiber,64959,66076,64.96,66.08,11,752,161,239
"Santo Tomas, Batangas, Philippines",14.08754,121.17764,Globe,130917,121626,130.92,121.63,8,752,149,205
"San Fernando, Bukidnon, Philippines",7.84637,125.34663,Globe,159708,114878,159.71,114.88,5,751,235,354
"City of Catbalogan, Samar, Philippines",11.85683,124.88449,Globe,96040,85778,96.04,85.78,14,749,148,200
"Kayapa, Nueva Vizcaya, Philippines",16.49326,120.94174,PLDT,88184,92934,88.18,92.93,6,745,180,293
"Binangonan, Rizal, Philippines",14.48441,121.1869,Globe,172295,145004,172.30,145.00,4,745,162,211
"Daraga, Albay, Philippines",13.12278,123.69588,PLDT,99500,123726,99.50,123.73,7,745,142,194
"Maria Aurora, Aurora, Philippines",15.75061,121.3999,PLDT,75144,86928,75.14,86.93,12,745,94,115
"Tayug, Pangasinan, Philippines",16.01085,120.74649,PLDT,93556,94297,93.56,94.30,7,745,194,303
"Oton, Iloilo, Philippines",10.69251,122.47868,PLDT Home Fiber,78794,90011,78.79,90.01,11,744,122,163
"Camalig, Albay, Philippines",13.14101,123.63996,Converge,56535,54602,56.54,54.60,18,743,122,173
"Alaminos City, Pangasinan, Philippines",16.15053,119.98562,PLDT Home Fiber,86881,89243,86.88,89.24,8,742,128,170
"San Jose, Batangas, Philippines",13.87868,121.09942,PLDT,119891,139152,119.89,139.15,7,741,170,220
"Pulilan, Bulacan, Philippines",14.90243,120.8459,Converge,102531,91273,102.53,91.27,6,740,162,220
"Gerona, Tarlac, Philippines",15.60489,120.59698,Converge,81387,87627,81.39,87.63,5,739,218,304
"Marawi City, Lanao del Sur, Philippines",8.0292,124.29772,Globe,48637,47661,48.64,47.66,9,735,93,138
"Moalboal, Cebu, Philippines",9.93681,123.42714,Globe,89035,80117,89.04,80.12,12,735,142,202
"Catarman, Northern Samar, Philippines",12.44271,124.61927,PLDT,93150,91974,93.15,91.97,19,735,13,20
"San Mateo, Isabela, Philippines",16.87673,121.59408,PLDT Home Fiber,53471,56485,53.47,56.49,13,733,103,132
"Angat, Bulacan, Philippines",14.92586,121.02204,Converge,95763,92832,95.76,92.83,7,731,61,91
"Kumalarang, Zamboanga del Sur, Philippines",7.7703,123.1464,PLDT,51728,48867,51.73,48.87,21,731,155,265
"Baras, Rizal, Philippines",14.53656,121.27408,PLDT Home Fiber,74313,91245,74.31,91.25,4,728,110,150
"Candon City, Ilocos Sur, Philippines",17.19612,120.44729,Converge,93379,104902,93.38,104.90,9,722,171,281
"San Andres, Catanduanes, Philippines",13.6332,124.08641,PLDT,55769,82361,55.77,82.36,12,722,68,88
"Iriga City, Camarines Sur, Philippines",13.42095,123.41361,PLDT,80232,75950,80.23,75.95,10,721,127,153
"Santa Cruz, Zambales, Philippines",15.77308,120.04341,Converge,79930,93370,79.93,93.37,6,720,62,77
"San Miguel, Bulacan, Philippines",15.14158,120.9751,Converge,93994,93600,93.99,93.60,6,719,166,215
"General Mariano Alvarez, Cavite, Philippines",14.29525,121.0071,Converge,191954,185569,191.95,185.57,7,718,138,222
"Calbayog, Samar, Philippines",12.0685,124.59081,PLDT Home Fiber,104983,153591,104.98,153.59,15,715,83,121
"Jaen, Nueva Ecija, Philippines",15.39558,120.87286,PLDT,55528,53617,55.53,53.62,15,715,231,330
"San Miguel, Bulacan, Philippines",15.14158,120.9751,Globe,138190,106637,138.19,106.64,6,714,184,266
"Isulan, Sultan Kudarat, Philippines",6.6318,124.44201,PLDT Home Fiber,234838,303743,234.84,303.74,7,711,126,149
"Echague, Isabela, Philippines",16.66606,121.78792,PLDT,58385,57339,58.39,57.34,16,710,148,211
"Nasugbu, Batangas, Philippines",14.09404,120.68901,PLDT Home Fiber,106719,153254,106.72,153.25,9,709,142,181
"Tacloban City, Leyte, Philippines",11.22238,124.99221,PLDT Home Fiber,110247,124904,110.25,124.90,15,707,141,193
"Calumpit, Bulacan, Philippines",14.91518,120.7662,Converge,113653,109576,113.65,109.58,5,706,151,196
"Lubao, Pampanga, Philippines",14.92678,120.58795,PLDT Home Fiber,110821,127382,110.82,127.38,10,705,161,207
"Subic Bay Freeport Zone, Philippines",14.80319,120.30033,PLDT Home Fiber,137376,128063,137.38,128.06,7,705,192,291
"City of Baybay, Leyte, Philippines",10.66858,124.80409,Globe,104759,105370,104.76,105.37,12,704,97,123
"Pakil, Laguna, Philippines",14.3694,121.39418,PLDT,91356,94143,91.36,94.14,12,702,63,95
"Atok, Benguet, Philippines",16.59745,120.68901,PLDT Home Fiber,105931,119992,105.93,119.99,6,700,177,296
"Titay, Zamboanga Sibugay, Philippines",7.84847,122.57121,PLDT Home Fiber,87870,79062,87.87,79.06,21,699,71,101
"Pitogo, Quezon, Philippines",13.80951,122.10647,Converge,93526,93841,93.53,93.84,8,698,192,303
"Santo Nino, South Cotabato, Philippines",6.44221,124.67459,PLDT Home Fiber,52117,43139,52.12,43.14,11,697,86,104
"Labo, Camarines Norte, Philippines",14.13903,122.7633,PLDT Home Fiber,87443,100004,87.44,100.00,7,697,85,109
"Madridejos, Cebu, Philippines",11.25859,123.7406,Globe,107459,80938,107.46,80.94,13,697,12,17
"Marawi City, Lanao del Sur, Philippines",8.0292,124.29772,PLDT,59759,55273,59.76,55.27,25,695,133,216
"San Fernando City, La Union, Philippines",16.61592,120.32102,PLDT,90326,97170,90.33,97.17,3,694,132,219
"San Leonardo, Nueva Ecija, Philippines",15.37285,120.95321,PLDT Home Fiber,81919,78189,81.92,78.19,11,694,143,239
"Roxas, Oriental Mindoro, Philippines",12.62617,121.47989,PLDT Home Fiber,46411,50416,46.41,50.42,8,692,50,65
"Norzagaray, Bulacan, Philippines",14.89659,121.14813,PLDT,74389,55098,74.39,55.10,10,691,175,248
"Tagum, Davao del Norte, Philippines",7.44742,125.80246,Converge,137855,126322,137.86,126.32,4,691,134,175
"Candaba, Pampanga, Philippines",15.09289,120.8277,Converge,82791,84160,82.79,84.16,5,690,155,219
"Kiamba, Sarangani, Philippines",6.00076,124.70777,PLDT,15811,15349,15.81,15.35,32,690,44,68
"Bokod, Benguet, Philippines",16.45641,120.78097,PLDT,89947,90111,89.95,90.11,6,689,194,340
"Tanjay City, Negros Oriental, Philippines",9.49579,122.9663,PLDT Home Fiber,75132,83048,75.13,83.05,10,686,108,159
"Dumaguete City, Negros Oriental, Philippines",9.29841,123.29249,Converge,105620,95087,105.62,95.09,23,686,186,232
"Tanza, Cavite, Philippines",14.34293,120.85032,PLDT,87322,91668,87.32,91.67,7,683,131,183
"Naic, Cavite, Philippines",14.29649,120.79246,Converge,176641,193988,176.64,193.99,6,681,129,177
"San Francisco, Agusan del Sur, Philippines",8.44573,125.95878,PLDT Home Fiber,83169,100407,83.17,100.41,6,680,79,108
"Gandara, Samar, Philippines",12.06444,124.79617,PLDT Home Fiber,25519,25495,25.52,25.50,19,677,43,52
"City of Borongan, Eastern Samar, Philippines",11.61739,125.34663,Globe,106315,103522,106.32,103.52,19,674,129,160
"Malay, Aklan, Philippines",11.93033,121.95191,Converge,57493,48205,57.49,48.21,15,674,146,268
"Naval, Biliran, Philippines",11.56681,124.44201,Globe,112965,93118,112.97,93.12,14,673,72,95
"Cordon, Isabela, Philippines",16.67835,121.46847,PLDT Home Fiber,51610,59796,51.61,59.80,15,673,92,124
"Santa Catalina, Negros Oriental, Philippines",9.28676,122.94377,PLDT,45926,57640,45.93,57.64,12,671,39,55
"San Pascual, Batangas, Philippines",13.81044,121.02204,PLDT Home Fiber,114779,136525,114.78,136.53,7,671,134,170
"Mexico, Pampanga, Philippines",15.06457,120.72033,Globe,119041,109563,119.04,109.56,7,668,141,179
"Talavera, Nueva Ecija, Philippines",15.58575,120.9197,PLDT Home Fiber,58832,90380,58.83,90.38,11,668,109,159
"Zamboanga City, Zamboanga del Sur, Philippines",6.90437,122.07612,PLDT,44659,41697,44.66,41.70,22,663,150,277
"Llanera, Nueva Ecija, Philippines",15.66623,121.01057,PLDT,47126,40305,47.13,40.31,17,662,108,176
"Kidapawan, Cotabato, Philippines",7.02127,125.09019,Converge,123981,120677,123.98,120.68,5,661,142,179
"Asingan, Pangasinan, Philippines",16.00318,120.67063,PLDT Home Fiber,95383,103375,95.38,103.38,8,657,171,258
"Ibaan, Batangas, Philippines",13.81895,121.13082,PLDT Home Fiber,106285,102239,106.29,102.24,5,656,116,176
"Libungan, Cotabato, Philippines",7.31637,124.53068,PLDT Home Fiber,94255,72274,94.26,72.27,12,656,63,83
"Binmaley, Pangasinan, Philippines",16.02892,120.26882,PLDT Home Fiber,82279,81657,82.28,81.66,12,654,171,248
"Santo Tomas, Batangas, Philippines",14.08754,121.17764,Converge,131039,146705,131.04,146.71,7,652,131,185
"Pontevedra, Negros Occidental, Philippines",10.35266,122.92123,PLDT,83717,70759,83.72,70.76,14,651,145,212
"Vigan City, Ilocos Sur, Philippines",17.56485,120.38781,PLDT,70892,59062,70.89,59.06,11,650,122,170
"Nasugbu, Batangas, Philippines",14.09404,120.68901,Converge,138838,110242,138.84,110.24,6,646,161,260
"Santa Cruz, Davao del Sur, Philippines",6.83551,125.41659,PLDT Home Fiber,70002,53388,70.00,53.39,9,643,63,86
"Atimonan, Quezon, Philippines",13.96507,121.87903,PLDT Home Fiber,102459,101785,102.46,101.79,6,640,146,220
"San Carlos City, Pangasinan, Philippines",15.92589,120.34827,PLDT,81826,77338,81.83,77.34,5,639,106,149
"Maasin, Southern Leyte, Philippines",10.13272,124.84081,Globe,78171,72139,78.17,72.14,17,639,106,148
"San Jose City, Nueva Ecija, Philippines",15.79188,120.99008,Globe,40672,41867,40.67,41.87,12,639,102,158
"Pandi, Bulacan, Philippines",14.87572,120.95941,Globe,120142,114374,120.14,114.37,7,637,133,165
"Nabua, Camarines Sur, Philippines",13.4069,123.37324,Converge,72651,69098,72.65,69.10,3,637,63,98
"Rizal, Laguna, Philippines",14.08408,121.41133,PLDT Home Fiber,92797,113244,92.80,113.24,9,637,156,248
"Carles, Iloilo, Philippines",11.55216,123.13515,PLDT Home Fiber,61581,71331,61.58,71.33,16,635,52,65
"Alimodian, Iloilo, Philippines",10.85495,122.39009,PLDT,91462,106145,91.46,106.15,8,634,47,67
"Oton, Iloilo, Philippines",10.69251,122.47868,Globe,132534,133306,132.53,133.31,9,634,112,143
"Santo Domingo, Nueva Ecija, Philippines",15.61284,120.88434,PLDT,69019,67574,69.02,67.57,20,633,185,263
"Baliwag, Bulacan, Philippines",14.96569,120.89431,Globe,117066,103948,117.07,103.95,8,631,156,216
"Valencia City, Bukidnon, Philippines",7.86319,125.17087,PLDT Home Fiber,93623,106209,93.62,106.21,4,630,110,153
"Butig, Lanao del Sur, Philippines",7.69371,124.31993,PLDT,36211,67916,36.21,67.92,47,630,131,247
"Jala-jala, Rizal, Philippines",14.36149,121.34273,PLDT Home Fiber,102267,99953,102.27,99.95,6,629,74,120
"Pandi, Bulacan, Philippines",14.87572,120.95941,PLDT,78832,89897,78.83,89.90,11,629,158,206
"Valencia, Negros Oriental, Philippines",9.28494,123.1464,PLDT Home Fiber,108484,130795,108.48,130.80,11,628,95,113
"Talisay, Batangas, Philippines",14.11598,121.04498,Globe,62416,54187,62.42,54.19,7,628,173,323
"City Of Bislig, Surigao del Sur, Philippines",8.21006,126.28478,PLDT Home Fiber,70447,81828,70.45,81.83,9,626,105,136
"Polanco, Zamboanga del Norte, Philippines",8.49106,123.38228,PLDT Home Fiber,84463,85375,84.46,85.38,10,625,92,108
"Mangaldan, Pangasinan, Philippines",16.06513,120.40474,Converge,91124,93574,91.12,93.57,6,625,151,198
"Sibalom, Antique, Philippines",10.76502,122.06102,PLDT Home Fiber,107212,99769,107.21,99.77,16,625,31,46
"Maitum, Sarangani, Philippines",6.12408,124.48636,PLDT,19119,14885,19.12,14.89,13,625,58,76
"Noveleta, Cavite, Philippines",14.42785,120.88009,PLDT Home Fiber,145636,166963,145.64,166.96,7,622,127,175
"Siniloan, Laguna, Philippines",14.43831,121.48561,PLDT Home Fiber,77465,102126,77.47,102.13,10,622,60,78
"Pili, Camarines Sur, Philippines",13.55521,123.28126,Globe,89264,94671,89.26,94.67,12,622,41,48
"Dauis, Bohol, Philippines",9.60401,123.82996,PLDT Home Fiber,87835,99482,87.84,99.48,9,622,122,159
"Minglanilla, Cebu, Philippines",10.24543,123.79599,Globe,148418,136533,148.42,136.53,8,619,154,198
"Lumban, Laguna, Philippines",14.29353,121.52558,PLDT,49566,56324,49.57,56.32,14,618,204,298
"Malvar, Batangas, Philippines",14.04329,121.15875,Converge,98980,150241,98.98,150.24,7,615,104,169
"Buldon, Maguindanao, Philippines",7.47483,124.39764,PLDT Home Fiber,87201,94490,87.20,94.49,10,615,175,247
"Bauang, La Union, Philippines",16.51433,120.35508,PLDT Home Fiber,90050,93279,90.05,93.28,3,615,124,177
"Malasiqui, Pangasinan, Philippines",15.92028,120.41443,PLDT,86257,91257,86.26,91.26,6,615,145,195
"Gasan, Marinduque, Philippines",13.32138,121.89041,PLDT Home Fiber,81436,124229,81.44,124.23,8,614,43,52
"Ibaan, Batangas, Philippines",13.81895,121.13082,Globe,182026,137265,182.03,137.27,7,613,237,331
"Bantayan, Cebu, Philippines",11.18041,123.7406,PLDT,24835,40024,24.84,40.02,8,609,87,112
"Calauan, Laguna, Philippines",14.14551,121.3146,PLDT,94217,109030,94.22,109.03,14,608,93,119
"Padre Garcia, Batangas, Philippines",13.87668,121.24547,PLDT Home Fiber,101668,144125,101.67,144.13,7,607,169,256
"Aleosan, Cotabato, Philippines",7.18894,124.63034,PLDT Home Fiber,81428,88461,81.43,88.46,10,603,155,240
"Tuguegarao City, Cagayan, Philippines",17.60306,121.75374,Globe,102075,86644,102.08,86.64,10,603,86,123
"Mauban, Quezon, Philippines",14.23756,121.69674,PLDT Home Fiber,101835,146962,101.84,146.96,5,603,134,191
"Gattaran, Cagayan, Philippines",18.07365,121.87903,PLDT,86678,88782,86.68,88.78,15,602,130,187
"Cuyapo, Nueva Ecija, Philippines",15.79995,120.68901,PLDT Home Fiber,95408,107482,95.41,107.48,13,602,112,195
"Tapaz, Capiz, Philippines",11.28689,122.49201,PLDT,49549,46517,49.55,46.52,11,602,128,169
"Magdalena, Laguna, Philippines",14.20408,121.43419,Globe,140450,156841,140.45,156.84,6,602,162,266
"City Of Bislig, Surigao del Sur, Philippines",8.21006,126.28478,Globe,61997,68403,62.00,68.40,14,601,66,82
"Compostela, Cebu, Philippines",10.45408,124.013,PLDT,65587,85307,65.59,85.31,8,601,120,147
"Glan, Sarangani, Philippines",5.82205,125.20413,PLDT Home Fiber,27719,32942,27.72,32.94,12,601,61,89
"Brooke's Point, Palawan, Philippines",8.78617,117.83817,PLDT Home Fiber,52924,59876,52.92,59.88,24,599,55,77
"Cawayan, Masbate, Philippines",12.05579,123.72942,PLDT,15648,9927,15.65,9.93,34,599,14,18
"Guimba, Nueva Ecija, Philippines",15.65641,120.76767,PLDT Home Fiber,78783,88313,78.78,88.31,12,599,131,198
"Pagadian City, Zamboanga del Sur, Philippines",7.86265,123.37106,PLDT,69150,61271,69.15,61.27,13,597,125,170
"Baler, Aurora, Philippines",15.73361,121.57125,PLDT,46204,52032,46.20,52.03,14,594,132,179
"Dipolog City, Zamboanga del Norte, Philippines",8.58717,123.34035,Globe,76034,51689,76.03,51.69,11,593,80,114
"Gingoog City, Misamis Oriental, Philippines",8.81446,125.10406,PLDT Home Fiber,72789,78127,72.79,78.13,7,593,63,95
"Hermosa, Bataan, Philippines",14.83566,120.47709,PLDT Home Fiber,99008,99537,99.01,99.54,7,591,130,181
"Salvador Benedicto, Negros Occidental, Philippines",10.5887,123.23632,Globe,191560,144868,191.56,144.87,15,591,153,240
"Bustos, Bulacan, Philippines",14.95239,120.91735,PLDT,76788,69761,76.79,69.76,12,590,150,206
"Alangalang, Leyte, Philippines",11.23565,124.88449,PLDT,38453,38125,38.45,38.13,23,590,128,182
"San Luis, Pampanga, Philippines",15.03986,120.81544,Converge,80909,90768,80.91,90.77,5,589,94,135
"Bacong, Negros Oriental, Philippines",9.24338,123.27003,PLDT Home Fiber,109584,167184,109.58,167.18,10,588,83,98
"Malaybalay City, Bukidnon, Philippines",8.15775,125.17087,Converge,86056,74516,86.06,74.52,9,588,173,206
"Dona Remedios Trinidad, Bulacan, Philippines",15.11427,121.21685,PLDT Home Fiber,71516,73135,71.52,73.14,8,587,176,241
"General Mariano Alvarez, Cavite, Philippines",14.29525,121.0071,PLDT Home Fiber,105139,153315,105.14,153.32,6,585,121,162
"Binmaley, Pangasinan, Philippines",16.02892,120.26882,PLDT,69698,91762,69.70,91.76,9,584,119,156
"Tuburan, Cebu, Philippines",10.66879,123.86345,PLDT,37172,33501,37.17,33.50,14,583,56,73
"Polomolok, South Cotabato, Philippines",6.22451,125.06084,PLDT,28640,67318,28.64,67.32,22,581,143,219
"San Isidro, Davao Oriental, Philippines",6.78235,126.11108,PLDT Home Fiber,66490,84909,66.49,84.91,12,581,17,23
"Cordova, Cebu, Philippines",10.25278,123.9494,Globe,130740,122054,130.74,122.05,5,579,99,119
"Cabuyao City, Laguna, Philippines",14.27433,121.11961,Globe,123755,117284,123.76,117.28,7,577,146,197
"Tibiao, Antique, Philippines",11.30535,122.09511,PLDT Home Fiber,74018,89842,74.02,89.84,14,576,30,41
"Kapatagan, Lanao del Norte, Philippines",7.86776,123.72942,PLDT Home Fiber,80381,71888,80.38,71.89,8,576,75,103
"Urdaneta City, Pangasinan, Philippines",15.98194,120.59698,PLDT,71862,84777,71.86,84.78,5,576,132,197
"Tayug, Pangasinan, Philippines",16.01085,120.74649,PLDT Home Fiber,79993,92869,79.99,92.87,13,575,156,231
"Manapla, Negros Occidental, Philippines",10.95795,123.12428,PLDT Home Fiber,95446,122364,95.45,122.36,11,573,96,133
"Isabela, Negros Occidental, Philippines",10.22566,123.01136,PLDT Home Fiber,84345,74238,84.35,74.24,13,572,74,109
"Ormoc City, Leyte, Philippines",11.03843,124.61927,PLDT,34871,34323,34.87,34.32,9,570,83,133
"Carmen, Davao del Norte, Philippines",7.35492,125.704,PLDT Home Fiber,90733,90066,90.73,90.07,8,570,149,223
"Paracale, Camarines Norte, Philippines",14.23721,122.78588,PLDT Home Fiber,82645,57115,82.65,57.12,7,568,66,82
"Tabaco City, Albay, Philippines",13.36138,123.72876,Converge,99711,95311,99.71,95.31,5,567,96,139
"Nagcarlan, Laguna, Philippines",14.14903,121.38847,PLDT,74685,80145,74.69,80.15,14,566,162,243
"Bayawan City, Negros Oriental, Philippines",9.53644,122.7633,PLDT,54149,55206,54.15,55.21,10,566,66,89
"Victoria, Laguna, Philippines",14.19678,121.34273,PLDT Home Fiber,92953,102379,92.95,102.38,7,566,140,201
"Balagtas, Bulacan, Philippines",14.81784,120.90646,Globe,162994,152438,162.99,152.44,8,564,80,91
"Norzagaray, Bulacan, Philippines",14.89659,121.14813,PLDT Home Fiber,93316,98674,93.32,98.67,7,563,154,225
"Villasis, Pangasinan, Philippines",15.90523,120.55094,PLDT Home Fiber,84561,95820,84.56,95.82,7,560,160,239
"Kalibo, Aklan, Philippines",11.70734,122.36986,Globe,107916,105054,107.92,105.05,14,559,108,155
"General Mariano Alvarez, Cavite, Philippines",14.29525,121.0071,Globe,181905,189606,181.91,189.61,5,558,113,168
"Dulag, Leyte, Philippines",10.95915,125.00577,PLDT,65391,75025,65.39,75.03,17,554,42,52
"Bogo City, Cebu, Philippines",11.04623,124.00287,Globe,101874,85645,101.87,85.65,6,554,66,81
"Penaranda, Nueva Ecija, Philippines",15.36229,121.02204,PLDT Home Fiber,89068,93957,89.07,93.96,11,553,125,211
"Compostela, Cebu, Philippines",10.45408,124.013,PLDT Home Fiber,93556,137313,93.56,137.31,7,550,165,254
"Santa Cruz, Laguna, Philippines",14.26911,121.41133,PLDT Home Fiber,106409,126110,106.41,126.11,12,550,121,170
"Santiago, Isabela, Philippines",16.69679,121.55865,Globe,120078,106859,120.08,106.86,7,550,81,97
"Burauen, Leyte, Philippines",10.97109,124.84034,PLDT Home Fiber,87191,94330,87.19,94.33,15,549,129,196
"Mabalacat City, Pampanga, Philippines",15.24525,120.56567,Globe,116295,101352,116.30,101.35,4,549,133,163
"Aritao, Nueva Vizcaya, Philippines",16.2515,121.01057,PLDT,92613,94502,92.61,94.50,6,548,133,204
"Narra, Palawan, Philippines",9.229,118.33047,PLDT,78175,93916,78.18,93.92,35,547,63,89
"Cotabato City, Maguindanao, Philippines",7.20467,124.23104,Globe,97768,49278,97.77,49.28,11,547,63,86
"Angat, Bulacan, Philippines",14.92586,121.02204,PLDT Home Fiber,91243,94575,91.24,94.58,7,545,159,219
"Alicia, Isabela, Philippines",16.80691,121.69674,PLDT Home Fiber,66903,73786,66.90,73.79,13,545,107,155
"Echague, Isabela, Philippines",16.66606,121.78792,PLDT Home Fiber,53751,59043,53.75,59.04,14,543,116,158
"Alilem, Ilocos Sur, Philippines",16.9074,120.59698,PLDT Home Fiber,96805,101500,96.81,101.50,4,543,174,263
"Diadi, Nueva Vizcaya, Philippines",16.6595,121.33129,PLDT Home Fiber,94717,108826,94.72,108.83,12,540,130,220
"Polomolok, South Cotabato, Philippines",6.22451,125.06084,Converge,79795,122383,79.80,122.38,5,537,69,83
"Dauis, Bohol, Philippines",9.60401,123.82996,Converge,152668,124234,152.67,124.23,24,537,125,158
"Enrique B. Magalona, Negros Occidental, Philippines",10.87695,122.98281,PLDT,48984,46019,48.98,46.02,18,536,94,122
"Gloria, Oriental Mindoro, Philippines",12.93397,121.37703,PLDT Home Fiber,74522,70736,74.52,70.74,7,536,81,107
"Balanga City, Bataan, Philippines",14.67454,120.47033,PLDT,57915,53637,57.92,53.64,9,534,165,248
"Bacacay, Albay, Philippines",13.29586,123.87462,Converge,181030,180468,181.03,180.47,5,533,32,57
"Talisay, Negros Occidental, Philippines",10.74828,122.98012,Converge,187412,187968,187.41,187.97,12,533,124,175
"Sapang Dalaga, Misamis Occidental, Philippines",8.52815,123.584,PLDT Home Fiber,77538,64470,77.54,64.47,9,532,95,140
"Albuera, Leyte, Philippines",10.90539,124.75198,Globe,176716,160625,176.72,160.63,11,532,18,22
"Paombong, Bulacan, Philippines",14.83781,120.78406,PLDT,66575,54849,66.58,54.85,8,531,122,159
"Candelaria, Quezon, Philippines",13.94899,121.42276,PLDT,94191,94288,94.19,94.29,9,531,149,223
"Tangub City, Misamis Occidental, Philippines",8.09592,123.6847,PLDT,81864,89549,81.86,89.55,27,530,75,101
"Victoria, Tarlac, Philippines",15.59077,120.68901,PLDT Home Fiber,88657,86177,88.66,86.18,12,529,122,198
"Labason, Zamboanga del Norte, Philippines",8.01373,122.51464,PLDT Home Fiber,31141,34715,31.14,34.72,11,529,35,51
"Aliaga, Nueva Ecija, Philippines",15.51204,120.86138,PLDT Home Fiber,91599,91374,91.60,91.37,10,527,104,143
"Carcar, Cebu, Philippines",10.10478,123.64147,Globe,93482,92521,93.48,92.52,9,526,84,112
"Subic, Zambales, Philippines",14.83066,120.18202,PLDT Home Fiber,101402,116886,101.40,116.89,8,526,76,96
"Concepcion, Tarlac, Philippines",15.324,120.65596,Globe,154383,158539,154.38,158.54,4,526,165,245
"Santa Cruz, Laguna, Philippines",14.26911,121.41133,PLDT,107860,149171,107.86,149.17,10,526,110,156
"Murcia, Negros Occidental, Philippines",10.60643,123.03944,PLDT,55907,57265,55.91,57.27,15,525,87,126
"City of Cabadbaran, Agusan Del Norte, Philippines",9.14092,125.697,PLDT Home Fiber,68912,66428,68.91,66.43,12,524,101,135
"Malay, Aklan, Philippines",11.93033,121.95191,Globe,88469,76669,88.47,76.67,18,524,68,108
"Padre Garcia, Batangas, Philippines",13.87668,121.24547,Globe,199398,147905,199.40,147.91,7,524,151,210
"Sibulan, Negros Oriental, Philippines",9.35972,123.28476,Globe,116575,116385,116.58,116.39,11,521,97,128
"Rosales, Pangasinan, Philippines",15.86126,120.63149,PLDT Home Fiber,95123,97763,95.12,97.76,12,521,67,115
"Tabaco City, Albay, Philippines",13.36138,123.72876,PLDT Home Fiber,55738,45393,55.74,45.39,26,521,77,108
"Tubungan, Iloilo, Philippines",10.80645,122.29941,PLDT,61736,57635,61.74,57.64,11,520,134,185
"San Enrique, Negros Occidental, Philippines",10.42735,122.86485,PLDT,55123,57695,55.12,57.70,16,519,105,159
"Talibon, Bohol, Philippines",10.11933,124.26439,PLDT,27161,25414,27.16,25.41,8,518,53,70
"San Manuel, Pangasinan, Philippines",16.10561,120.67751,Converge,78708,61161,78.71,61.16,6,518,11,16
"Ipil, Zamboanga Sibugay, Philippines",7.77318,122.57121,PLDT,85714,61375,85.71,61.38,19,517,81,116
"Carles, Iloilo, Philippines",11.55216,123.13515,PLDT,26079,36998,26.08,37.00,11,516,33,49
"Gapan City, Nueva Ecija, Philippines",15.29121,121.01057,Globe,112979,102516,112.98,102.52,5,515,142,210
"Estancia, Iloilo, Philippines",11.45356,123.13515,PLDT,53737,62193,53.74,62.19,10,515,56,77
"El Nido, Palawan, Philippines",11.19892,119.42317,PLDT,88950,77634,88.95,77.63,31,514,98,165
"Balagtas, Bulacan, Philippines",14.81784,120.90646,Converge,166267,141867,166.27,141.87,7,512,127,168
"Santa Catalina, Negros Oriental, Philippines",9.28676,122.94377,PLDT Home Fiber,41518,25939,41.52,25.94,23,511,10,15
"Bambang, Nueva Vizcaya, Philippines",16.40415,121.10229,PLDT Home Fiber,74285,65549,74.29,65.55,7,511,91,140
"Boac, Marinduque, Philippines",13.39413,121.87903,PLDT Home Fiber,91593,104858,91.59,104.86,9,511,112,151
"Kitaotao, Bukidnon, Philippines",7.59444,125.10487,Globe,126070,111167,126.07,111.17,5,510,183,248
"Dinalupihan, Bataan, Philippines",14.88605,120.44729,Converge,101741,94078,101.74,94.08,6,510,111,137
"Mendez, Cavite, Philippines",14.12941,120.90511,PLDT,105092,173059,105.09,173.06,9,510,88,119
"Agoo, La Union, Philippines",16.3247,120.35508,PLDT,75665,83504,75.67,83.50,6,509,69,92
"Sariaya, Quezon, Philippines",13.96301,121.52388,PLDT,91483,93053,91.48,93.05,8,507,125,182
"Hermosa, Bataan, Philippines",14.83566,120.47709,Converge,138245,120525,138.25,120.53,6,505,132,173
"San Jose de Buenavista, Antique, Philippines",10.74901,121.94128,Globe,80514,67529,80.51,67.53,12,503,84,116
"Murcia, Negros Occidental, Philippines",10.60643,123.03944,Converge,66228,68963,66.23,68.96,13,503,88,122
"Camiling, Tarlac, Philippines",15.67495,120.41272,PLDT Home Fiber,82002,96005,82.00,96.01,12,501,72,104
"Lupon, Davao Oriental, Philippines",7.09663,126.19798,PLDT Home Fiber,94071,94601,94.07,94.60,10,500,88,132
"Salug, Zamboanga del Norte, Philippines",8.06518,122.78588,PLDT Home Fiber,110635,111800,110.64,111.80,21,500,22,30
"Isabela, Basilan, Philippines",6.70387,121.9799,Globe,90338,79564,90.34,79.56,15,500,43,58
"Talitay, Maguindanao, Philippines",7.04528,124.38654,PLDT Home Fiber,89660,57539,89.66,57.54,9,498,128,201
"Arakan, Cotabato, Philippines",7.35122,125.17087,Globe,116027,133966,116.03,133.97,4,498,159,194
"San Jacinto, Masbate, Philippines",12.53707,123.6847,PLDT,92411,130612,92.41,130.61,24,497,40,49
"Sara, Iloilo, Philippines",11.28199,123.01136,PLDT Home Fiber,47519,61475,47.52,61.48,14,497,45,67
"Panglao, Bohol, Philippines",9.56947,123.78721,PLDT,61852,70473,61.85,70.47,12,497,112,179
"Bulan, Sorsogon, Philippines",12.70367,123.90809,PLDT,62097,54087,62.10,54.09,19,494,81,100
"Maco, Davao de Oro, Philippines",7.40845,125.937,PLDT Home Fiber,57239,48303,57.24,48.30,10,493,47,66
"Arakan, Cotabato, Philippines",7.35122,125.17087,PLDT,97674,95664,97.67,95.66,9,493,163,216
"Alaminos City, Pangasinan, Philippines",16.15053,119.98562,Converge,107046,102675,107.05,102.68,6,493,124,171
"Guagua, Pampanga, Philippines",14.96374,120.63244,PLDT,69065,75818,69.07,75.82,11,493,109,153
"Pinamalayan, Oriental Mindoro, Philippines",13.01533,121.37703,PLDT Home Fiber,87322,101396,87.32,101.40,7,492,92,118
"Barili, Cebu, Philippines",10.1254,123.55041,PLDT Home Fiber,84701,94456,84.70,94.46,5,491,96,135
"Alicia, Isabela, Philippines",16.80691,121.69674,PLDT,49026,48983,49.03,48.98,14,490,87,132
"Canaman, Camarines Sur, Philippines",13.64758,123.13515,PLDT,49875,52192,49.88,52.19,15,489,49,63
