Location Name,Latitude,Longitude,Provider,Download Speed,Upload Speed,Download Speed Mbps,Upload Speed Mbps,Minimum Latency,Test Count,Sample Count,User Count
"Quezon City, Metro Manila, Philippines",14.64879,121.05094,PLDT Home Fiber,155791,155686,155.79,155.69,3,106910,26306,39538
"Quezon City, Metro Manila, Philippines",14.64879,121.05094,Globe,236933,210406,236.93,210.41,5,96316,25093,38639
"Quezon City, Metro Manila, Philippines",14.64879,121.05094,Converge,181280,174339,181.28,174.34,4,82302,20017,31682
"Davao City, Davao del Sur, Philippines",7.06475,125.60884,Converge,153410,154875,153.41,154.88,3,62913,12021,18362
"Manila, Metro Manila, Philippines",14.59951,120.98423,Converge,196701,171253,196.70,171.25,4,47414,11599,20897
"Cebu City, Cebu, Philippines",10.29261,123.90219,PLDT Home Fiber,101216,108825,101.22,108.83,6,44484,9101,13283
"Davao City, Davao del Sur, Philippines",7.06475,125.60884,PLDT Home Fiber,113937,94517,113.94,94.52,9,44029,10441,15050
"Cebu City, Cebu, Philippines",10.29261,123.90219,Globe,180383,152207,180.38,152.21,6,42197,10902,15666
"Davao City, Davao del Sur, Philippines",7.06475,125.60884,Globe,175899,160316,175.90,160.32,4,40688,11236,15611
"Pasig, Metro Manila, Philippines",14.56082,121.0776,Converge,135100,138765,135.10,138.77,4,39369,10135,14749
"Quezon City, Metro Manila, Philippines",14.64879,121.05094,PLDT,79299,78102,79.30,78.10,8,39044,10100,14648
"Manila, Metro Manila, Philippines",14.59951,120.98423,PLDT Home Fiber,99557,97846,99.56,97.85,6,37731,9118,14345
"Cebu City, Cebu, Philippines",10.29261,123.90219,PLDT,81802,90433,81.80,90.43,8,34125,7891,11248
"Manila, Metro Manila, Philippines",14.59951,120.98423,PLDT,89565,92699,89.57,92.70,5,32965,7809,11107
"Pasig, Metro Manila, Philippines",14.56082,121.0776,PLDT Home Fiber,152124,146286,152.12,146.29,3,32447,8200,12400
"Cagayan De Oro City, Misamis Oriental, Philippines",8.48029,124.64975,PLDT Home Fiber,95878,94515,95.88,94.52,9,30448,7445,10947
"Parañaque, Metro Manila, Philippines",14.47929,121.01985,Converge,199876,196774,199.88,196.77,4,29405,7394,11899
"Cagayan De Oro City, Misamis Oriental, Philippines",8.48029,124.64975,Globe,118207,73960,118.21,73.96,8,29197,7042,10607
"Taguig, Metro Manila, Philippines",14.53063,121.05755,Globe,238257,207670,238.26,207.67,4,28017,7964,12808
"Parañaque, Metro Manila, Philippines",14.47929,121.01985,PLDT,119851,103518,119.85,103.52,5,27884,7626,11739
"Valenzuela, Metro Manila, Philippines",14.69247,120.96991,Converge,191996,192678,192.00,192.68,4,26684,6515,11324
"Calamba, Laguna, Philippines",14.19488,121.15974,Converge,152579,135638,152.58,135.64,6,25310,6079,9802
"Antipolo City, 1870 Rizal, Philippines",14.58584,121.17569,PLDT Home Fiber,138464,140399,138.46,140.40,3,24482,6016,8765
"Biñan, Laguna, Philippines",14.31456,121.08316,PLDT,123036,122922,123.04,122.92,8,24448,5888,9557
"Cebu City, Cebu, Philippines",10.29261,123.90219,Converge,197919,183352,197.92,183.35,15,24289,5653,8352
"Parañaque, Metro Manila, Philippines",14.47929,121.01985,PLDT Home Fiber,158904,133814,158.90,133.81,4,23849,5985,8782
"Makati City, Metro Manila, Philippines",14.55474,121.02444,PLDT,72427,71445,72.43,71.45,11,23596,6479,9285
"Baguio, Benguet, Philippines",16.41297,120.5914,PLDT Home Fiber,93729,94746,93.73,94.75,7,23213,5581,8402
"San Pablo City, Laguna, Philippines",14.06422,121.32326,Converge,153085,162133,153.09,162.13,7,22651,5028,8399
"Taguig, Metro Manila, Philippines",14.53063,121.05755,Converge,200286,197680,200.29,197.68,4,21818,5825,9541
"Batangas City, Batangas, Philippines",13.75641,121.05833,Globe,120000,106830,120.00,106.83,9,21071,5190,8664
"Makati City, Metro Manila, Philippines",14.55474,121.02444,PLDT Home Fiber,152608,139516,152.61,139.52,4,20998,5274,8023
"Pandi, Bulacan, Philippines",14.87572,120.95941,Converge,198659,107106,198.66,107.11,7,20653,5454,8370
"Cainta, Rizal, Philippines",14.58056,121.11565,PLDT Home Fiber,163850,175584,163.85,175.58,3,19852,4949,7304
"Marikina, Metro Manila, Philippines",14.63493,121.10195,Converge,189434,182598,189.43,182.60,3,19677,5209,8356
"Caloocan, Metro Manila, Philippines",14.65136,120.99022,PLDT Home Fiber,164611,167330,164.61,167.33,3,19512,4797,6866
"Mexico, Pampanga, Philippines",15.06457,120.72033,Converge,173334,159148,173.33,159.15,3,19510,5339,8073
"Iligan City, Lanao del Norte, Philippines",8.22707,124.46418,PLDT Home Fiber,94193,93771,94.19,93.77,7,19051,4292,6131
"Bamban, Tarlac, Philippines",15.2885,120.57044,Converge,158323,159039,158.32,159.04,3,17169,4789,7426
"Santa Cruz, Davao del Sur, Philippines",6.83551,125.41659,Converge,140000,150042,140.00,150.04,4,17014,3381,5545
"Pasay City, Metro Manila, Philippines",14.53767,121.00081,PLDT Home Fiber,155358,119385,155.36,119.39,4,16861,4616,6932
"Imus, Cavite, Philippines",14.42764,120.93724,PLDT Home Fiber,174569,163920,174.57,163.92,4,16792,4137,6457
"Iloilo City, Iloilo, Philippines",10.73019,122.55911,Globe,117598,105636,117.60,105.64,8,16491,4005,6184
"Calamba, Laguna, Philippines",14.19488,121.15974,PLDT Home Fiber,115446,124619,115.45,124.62,8,16411,4087,6098
"San Carlos City, Negros Occidental, Philippines",10.48344,123.30371,PLDT,117876,139043,117.88,139.04,5,15533,4562,6548
"Bacoor, Cavite, Philippines",14.43122,120.96567,PLDT Home Fiber,145803,135696,145.80,135.70,6,15257,3344,4860
"Davao City, Davao del Sur, Philippines",7.06475,125.60884,PLDT,94691,94281,94.69,94.28,9,14999,4110,5489
"Muntinlupa, Metro Manila, Philippines",14.39453,121.04483,PLDT,95691,96172,95.69,96.17,6,14856,3821,5533
"Pasig, Metro Manila, Philippines",14.56082,121.0776,Globe,276796,250143,276.80,250.14,5,14559,3703,5049
"Caloocan, Metro Manila, Philippines",14.65136,120.99022,Globe,217002,197963,217.00,197.96,5,14255,3568,4994
"Mandaluyong City, Metro Manila, Philippines",14.57627,121.03924,Globe,308168,257007,308.17,257.01,5,14193,3843,6059
"Pasig, Metro Manila, Philippines",14.56082,121.0776,PLDT,79845,82373,79.85,82.37,9,14179,4014,5911
"Tarlac City, Tarlac, Philippines",15.48808,120.58719,Converge,140860,127675,140.86,127.68,4,14104,3950,5817
"Makati City, Metro Manila, Philippines",14.55474,121.02444,Globe,215018,191422,215.02,191.42,4,14069,3949,5918
"Tanauan City, Batangas, Philippines",14.08354,121.14762,PLDT Home Fiber,116168,103830,116.17,103.83,7,13877,3668,5650
"Antipolo City, 1870 Rizal, Philippines",14.58584,121.17569,Converge,178890,168305,178.89,168.31,3,13593,3480,5557
"Dasmariñas, Cavite, Philippines",14.33385,120.95423,PLDT,99103,104766,99.10,104.77,9,13383,3452,5472
"San Antonio, Nueva Ecija, Philippines",15.31921,120.82692,Globe,257883,243618,257.88,243.62,5,13153,3377,5798
"General Trias, Cavite, Philippines",14.38159,120.87915,Converge,195205,190179,195.21,190.18,5,13151,3304,5322
"Valenzuela, Metro Manila, Philippines",14.69247,120.96991,PLDT Home Fiber,144048,143015,144.05,143.02,3,13050,3449,5018
"Angeles, Pampanga, Philippines",15.16061,120.60908,Converge,131934,133191,131.93,133.19,3,12997,3480,4999
"Iriga City, Camarines Sur, Philippines",13.42095,123.41361,Converge,103743,98811,103.74,98.81,6,12723,3074,5475
"Las Piñas, Metro Manila, Philippines",14.44934,120.98186,PLDT Home Fiber,163938,146718,163.94,146.72,4,12694,2932,3955
"Magpet, Cotabato, Philippines",7.1332,125.17087,PLDT,124637,96789,124.64,96.79,8,12632,4048,5541
"Imus, Cavite, Philippines",14.42764,120.93724,Converge,210072,192688,210.07,192.69,6,12534,3625,5796
"Bacolod, Negros Occidental, Philippines",10.66764,122.94556,PLDT Home Fiber,87585,93911,87.59,93.91,8,12494,2538,3576
"Taguig, Metro Manila, Philippines",14.53063,121.05755,PLDT,90654,93458,90.65,93.46,7,12112,3470,4793
"Malabon, Metro Manila, Philippines",14.65793,120.95118,PLDT Home Fiber,130070,132469,130.07,132.47,3,11804,3254,5140
"La Trinidad, Benguet, Philippines",16.44844,120.59047,Converge,118619,113586,118.62,113.59,3,11722,3011,4325
"Bago, Negros Occidental, Philippines",10.53757,122.83609,Converge,168149,126974,168.15,126.97,16,11671,2900,4539
"Taguig, Metro Manila, Philippines",14.53063,121.05755,PLDT Home Fiber,183580,175954,183.58,175.95,4,11512,2684,3707
"San Juan City, Metro Manila, Philippines",14.60196,121.0355,Globe,227337,200469,227.34,200.47,5,11440,2943,4203
"San Fernando, Pampanga, Philippines",15.02781,120.69349,PLDT Home Fiber,126650,94968,126.65,94.97,8,10991,2594,3788
"Magpet, Cotabato, Philippines",7.1332,125.17087,PLDT Home Fiber,118926,96369,118.93,96.37,8,10777,3112,4402
"SJDM, Bulacan, Philippines",14.82867,121.04324,Converge,161931,126932,161.93,126.93,7,10617,2638,3702
"Cabanatuan City, Nueva Ecija, Philippines",15.49943,121.01057,Globe,153689,141070,153.69,141.07,6,10481,2678,4035
"Los Baños, Laguna, Philippines",14.17731,121.22161,PLDT Home Fiber,110148,151356,110.15,151.36,8,10353,2488,3845
"Dasmariñas, Cavite, Philippines",14.33385,120.95423,PLDT Home Fiber,144756,141295,144.76,141.30,5,10317,2735,4010
"Minglanilla, Cebu, Philippines",10.24543,123.79599,Converge,265855,234500,265.86,234.50,18,9880,2741,4200
"Danao, Cebu, Philippines",10.52013,124.02712,Globe,94032,93947,94.03,93.95,7,9877,2854,4634
"San Fernando, Pampanga, Philippines",15.02781,120.69349,Converge,97149,100427,97.15,100.43,4,9744,2833,3853
"Dasmariñas, Cavite, Philippines",14.33385,120.95423,Globe,193349,161756,193.35,161.76,5,9741,2751,4276
"Calamba, Laguna, Philippines",14.19488,121.15974,PLDT,96818,97017,96.82,97.02,8,9565,2497,3899
"Mandaluyong City, Metro Manila, Philippines",14.57627,121.03924,Converge,180257,169164,180.26,169.16,4,9378,2519,3915
"Bacolor, Pampanga, Philippines",14.99692,120.65235,PLDT Home Fiber,133956,96003,133.96,96.00,8,9369,2552,3880
"San Luis, Pampanga, Philippines",15.03986,120.81544,Converge,118845,129989,118.85,129.99,4,9197,2505,3993
"Bacolod, Negros Occidental, Philippines",10.66764,122.94556,Globe,120026,109488,120.03,109.49,8,9106,2262,3166
"Impasug-ong, Bukidnon, Philippines",8.38854,125.08286,Converge,94527,99763,94.53,99.76,15,9006,1815,2851
"Parañaque, Metro Manila, Philippines",14.47929,121.01985,Globe,213207,179128,213.21,179.13,4,8940,2521,3423
"Cagayan De Oro City, Misamis Oriental, Philippines",8.48029,124.64975,Converge,104313,106775,104.31,106.78,10,8716,1573,2154
"Iligan City, Lanao del Norte, Philippines",8.22707,124.46418,Converge,123488,104858,123.49,104.86,9,8568,2193,3238
"Caloocan, Metro Manila, Philippines",14.65136,120.99022,PLDT,92283,93589,92.28,93.59,4,8528,2126,3338
"Murcia, Negros Occidental, Philippines",10.60643,123.03944,Globe,160307,149652,160.31,149.65,8,8527,2468,3960
"Magalang, Pampanga, Philippines",15.21394,120.66181,Converge,115010,129496,115.01,129.50,3,8508,2439,3873
"Itogon, Benguet, Philippines",16.36116,120.6787,PLDT,94805,103711,94.81,103.71,7,8383,2311,3434
"Magpet, Cotabato, Philippines",7.1332,125.17087,Globe,64127,100620,64.13,100.62,5,8183,2524,3744
"Pasay City, Metro Manila, Philippines",14.53767,121.00081,PLDT,90424,92085,90.42,92.09,7,8043,2119,3273
"Bacoor, Cavite, Philippines",14.43122,120.96567,PLDT,96059,94018,96.06,94.02,8,7905,2092,3013
"Butuan City, Agusan Del Norte, Philippines",8.94753,125.54063,Globe,148710,58853,148.71,58.85,12,7566,1957,2869
"San Juan City, Metro Manila, Philippines",14.60196,121.0355,Converge,172480,152238,172.48,152.24,4,7562,2057,3338
"San Carlos City, Negros Occidental, Philippines",10.48344,123.30371,PLDT Home Fiber,114231,155994,114.23,155.99,5,7537,2137,3218
"La Paz, Tarlac, Philippines",15.4497,120.7235,Globe,61641,53652,61.64,53.65,5,7496,1675,3585
"San Juan City, Metro Manila, Philippines",14.60196,121.0355,PLDT,74224,69643,74.22,69.64,12,7482,2163,3095
"Naga City, Camarines Sur, Philippines",13.6475,123.27003,Converge,93351,93836,93.35,93.84,10,7473,1370,2244
"Talakag, Bukidnon, Philippines",8.05293,124.72988,PLDT Home Fiber,94253,94577,94.25,94.58,6,7173,1969,2955
"Malabon, Metro Manila, Philippines",14.65793,120.95118,Converge,180359,173653,180.36,173.65,4,7134,1550,2591
"Muntinlupa, Metro Manila, Philippines",14.39453,121.04483,PLDT Home Fiber,160485,111874,160.49,111.87,4,7106,1599,2334
"Caloocan, Metro Manila, Philippines",14.65136,120.99022,Converge,200033,201818,200.03,201.82,4,7019,1536,2302
"Naga City, Camarines Sur, Philippines",13.6475,123.27003,PLDT Home Fiber,109599,110950,109.60,110.95,8,6986,1595,2606
"Biñan, Laguna, Philippines",14.31456,121.08316,PLDT Home Fiber,122828,124859,122.83,124.86,8,6770,1610,2445
"Itogon, Benguet, Philippines",16.36116,120.6787,PLDT Home Fiber,98084,102914,98.08,102.91,7,6719,1938,2932
"Binangonan, Rizal, Philippines",14.48441,121.1869,PLDT,141241,142815,141.24,142.82,4,6709,1895,3170
"Las Piñas, Metro Manila, Philippines",14.44934,120.98186,PLDT,84343,88218,84.34,88.22,8,6537,1519,2117
"Silang, Cavite, Philippines",14.22025,120.96469,PLDT Home Fiber,164338,159437,164.34,159.44,5,6433,1824,2823
"Tarlac City, Tarlac, Philippines",15.48808,120.58719,Globe,120290,106564,120.29,106.56,5,6431,1750,2520
"Iloilo City, Iloilo, Philippines",10.73019,122.55911,PLDT,80208,84638,80.21,84.64,10,6402,1234,1724
"Calapan City, Oriental Mindoro, Philippines",13.36643,121.19395,Converge,94464,94206,94.46,94.21,13,6323,1321,2302
"Baguio, Benguet, Philippines",16.41297,120.5914,Converge,102891,109802,102.89,109.80,4,6302,1739,2376
"Subic Bay Freeport Zone, Philippines",14.80319,120.30033,Converge,170837,184584,170.84,184.58,4,6262,1491,2250
"Canlaon City, Negros Oriental, Philippines",10.36048,123.19137,PLDT Home Fiber,111890,163525,111.89,163.53,5,6220,1875,2721
"Antipolo City, 1870 Rizal, Philippines",14.58584,121.17569,PLDT,78694,78654,78.69,78.65,8,6189,1468,2085
"Tarlac City, Tarlac, Philippines",15.48808,120.58719,PLDT,87800,93639,87.80,93.64,11,6137,1625,2320
"Baguio, Benguet, Philippines",16.41297,120.5914,PLDT,89992,93568,89.99,93.57,7,6076,1655,2551
"Bacolod, Negros Occidental, Philippines",10.66764,122.94556,Converge,138394,119918,138.39,119.92,14,6038,1138,1659
"San Pablo City, Laguna, Philippines",14.06422,121.32326,PLDT Home Fiber,138041,163989,138.04,163.99,6,6029,1367,2195
"Mandaluyong City, Metro Manila, Philippines",14.57627,121.03924,PLDT Home Fiber,185496,168487,185.50,168.49,3,5980,1532,2115
"Tagaytay City, Cavite, Philippines",14.11541,120.96202,Converge,136250,135317,136.25,135.32,6,5976,1259,2108
"General Trias, Cavite, Philippines",14.38159,120.87915,PLDT Home Fiber,163489,144806,163.49,144.81,5,5857,1372,1930
"Lipa City, Batangas, Philippines",13.94047,121.19395,PLDT Home Fiber,133777,135497,133.78,135.50,6,5814,1531,2169
"Taytay, Rizal, Philippines",14.55288,121.12571,Converge,214583,208227,214.58,208.23,3,5773,1210,1917
"San Juan City, Metro Manila, Philippines",14.60196,121.0355,PLDT Home Fiber,158546,153489,158.55,153.49,3,5743,1506,2231
"San Rafael, Bulacan, Philippines",15.00184,120.93141,PLDT Home Fiber,116763,100588,116.76,100.59,7,5736,1607,2513
"Danao, Cebu, Philippines",10.52013,124.02712,PLDT Home Fiber,129857,180954,129.86,180.95,5,5578,1550,2337
"Marikina, Metro Manila, Philippines",14.63493,121.10195,PLDT Home Fiber,188795,173170,188.80,173.17,3,5487,1531,2130
"Iloilo City, Iloilo, Philippines",10.73019,122.55911,PLDT Home Fiber,96820,100547,96.82,100.55,8,5451,1130,1701
"Manila, Metro Manila, Philippines",14.59951,120.98423,Globe,259727,214330,259.73,214.33,5,5351,1421,1813
"Taytay, Rizal, Philippines",14.55288,121.12571,PLDT Home Fiber,162311,157000,162.31,157.00,4,5276,1286,1816
"Makati City, Metro Manila, Philippines",14.55474,121.02444,Converge,161694,157781,161.69,157.78,5,5225,1336,1900
"Burgos, La Union, Philippines",16.53803,120.47033,Converge,98069,106616,98.07,106.62,4,5140,1407,2181
"Iloilo City, Iloilo, Philippines",10.73019,122.55911,Converge,101954,96686,101.95,96.69,13,5129,1106,1672
"Mabalacat City, Pampanga, Philippines",15.24525,120.56567,Converge,121312,131772,121.31,131.77,3,4974,1404,2022
"Polangui, Albay, Philippines",13.29368,123.48542,Converge,102731,94379,102.73,94.38,13,4894,952,1733
"Lucena City, Quezon, Philippines",13.94139,121.62345,PLDT Home Fiber,99619,111947,99.62,111.95,5,4798,1059,1659
"New Lucena, Iloilo, Philippines",10.87841,122.59781,Converge,133844,104764,133.84,104.76,15,4795,1274,2264
"Bansalan, Davao del Sur, Philippines",6.84825,125.22584,PLDT Home Fiber,108269,97092,108.27,97.09,9,4790,1455,2183
"Tanauan City, Batangas, Philippines",14.08354,121.14762,PLDT,102186,100741,102.19,100.74,7,4709,1367,2012
"Cainta, Rizal, Philippines",14.58056,121.11565,Globe,247579,218490,247.58,218.49,5,4670,1285,1672
"Marikina, Metro Manila, Philippines",14.63493,121.10195,Globe,200375,180825,200.38,180.83,5,4667,1244,1858
"Taytay, Rizal, Philippines",14.55288,121.12571,PLDT,71722,75910,71.72,75.91,9,4618,1345,1969
"Butuan City, Agusan Del Norte, Philippines",8.94753,125.54063,PLDT Home Fiber,79523,83832,79.52,83.83,9,4580,991,1409
"Antipolo City, 1870 Rizal, Philippines",14.58584,121.17569,Globe,215247,196501,215.25,196.50,5,4533,1042,1278
"Bacolod, Negros Occidental, Philippines",10.66764,122.94556,PLDT,63667,66759,63.67,66.76,11,4512,1170,1648
"Urdaneta City, Pangasinan, Philippines",15.98194,120.59698,Converge,120951,109048,120.95,109.05,5,4455,1176,1816
"Kawit, Cavite, Philippines",14.44588,120.90871,PLDT Home Fiber,93461,94313,93.46,94.31,8,4341,1145,1756
"Binangonan, Rizal, Philippines",14.48441,121.1869,PLDT Home Fiber,155365,153824,155.37,153.82,3,4306,1239,1911
"Muntinlupa, Metro Manila, Philippines",14.39453,121.04483,Globe,149680,120281,149.68,120.28,6,4257,1130,1604
"Baliwag, Bulacan, Philippines",14.96569,120.89431,PLDT Home Fiber,105436,101013,105.44,101.01,7,4165,810,1227
"Claveria, Misamis Oriental, Philippines",8.62972,124.90655,Converge,156207,127708,156.21,127.71,9,4137,1220,1965
"Marilao, Bulacan, Philippines",14.77237,120.96001,PLDT Home Fiber,116634,110448,116.63,110.45,9,4094,951,1339
"Santa Maria, Bulacan, Philippines",14.82898,120.97616,Converge,167020,103479,167.02,103.48,7,4092,1106,1733
"Zamboanga City, Zamboanga del Sur, Philippines",6.90437,122.07612,PLDT Home Fiber,104344,88579,104.34,88.58,12,4089,690,921
"Malolos, Bulacan, Philippines",14.86049,120.80916,PLDT Home Fiber,117529,107650,117.53,107.65,6,4084,1022,1574
"Bacoor, Cavite, Philippines",14.43122,120.96567,Converge,209396,193350,209.40,193.35,6,4045,1021,1601
"Santa Barbara, Pangasinan, Philippines",15.9774,120.42424,Converge,99440,107671,99.44,107.67,5,4017,1140,1876
"Malabon, Metro Manila, Philippines",14.65793,120.95118,PLDT,77006,87377,77.01,87.38,8,3958,1164,1660
"Bago, Negros Occidental, Philippines",10.53757,122.83609,Globe,116212,105148,116.21,105.15,4,3876,1172,1938
"Valenzuela, Metro Manila, Philippines",14.69247,120.96991,Globe,218036,208938,218.04,208.94,5,3860,840,1048
"Angeles, Pampanga, Philippines",15.16061,120.60908,PLDT Home Fiber,114261,110283,114.26,110.28,8,3757,886,1280
"Las Piñas, Metro Manila, Philippines",14.44934,120.98186,Globe,268594,207554,268.59,207.55,5,3709,848,1080
"Balamban, Cebu, Philippines",10.48585,123.77412,Globe,146103,113139,146.10,113.14,7,3706,967,1624
"Valenzuela, Metro Manila, Philippines",14.69247,120.96991,PLDT,91662,92347,91.66,92.35,7,3643,1043,1503
"Santo Domingo, Nueva Ecija, Philippines",15.61284,120.88434,Globe,174226,151325,174.23,151.33,6,3517,936,1510
"Cainta, Rizal, Philippines",14.58056,121.11565,PLDT,77424,78497,77.42,78.50,7,3481,922,1357
"Consolacion, Cebu, Philippines",10.37581,123.95694,Globe,87780,79773,87.78,79.77,6,3466,941,1541
"Murcia, Negros Occidental, Philippines",10.60643,123.03944,PLDT Home Fiber,113901,138465,113.90,138.47,6,3458,923,1378
"Bago, Negros Occidental, Philippines",10.53757,122.83609,PLDT Home Fiber,137988,162183,137.99,162.18,6,3457,1044,1532
"Mandaluyong City, Metro Manila, Philippines",14.57627,121.03924,PLDT,65229,53038,65.23,53.04,10,3445,1026,1446
"Bacoor, Cavite, Philippines",14.43122,120.96567,Globe,216736,192996,216.74,193.00,5,3426,812,1046
"San Marcelino, Zambales, Philippines",15.02605,120.27435,Converge,105974,108946,105.97,108.95,5,3401,985,1529
"Tarlac City, Tarlac, Philippines",15.48808,120.58719,PLDT Home Fiber,92249,96283,92.25,96.28,11,3367,795,1169
"Angono, Rizal, Philippines",14.52592,121.15321,PLDT,98409,106492,98.41,106.49,4,3323,924,1516
"San Quintin, Pangasinan, Philippines",15.9754,120.83841,Globe,61608,53782,61.61,53.78,6,3293,783,1734
"Bokod, Benguet, Philippines",16.45641,120.78097,PLDT,94080,97070,94.08,97.07,7,3288,1040,1602
"City of Santa Rosa, Laguna, Philippines",14.31471,121.11232,PLDT Home Fiber,128084,129275,128.08,129.28,7,3285,651,974
"Nasugbu, Batangas, Philippines",14.09404,120.68901,Globe,184555,168068,184.56,168.07,7,3228,845,1208
"Lipa City, Batangas, Philippines",13.94047,121.19395,Globe,170017,159643,170.02,159.64,6,3218,820,1296
"General Santos City (Dadiangas), South Cotabato, Philippines",6.14327,125.19286,PLDT Home Fiber,101298,93882,101.30,93.88,11,3212,590,739
"Imus, Cavite, Philippines",14.42764,120.93724,Globe,272546,221405,272.55,221.41,5,3194,909,1355
"Mambusao, Capiz, Philippines",11.44257,122.59383,Converge,105152,104758,105.15,104.76,17,3164,665,1358
"Cainta, Rizal, Philippines",14.58056,121.11565,Converge,150614,151608,150.61,151.61,3,3159,737,934
"Pitogo, Quezon, Philippines",13.80951,122.10647,Converge,132425,105445,132.43,105.45,10,3158,687,1094
"Meycauayan, Bulacan, Philippines",14.73772,120.96077,PLDT Home Fiber,107155,113272,107.16,113.27,9,3128,758,1072
"Cardona, Rizal, Philippines",14.48493,121.232,PLDT,131458,134741,131.46,134.74,4,3121,981,1558
"Dagupan City, Pangasinan, Philippines",16.03375,120.33202,PLDT Home Fiber,92406,100491,92.41,100.49,7,3118,654,953
"City of Tayabas, Quezon, Philippines",14.01135,121.55983,PLDT Home Fiber,126704,162638,126.70,162.64,7,3118,777,1278
"Asturias, Cebu, Philippines",10.60209,123.77412,Globe,127688,106308,127.69,106.31,7,3115,974,1554
"SJDM, Bulacan, Philippines",14.82867,121.04324,PLDT,79562,79163,79.56,79.16,9,3103,682,948
"San Mateo, Rizal, Philippines",14.69539,121.11767,PLDT Home Fiber,135778,148424,135.78,148.42,3,3066,675,970
"Kawit, Cavite, Philippines",14.44588,120.90871,Globe,176654,153480,176.65,153.48,5,3054,736,1078
"Lapu-Lapu, Cebu, Philippines",10.31838,123.96395,Globe,188609,176504,188.61,176.50,5,3041,634,769
"Kitaotao, Bukidnon, Philippines",7.59444,125.10487,Globe,95707,93927,95.71,93.93,5,3006,1062,1592
"Calamba, Laguna, Philippines",14.19488,121.15974,Globe,171694,150996,171.69,151.00,5,2969,985,1420
"Zamboanga City, Zamboanga del Sur, Philippines",6.90437,122.07612,Globe,115759,88401,115.76,88.40,14,2966,412,544
"Las Piñas, Metro Manila, Philippines",14.44934,120.98186,Converge,195198,193531,195.20,193.53,4,2934,628,926
"General Trias, Cavite, Philippines",14.38159,120.87915,Globe,191099,175345,191.10,175.35,5,2923,743,958
"San Nicolas, Pangasinan, Philippines",16.12066,120.78097,PLDT Home Fiber,99965,110767,99.97,110.77,7,2881,783,1229
"Muntinlupa, Metro Manila, Philippines",14.39453,121.04483,Converge,175374,177095,175.37,177.10,5,2867,661,893
"Marikina, Metro Manila, Philippines",14.63493,121.10195,PLDT,73372,80169,73.37,80.17,10,2837,863,1232
"Santa Maria, Bulacan, Philippines",14.82898,120.97616,PLDT Home Fiber,140639,116777,140.64,116.78,8,2834,744,1093
"Cabuyao City, Laguna, Philippines",14.27433,121.11961,PLDT Home Fiber,146503,147594,146.50,147.59,7,2761,689,1052
"Rodriguez, Rizal, Philippines",14.73202,121.14516,PLDT Home Fiber,152465,156015,152.47,156.02,4,2719,539,721
"La Castellana, Negros Occidental, Philippines",10.33198,123.10141,PLDT Home Fiber,94410,104508,94.41,104.51,6,2709,662,970
"La Trinidad, Benguet, Philippines",16.44844,120.59047,PLDT Home Fiber,92443,94075,92.44,94.08,9,2707,570,848
"Agoncillo, Batangas, Philippines",13.94675,120.93026,Converge,152534,253108,152.53,253.11,8,2696,554,914
"Llanera, Nueva Ecija, Philippines",15.66623,121.01057,Converge,98880,108548,98.88,108.55,6,2690,747,1255
"City of Santa Rosa, Laguna, Philippines",14.31471,121.11232,PLDT,93695,94420,93.70,94.42,8,2666,811,1085
"Kayapa, Nueva Vizcaya, Philippines",16.49326,120.94174,PLDT Home Fiber,93664,94822,93.66,94.82,7,2652,766,1196
"Pasay City, Metro Manila, Philippines",14.53767,121.00081,Converge,199590,203502,199.59,203.50,4,2627,723,1021
"Angeles, Pampanga, Philippines",15.16061,120.60908,PLDT,73940,90519,73.94,90.52,11,2623,800,1144
"San Pedro, Laguna, Philippines",14.36443,121.06192,PLDT,94267,94388,94.27,94.39,7,2620,643,853
"Candelaria, Quezon, Philippines",13.94899,121.42276,Converge,195696,195423,195.70,195.42,5,2607,679,1280
"Bustos, Bulacan, Philippines",14.95239,120.91735,PLDT Home Fiber,126875,116146,126.88,116.15,7,2604,734,1103
"Subic Bay Freeport Zone, Philippines",14.80319,120.30033,PLDT,73102,77958,73.10,77.96,10,2598,696,1043
"Santa Ana, Pampanga, Philippines",15.09442,120.76623,Converge,150864,169621,150.86,169.62,4,2590,760,1192
"Koronadal, South Cotabato, Philippines",6.50044,124.84333,PLDT Home Fiber,78080,77549,78.08,77.55,10,2586,600,805
"Bocaue, Bulacan, Philippines",14.7943,120.93073,PLDT Home Fiber,93854,94575,93.85,94.58,10,2584,608,859
"Kawit, Cavite, Philippines",14.44588,120.90871,PLDT,84928,92374,84.93,92.37,11,2538,658,996
"Dasmariñas, Cavite, Philippines",14.33385,120.95423,Converge,140136,118419,140.14,118.42,6,2500,683,1089
"San Pedro, Laguna, Philippines",14.36443,121.06192,PLDT Home Fiber,171333,155309,171.33,155.31,4,2499,632,819
"Dolores, Quezon, Philippines",14.00193,121.41133,Converge,203246,196578,203.25,196.58,4,2473,789,1292
"General Santos City (Dadiangas), South Cotabato, Philippines",6.14327,125.19286,Converge,142470,153342,142.47,153.34,5,2472,410,471
"Silay, Negros Occidental, Philippines",10.79968,122.97605,PLDT,84160,88984,84.16,88.98,22,2455,525,815
"Cabanatuan City, Nueva Ecija, Philippines",15.49943,121.01057,PLDT,71469,75148,71.47,75.15,11,2455,546,788
"Lapu-Lapu, Cebu, Philippines",10.31838,123.96395,Converge,114975,129197,114.98,129.20,3,2450,539,791
"Batangas City, Batangas, Philippines",13.75641,121.05833,PLDT Home Fiber,115611,106825,115.61,106.83,6,2443,670,1010
"General Mamerto Natividad, Nueva Ecija, Philippines",15.58788,121.04498,Converge,98749,108576,98.75,108.58,5,2439,669,1139
"Laurel, Batangas, Philippines",14.05302,120.9073,Converge,135027,211693,135.03,211.69,8,2438,581,970
"Mauban, Quezon, Philippines",14.23756,121.69674,Converge,148686,152309,148.69,152.31,12,2416,490,852
"Bokod, Benguet, Philippines",16.45641,120.78097,PLDT Home Fiber,94075,97039,94.08,97.04,6,2391,691,1077
"Naga, Cebu, Philippines",10.20764,123.75821,Globe,186422,159438,186.42,159.44,17,2378,851,1223
"Panglao, Bohol, Philippines",9.56947,123.78721,Converge,78718,72814,78.72,72.81,30,2368,113,191
"Compostela, Cebu, Philippines",10.45408,124.013,Globe,64329,56762,64.33,56.76,6,2352,506,939
"Mandaue, Cebu, Philippines",10.3279,123.94273,Globe,198672,169894,198.67,169.89,5,2330,481,586
"San Antonio, Nueva Ecija, Philippines",15.31921,120.82692,PLDT Home Fiber,94410,94791,94.41,94.79,11,2321,608,929
"Lipa City, Batangas, Philippines",13.94047,121.19395,Converge,135301,134583,135.30,134.58,7,2308,546,864
"Arayat, Pampanga, Philippines",15.15443,120.771,PLDT Home Fiber,94431,94653,94.43,94.65,10,2306,709,1100
"Cadiz City, Negros Occidental, Philippines",10.86192,123.23632,PLDT Home Fiber,83143,92033,83.14,92.03,7,2281,559,826
"Lipa City, Batangas, Philippines",13.94047,121.19395,PLDT,128815,124152,128.82,124.15,7,2274,625,870
"Malaybalay City, Bukidnon, Philippines",8.15775,125.17087,PLDT Home Fiber,94010,105400,94.01,105.40,10,2263,443,652
"SJDM, Bulacan, Philippines",14.82867,121.04324,PLDT Home Fiber,129860,109406,129.86,109.41,5,2244,624,898
"President Roxas, Cotabato, Philippines",7.37928,125.06084,PLDT Home Fiber,103341,95765,103.34,95.77,8,2216,656,951
"Lucban, Quezon, Philippines",14.1144,121.55472,PLDT Home Fiber,160828,179278,160.83,179.28,7,2214,547,924
"Dagupan City, Pangasinan, Philippines",16.03375,120.33202,Converge,91171,93664,91.17,93.66,5,2208,523,783
"Malolos, Bulacan, Philippines",14.86049,120.80916,PLDT,93919,93758,93.92,93.76,7,2208,445,636
"Angono, Rizal, Philippines",14.52592,121.15321,Converge,237605,217999,237.61,218.00,3,2195,579,938
"Diadi, Nueva Vizcaya, Philippines",16.6595,121.33129,Converge,95996,102498,96.00,102.50,10,2182,556,938
"Tiaong, Quezon, Philippines",13.92962,121.34273,Converge,193948,194832,193.95,194.83,5,2173,680,1176
"Castillejos, Zambales, Philippines",14.94382,120.19357,Converge,106850,109622,106.85,109.62,6,2169,618,1006
"Cabiao, Nueva Ecija, Philippines",15.25221,120.85957,PLDT Home Fiber,94250,96554,94.25,96.55,11,2166,613,981
"Carmen, Cebu, Philippines",10.58876,123.96385,PLDT Home Fiber,96273,130575,96.27,130.58,5,2164,583,854
"Cabanatuan City, Nueva Ecija, Philippines",15.49943,121.01057,PLDT Home Fiber,70447,93987,70.45,93.99,12,2156,486,733
"Cabuyao City, Laguna, Philippines",14.27433,121.11961,PLDT,94468,99298,94.47,99.30,9,2147,618,963
"Subic, Zambales, Philippines",14.83066,120.18202,Converge,102928,108004,102.93,108.00,5,2137,575,875
"Olongapo City, Zambales, Philippines",14.88739,120.36661,Converge,122064,130161,122.06,130.16,4,2107,640,945
"Santo Tomas, Batangas, Philippines",14.08754,121.17764,PLDT Home Fiber,113250,138215,113.25,138.22,10,2091,476,646
"Marilao, Bulacan, Philippines",14.77237,120.96001,Converge,174640,141129,174.64,141.13,7,2091,511,738
"Tuguegarao City, Cagayan, Philippines",17.60306,121.75374,PLDT,79325,83424,79.33,83.42,13,2086,525,736
"Candaba, Pampanga, Philippines",15.09289,120.8277,PLDT Home Fiber,96645,99257,96.65,99.26,8,2078,594,917
"Tanza, Cavite, Philippines",14.34293,120.85032,Converge,177537,184049,177.54,184.05,5,2056,464,684
"Navotas, Metro Manila, Philippines",14.65819,120.94743,Converge,175807,164332,175.81,164.33,5,2050,484,747
"San Pedro, Laguna, Philippines",14.36443,121.06192,Converge,194490,159927,194.49,159.93,6,2039,475,753
"Baguio, Benguet, Philippines",16.41297,120.5914,Globe,162822,148610,162.82,148.61,6,2024,390,509
"Angadanan, Isabela, Philippines",16.7913,121.78792,Converge,100743,108930,100.74,108.93,8,2007,481,794
"Isabela, Basilan, Philippines",6.70387,121.9799,Globe,132617,128709,132.62,128.71,15,1991,78,87
"Kidapawan, Cotabato, Philippines",7.02127,125.09019,PLDT Home Fiber,129922,101824,129.92,101.82,10,1943,575,759
"Butuan City, Agusan Del Norte, Philippines",8.94753,125.54063,Converge,66180,113240,66.18,113.24,41,1942,220,276
"Orani, Bataan, Philippines",14.80086,120.53616,Converge,102945,107678,102.95,107.68,6,1934,535,791
"Rosario, Cavite, Philippines",14.41672,120.85471,Converge,153276,155220,153.28,155.22,6,1920,480,729
"Polomolok, South Cotabato, Philippines",6.22451,125.06084,PLDT Home Fiber,85132,87668,85.13,87.67,11,1918,529,703
"Atok, Benguet, Philippines",16.59745,120.68901,PLDT Home Fiber,95970,94846,95.97,94.85,6,1917,655,965
"Silang, Cavite, Philippines",14.22025,120.96469,Converge,168630,191087,168.63,191.09,6,1858,366,571
"Candelaria, Quezon, Philippines",13.94899,121.42276,PLDT Home Fiber,94501,98090,94.50,98.09,6,1858,402,578
"Legazpi City, Albay, Philippines",13.11288,123.76295,Converge,92695,95448,92.70,95.45,5,1848,232,391
"Daet, Camarines Norte, Philippines",14.10303,122.9325,PLDT,57940,69708,57.94,69.71,8,1842,226,301
"Concepcion, Tarlac, Philippines",15.324,120.65596,PLDT Home Fiber,91439,86220,91.44,86.22,10,1837,449,684
"Santa Barbara, Pangasinan, Philippines",15.9774,120.42424,PLDT Home Fiber,98485,102994,98.49,102.99,7,1835,540,825
"Lapu-Lapu, Cebu, Philippines",10.31838,123.96395,PLDT Home Fiber,146791,171236,146.79,171.24,4,1829,406,529
"Nagcarlan, Laguna, Philippines",14.14903,121.38847,PLDT Home Fiber,128308,167322,128.31,167.32,7,1823,528,808
"Lucena City, Quezon, Philippines",13.94139,121.62345,PLDT,96928,110616,96.93,110.62,6,1798,494,762
"Arayat, Pampanga, Philippines",15.15443,120.771,Globe,220869,171757,220.87,171.76,6,1792,503,802
"Santa Fe, Nueva Vizcaya, Philippines",16.18249,120.91878,PLDT,88508,94272,88.51,94.27,7,1783,485,791
"Malasiqui, Pangasinan, Philippines",15.92028,120.41443,PLDT Home Fiber,127685,149967,127.69,149.97,9,1768,269,443
"Concepcion, Tarlac, Philippines",15.324,120.65596,PLDT,59885,61349,59.89,61.35,12,1763,434,631
"Mandaue, Cebu, Philippines",10.3279,123.94273,PLDT Home Fiber,141521,152507,141.52,152.51,3,1761,433,569
"Candaba, Pampanga, Philippines",15.09289,120.8277,Converge,133768,161403,133.77,161.40,4,1756,441,717
"Lubao, Pampanga, Philippines",14.92678,120.58795,PLDT Home Fiber,149730,125158,149.73,125.16,8,1745,449,702
"Kidapawan, Cotabato, Philippines",7.02127,125.09019,Converge,175305,183336,175.31,183.34,4,1728,213,262
"Navotas, Metro Manila, Philippines",14.65819,120.94743,PLDT Home Fiber,143202,159254,143.20,159.25,4,1727,443,621
"General Trias, Cavite, Philippines",14.38159,120.87915,PLDT,153727,131042,153.73,131.04,8,1719,362,508
"Tagaytay City, Cavite, Philippines",14.11541,120.96202,PLDT,108637,107308,108.64,107.31,9,1706,504,750
"Pandi, Bulacan, Philippines",14.87572,120.95941,PLDT,87584,86865,87.58,86.87,10,1703,425,630
"Imus, Cavite, Philippines",14.42764,120.93724,PLDT,147854,114736,147.85,114.74,7,1699,312,415
"Lucena City, Quezon, Philippines",13.94139,121.62345,Converge,125859,122951,125.86,122.95,10,1686,304,487
"San Fernando, Pampanga, Philippines",15.02781,120.69349,PLDT,61262,60774,61.26,60.77,13,1684,454,653
"General Santos City (Dadiangas), South Cotabato, Philippines",6.14327,125.19286,Globe,119038,116177,119.04,116.18,14,1678,336,433
"Tanza, Cavite, Philippines",14.34293,120.85032,PLDT Home Fiber,168111,185412,168.11,185.41,5,1672,423,547
"Mandaue, Cebu, Philippines",10.3279,123.94273,Converge,182801,172902,182.80,172.90,2,1663,401,599
"Talaingod, Davao del Norte, Philippines",7.68339,125.522,Globe,63751,56045,63.75,56.05,5,1658,569,875
"Lapu-Lapu, Cebu, Philippines",10.31838,123.96395,PLDT,104329,103714,104.33,103.71,3,1618,370,516
"Kibungan, Benguet, Philippines",16.68162,120.68901,PLDT Home Fiber,93754,94600,93.75,94.60,7,1609,493,750
"Talisay, Cebu, Philippines",10.25859,123.82413,Converge,211544,171629,211.54,171.63,16,1604,210,329
"General Santos City (Dadiangas), South Cotabato, Philippines",6.14327,125.19286,PLDT,80251,81120,80.25,81.12,11,1597,362,509
"Silang, Cavite, Philippines",14.22025,120.96469,PLDT,88269,89560,88.27,89.56,9,1594,424,617
"Salvador Benedicto, Negros Occidental, Philippines",10.5887,123.23632,PLDT Home Fiber,133922,156661,133.92,156.66,7,1590,528,793
"Valencia City, Bukidnon, Philippines",7.86319,125.17087,PLDT Home Fiber,88524,92669,88.52,92.67,7,1569,308,445
"Sagay City, Negros Occidental, Philippines",10.84555,123.37106,PLDT,69818,65948,69.82,65.95,15,1562,378,566
"Santa Maria, Bulacan, Philippines",14.82898,120.97616,Globe,203162,193864,203.16,193.86,8,1544,312,390
"Obando, Bulacan, Philippines",14.70986,120.93674,PLDT,93847,94482,93.85,94.48,5,1541,441,750
"Biñan, Laguna, Philippines",14.31456,121.08316,Globe,200430,154131,200.43,154.13,6,1520,348,513
"Carmona, Cavite, Philippines",14.3135,121.05712,PLDT,154864,160404,154.86,160.40,7,1514,415,558
"Kidapawan, Cotabato, Philippines",7.02127,125.09019,PLDT,109555,94253,109.56,94.25,9,1497,455,637
"Talisay, Negros Occidental, Philippines",10.74828,122.98012,PLDT Home Fiber,90248,94576,90.25,94.58,9,1493,325,482
"Rosario, Batangas, Philippines",13.80433,121.28552,Globe,241997,244981,242.00,244.98,6,1489,470,709
"Calatrava, Negros Occidental, Philippines",10.62843,123.39349,PLDT Home Fiber,86647,93800,86.65,93.80,6,1487,378,574
"Angono, Rizal, Philippines",14.52592,121.15321,PLDT Home Fiber,152285,146532,152.29,146.53,4,1486,309,429
"Talisay, Cebu, Philippines",10.25859,123.82413,PLDT Home Fiber,106730,117579,106.73,117.58,3,1447,265,331
"Talisay, Cebu, Philippines",10.25859,123.82413,Globe,197753,174972,197.75,174.97,9,1441,319,416
"Mexico, Pampanga, Philippines",15.06457,120.72033,PLDT Home Fiber,92993,93766,92.99,93.77,9,1439,431,627
"Candaba, Pampanga, Philippines",15.09289,120.8277,Globe,252563,220908,252.56,220.91,6,1427,343,574
"Navotas, Metro Manila, Philippines",14.65819,120.94743,PLDT,86266,91436,86.27,91.44,7,1422,535,747
"San Nicolas, Pangasinan, Philippines",16.12066,120.78097,PLDT,94238,97105,94.24,97.11,7,1414,451,694
"Bulakan, Bulacan, Philippines",14.79484,120.87889,PLDT,87999,79362,88.00,79.36,8,1390,390,585
"Taytay, Rizal, Philippines",14.55288,121.12571,Globe,297956,255803,297.96,255.80,5,1385,304,385
"Cagayan De Oro City, Misamis Oriental, Philippines",8.48029,124.64975,PLDT,71493,72030,71.49,72.03,14,1377,354,509
"Consolacion, Cebu, Philippines",10.37581,123.95694,PLDT,92663,94570,92.66,94.57,8,1364,280,388
"San Pedro, Laguna, Philippines",14.36443,121.06192,Globe,212375,181774,212.38,181.77,8,1360,314,401
"Minglanilla, Cebu, Philippines",10.24543,123.79599,Globe,138219,127684,138.22,127.68,16,1348,415,585
"Sultan Kudarat (Nuling), Maguindanao, Philippines",7.26221,124.30883,PLDT Home Fiber,107711,101467,107.71,101.47,11,1345,117,167
"Naga City, Camarines Sur, Philippines",13.6475,123.27003,Globe,122489,118768,122.49,118.77,12,1344,253,328
"Mandaue, Cebu, Philippines",10.3279,123.94273,PLDT,76901,81060,76.90,81.06,4,1343,318,481
"Pasay City, Metro Manila, Philippines",14.53767,121.00081,Globe,252769,224977,252.77,224.98,4,1334,345,467
"Guagua, Pampanga, Philippines",14.96374,120.63244,Converge,56740,56490,56.74,56.49,4,1331,295,479
"Sariaya, Quezon, Philippines",13.96301,121.52388,PLDT Home Fiber,96929,97749,96.93,97.75,5,1329,338,521
"San Ildefonso, Bulacan, Philippines",15.07717,120.94171,Globe,219508,202831,219.51,202.83,6,1307,387,570
"Talisay, Cebu, Philippines",10.25859,123.82413,PLDT,110344,113993,110.34,113.99,3,1306,277,356
"Barili, Cebu, Philippines",10.1254,123.55041,PLDT Home Fiber,98447,151989,98.45,151.99,7,1295,377,549
"Bocaue, Bulacan, Philippines",14.7943,120.93073,PLDT,94079,94222,94.08,94.22,6,1292,406,585
"Santiago, Isabela, Philippines",16.69679,121.55865,PLDT Home Fiber,65005,66989,65.01,66.99,15,1281,220,319
"Malolos, Bulacan, Philippines",14.86049,120.80916,Converge,112316,104066,112.32,104.07,6,1272,283,389
"Tagum, Davao del Norte, Philippines",7.44742,125.80246,PLDT Home Fiber,100400,95649,100.40,95.65,8,1271,308,412
"Surigao, Surigao del Norte, Philippines",9.79022,125.49311,PLDT Home Fiber,68796,75251,68.80,75.25,11,1271,171,230
"Tagum, Davao del Norte, Philippines",7.44742,125.80246,Converge,137733,147571,137.73,147.57,4,1270,199,244
"Pagadian City, Zamboanga del Sur, Philippines",7.86265,123.37106,PLDT Home Fiber,91778,92184,91.78,92.18,6,1269,231,334
"San Isidro, Nueva Ecija, Philippines",15.29656,120.9073,PLDT Home Fiber,94496,94362,94.50,94.36,10,1261,334,531
"San Jose City, Nueva Ecija, Philippines",15.79188,120.99008,PLDT Home Fiber,91273,93869,91.27,93.87,13,1260,177,234
"San Ildefonso, Bulacan, Philippines",15.07717,120.94171,PLDT Home Fiber,90814,94224,90.81,94.22,7,1258,363,546
"Sagay City, Negros Occidental, Philippines",10.84555,123.37106,PLDT Home Fiber,71869,77711,71.87,77.71,8,1252,309,473
"Sarrat, Ilocos Norte, Philippines",18.11379,120.6545,Converge,97476,108706,97.48,108.71,10,1246,349,536
"Dona Remedios Trinidad, Bulacan, Philippines",15.11427,121.21685,PLDT,57595,32583,57.60,32.58,12,1244,293,468
"Dumaguete City, Negros Oriental, Philippines",9.29841,123.29249,PLDT,100168,139616,100.17,139.62,5,1230,154,228
"Dagupan City, Pangasinan, Philippines",16.03375,120.33202,PLDT,53545,70280,53.55,70.28,9,1223,320,474
"San Miguel, Bulacan, Philippines",15.14158,120.9751,PLDT Home Fiber,131156,115811,131.16,115.81,9,1222,235,356
"Dumaguete City, Negros Oriental, Philippines",9.29841,123.29249,Globe,148186,131956,148.19,131.96,11,1222,234,331
"Meycauayan, Bulacan, Philippines",14.73772,120.96077,Globe,231357,194763,231.36,194.76,8,1216,298,367
"Madamba, Lanao del Sur, Philippines",7.86931,124.06971,PLDT Home Fiber,117288,100384,117.29,100.38,6,1212,386,602
"City of Guihulngan, Negros Oriental, Philippines",10.18323,123.21385,PLDT Home Fiber,87891,93667,87.89,93.67,6,1211,364,523
"Calauan, Laguna, Philippines",14.14551,121.3146,PLDT Home Fiber,93557,111367,93.56,111.37,10,1210,209,321
"Batangas City, Batangas, Philippines",13.75641,121.05833,PLDT,95898,97015,95.90,97.02,7,1210,397,562
"Mexico, Pampanga, Philippines",15.06457,120.72033,PLDT,74649,88378,74.65,88.38,12,1206,330,471
"SJDM, Bulacan, Philippines",14.82867,121.04324,Globe,204420,192665,204.42,192.67,8,1205,286,376
"San Mateo, Rizal, Philippines",14.69539,121.11767,Converge,145180,141165,145.18,141.17,4,1202,330,433
"City of Santa Rosa, Laguna, Philippines",14.31471,121.11232,Globe,152627,139087,152.63,139.09,7,1196,360,482
"Dolores, Quezon, Philippines",14.00193,121.41133,PLDT Home Fiber,172202,143660,172.20,143.66,6,1194,309,490
"City of Santa Rosa, Laguna, Philippines",14.31471,121.11232,Converge,149775,148618,149.78,148.62,6,1176,233,384
"Plaridel, Bulacan, Philippines",14.88591,120.85932,PLDT Home Fiber,154103,123771,154.10,123.77,7,1169,336,513
"Tagum, Davao del Norte, Philippines",7.44742,125.80246,Globe,122158,123311,122.16,123.31,5,1161,214,266
"Vallehermoso, Negros Oriental, Philippines",10.33905,123.29249,PLDT Home Fiber,100286,149110,100.29,149.11,5,1160,348,538
"Lubao, Pampanga, Philippines",14.92678,120.58795,Converge,90324,87272,90.32,87.27,4,1152,269,424
"Malabon, Metro Manila, Philippines",14.65793,120.95118,Globe,253657,219889,253.66,219.89,5,1138,289,350
"Surigao, Surigao del Norte, Philippines",9.79022,125.49311,Converge,74699,156735,74.70,156.74,52,1136,108,135
"Marilao, Bulacan, Philippines",14.77237,120.96001,PLDT,56574,57978,56.57,57.98,10,1135,381,579
"Calatrava, Negros Occidental, Philippines",10.62843,123.39349,PLDT,94807,104906,94.81,104.91,6,1133,346,502
"Tuguegarao City, Cagayan, Philippines",17.60306,121.75374,Converge,77123,75780,77.12,75.78,12,1131,289,426
"Magsaysay, Davao del Sur, Philippines",6.75271,125.15221,PLDT Home Fiber,96612,94606,96.61,94.61,9,1129,371,549
"Tanjay City, Negros Oriental, Philippines",9.49579,122.9663,PLDT Home Fiber,112363,98336,112.36,98.34,10,1128,234,365
"Cadiz City, Negros Occidental, Philippines",10.86192,123.23632,PLDT,53518,53128,53.52,53.13,14,1126,315,478
"Marilao, Bulacan, Philippines",14.77237,120.96001,Globe,250321,230940,250.32,230.94,8,1126,268,346
"Legazpi City, Albay, Philippines",13.11288,123.76295,Globe,119624,106990,119.62,106.99,24,1118,160,211
"San Simon, Pampanga, Philippines",14.98432,120.75127,Converge,148628,181078,148.63,181.08,5,1116,359,541
"Angeles, Pampanga, Philippines",15.16061,120.60908,Globe,122024,109294,122.02,109.29,4,1111,248,331
"Mabalacat City, Pampanga, Philippines",15.24525,120.56567,PLDT,71899,75287,71.90,75.29,14,1103,253,364
"Cabiao, Nueva Ecija, Philippines",15.25221,120.85957,Globe,125913,108988,125.91,108.99,5,1100,227,395
"Carmona, Cavite, Philippines",14.3135,121.05712,Globe,213105,193965,213.11,193.97,6,1099,277,446
"Dumanjug, Cebu, Philippines",10.02819,123.47198,PLDT Home Fiber,117100,142312,117.10,142.31,6,1096,306,453
"Bulakan, Bulacan, Philippines",14.79484,120.87889,PLDT Home Fiber,100803,94453,100.80,94.45,6,1089,252,353
"Kapangan, Benguet, Philippines",16.61238,120.59698,PLDT Home Fiber,94674,94755,94.67,94.76,6,1087,318,486
"Santa Fe, Nueva Vizcaya, Philippines",16.18249,120.91878,PLDT Home Fiber,94157,94378,94.16,94.38,6,1078,330,501
"Biñan, Laguna, Philippines",14.31456,121.08316,Converge,183091,168010,183.09,168.01,6,1065,276,425
"Santo Nino, Cagayan, Philippines",17.91267,121.49132,Converge,94485,94474,94.49,94.47,12,1064,280,476
"Liloan, Cebu, Philippines",10.39926,124.00002,Globe,204092,179102,204.09,179.10,4,1061,217,263
"Matalam, Cotabato, Philippines",7.17236,124.92861,PLDT Home Fiber,127960,94629,127.96,94.63,9,1053,323,442
"Rodriguez, Rizal, Philippines",14.73202,121.14516,Converge,159406,159654,159.41,159.65,5,1042,310,397
"Santa Rita, Pampanga, Philippines",14.99762,120.61451,PLDT Home Fiber,102701,94546,102.70,94.55,8,1040,312,505
"Plaridel, Bulacan, Philippines",14.88591,120.85932,Converge,120951,103674,120.95,103.67,7,1029,199,282
"Naga City, Camarines Sur, Philippines",13.6475,123.27003,PLDT,69323,72861,69.32,72.86,14,1028,256,380
"Tuburan, Cebu, Philippines",10.66879,123.86345,PLDT Home Fiber,89254,94468,89.25,94.47,6,1017,259,373
"Naic, Cavite, Philippines",14.29649,120.79246,PLDT Home Fiber,106227,106695,106.23,106.70,7,1015,212,275
"Indang, Cavite, Philippines",14.19204,120.87286,PLDT,98830,94600,98.83,94.60,8,1010,289,441
"Mabalacat City, Pampanga, Philippines",15.24525,120.56567,PLDT Home Fiber,121081,115666,121.08,115.67,8,1009,250,367
"Zamboanga City, Zamboanga del Sur, Philippines",6.90437,122.07612,Converge,94043,93245,94.04,93.25,21,1009,207,257
"Ibaan, Batangas, Philippines",13.81895,121.13082,Globe,175618,182008,175.62,182.01,7,1006,317,516
"Apalit, Pampanga, Philippines",14.95255,120.76688,PLDT Home Fiber,124683,107813,124.68,107.81,6,1006,225,319
"Buguias, Benguet, Philippines",16.74318,120.82692,PLDT Home Fiber,94322,94673,94.32,94.67,6,1002,276,430
"Cotabato City, Maguindanao, Philippines",7.20467,124.23104,PLDT,84813,79225,84.81,79.23,13,1002,192,288
"Trento, Agusan del Sur, Philippines",8.05257,126.21969,PLDT Home Fiber,90458,94426,90.46,94.43,18,1001,242,336
"Calumpit, Bulacan, Philippines",14.91518,120.7662,PLDT Home Fiber,101919,101586,101.92,101.59,8,1001,229,308
"Taysan, Batangas, Philippines",13.76108,121.2283,Globe,165095,143410,165.10,143.41,8,990,244,347
"Iligan City, Lanao del Norte, Philippines",8.22707,124.46418,Globe,125308,43517,125.31,43.52,13,988,206,257
"Talisay, Negros Occidental, Philippines",10.74828,122.98012,PLDT,52734,56036,52.73,56.04,18,985,256,401
"Santo Tomas, Batangas, Philippines",14.08754,121.17764,Globe,205622,170413,205.62,170.41,6,974,312,428
"Tacloban City, Leyte, Philippines",11.22238,124.99221,PLDT,76325,70835,76.33,70.84,11,973,264,372
"Lubao, Pampanga, Philippines",14.92678,120.58795,PLDT,61944,55421,61.94,55.42,12,968,239,349
"Pulilan, Bulacan, Philippines",14.90243,120.8459,PLDT Home Fiber,129002,126265,129.00,126.27,6,966,331,501
"Palayan City, Nueva Ecija, Philippines",15.53906,121.09083,Converge,94127,94705,94.13,94.71,6,962,239,370
"Guiguinto, Bulacan, Philippines",14.82832,120.88429,PLDT,91210,95181,91.21,95.18,7,960,264,366
"San Nicolas, Batangas, Philippines",13.99452,120.99337,Globe,282153,253528,282.15,253.53,7,953,309,494
"Ormoc City, Leyte, Philippines",11.03843,124.61927,Globe,123738,114983,123.74,114.98,16,952,181,248
"Capas, Tarlac, Philippines",15.34633,120.59344,Converge,94282,96463,94.28,96.46,4,950,295,418
"Digos, Davao del Sur, Philippines",6.74347,125.35515,Converge,142859,172615,142.86,172.62,4,949,175,209
"Puerto Princesa City, Palawan, Philippines",9.78563,118.62648,PLDT Home Fiber,86687,85527,86.69,85.53,18,944,204,308
"San Manuel, Pangasinan, Philippines",16.10561,120.67751,PLDT Home Fiber,94447,111829,94.45,111.83,7,934,224,343
"Santiago, Ilocos Sur, Philippines",17.28073,120.44729,Converge,97080,130391,97.08,130.39,9,932,213,337
"Guagua, Pampanga, Philippines",14.96374,120.63244,PLDT Home Fiber,113474,122259,113.47,122.26,9,920,247,370
"Porac, Pampanga, Philippines",15.06974,120.55007,Converge,160000,159949,160.00,159.95,3,920,263,367
"Mayoyao, Ifugao, Philippines",16.95131,121.21685,PLDT Home Fiber,101837,96954,101.84,96.95,9,915,285,430
"San Pablo City, Laguna, Philippines",14.06422,121.32326,PLDT,95039,95437,95.04,95.44,9,912,302,419
"Concepcion, Tarlac, Philippines",15.324,120.65596,Converge,67078,59499,67.08,59.50,5,911,233,339
"Naic, Cavite, Philippines",14.29649,120.79246,PLDT,86569,87531,86.57,87.53,9,909,274,372
"Panabo City, Davao del Norte, Philippines",7.30822,125.68662,Converge,164963,149310,164.96,149.31,5,905,138,168
"Legazpi City, Albay, Philippines",13.11288,123.76295,PLDT,82653,80037,82.65,80.04,18,905,214,328
"Digos, Davao del Sur, Philippines",6.74347,125.35515,Globe,121449,117251,121.45,117.25,4,903,126,156
"Daraga, Albay, Philippines",13.12278,123.69588,Converge,94455,100678,94.46,100.68,16,899,117,194
"Jaen, Nueva Ecija, Philippines",15.39558,120.87286,PLDT Home Fiber,94462,94559,94.46,94.56,10,895,258,404
"San Juan, Batangas, Philippines",13.75044,121.37703,PLDT Home Fiber,97399,93718,97.40,93.72,9,895,239,344
"Tacurong City, Sultan Kudarat, Philippines",6.6866,124.66353,PLDT Home Fiber,77750,59191,77.75,59.19,11,894,137,189
"Talisay, Batangas, Philippines",14.11598,121.04498,PLDT,147563,116147,147.56,116.15,6,889,259,395
"Malvar, Batangas, Philippines",14.04329,121.15875,PLDT Home Fiber,111660,129512,111.66,129.51,9,887,167,225
"Magalang, Pampanga, Philippines",15.21394,120.66181,PLDT,62078,81698,62.08,81.70,12,878,199,300
"Trece Martires City, Cavite, Philippines",14.28222,120.86837,PLDT Home Fiber,161665,166058,161.67,166.06,4,875,248,338
"Gapan City, Nueva Ecija, Philippines",15.29121,121.01057,PLDT Home Fiber,98224,94511,98.22,94.51,12,874,220,338
"Pagadian City, Zamboanga del Sur, Philippines",7.86265,123.37106,Globe,91177,52422,91.18,52.42,7,874,143,192
"Tuba, Benguet, Philippines",16.39277,120.56034,PLDT Home Fiber,100395,94211,100.40,94.21,6,873,231,345
"Binangonan, Rizal, Philippines",14.48441,121.1869,Globe,189636,179421,189.64,179.42,4,872,244,337
"President Roxas, Cotabato, Philippines",7.37928,125.06084,PLDT,94499,94985,94.50,94.99,8,870,285,397
"Victorias, Negros Occidental, Philippines",10.901,123.07045,PLDT Home Fiber,105125,125083,105.13,125.08,7,866,204,292
"Dipolog City, Zamboanga del Norte, Philippines",8.58717,123.34035,PLDT Home Fiber,88125,88769,88.13,88.77,10,866,197,262
"Dipolog City, Zamboanga del Norte, Philippines",8.58717,123.34035,Globe,126513,42806,126.51,42.81,12,865,79,99
"Tagbilaran City, Bohol, Philippines",9.6534,123.86703,PLDT Home Fiber,125328,118874,125.33,118.87,8,859,179,257
"Rodriguez, Rizal, Philippines",14.73202,121.14516,Globe,211331,196697,211.33,196.70,4,856,198,248
"Capas, Tarlac, Philippines",15.34633,120.59344,PLDT,71441,68675,71.44,68.68,8,849,120,165
"Rosario, Cavite, Philippines",14.41672,120.85471,PLDT,71681,78620,71.68,78.62,8,847,200,289
"Batangas City, Batangas, Philippines",13.75641,121.05833,Converge,110401,140422,110.40,140.42,8,846,161,243
"Obando, Bulacan, Philippines",14.70986,120.93674,PLDT Home Fiber,144145,162076,144.15,162.08,4,846,130,170
"Iriga City, Camarines Sur, Philippines",13.42095,123.41361,PLDT Home Fiber,125245,164434,125.25,164.43,13,846,131,184
"City of Batac, Ilocos Norte, Philippines",18.04961,120.59698,Converge,97290,108776,97.29,108.78,10,844,242,406
"Cabuyao City, Laguna, Philippines",14.27433,121.11961,Converge,144922,127123,144.92,127.12,5,843,118,200
"Rosario, Batangas, Philippines",13.80433,121.28552,Converge,77643,121148,77.64,121.15,16,841,77,118
"Meycauayan, Bulacan, Philippines",14.73772,120.96077,Converge,184611,158199,184.61,158.20,8,838,230,326
"Pililla, Rizal, Philippines",14.44393,121.34273,PLDT,94275,94399,94.28,94.40,5,835,232,388
"Sindangan, Zamboanga del Norte, Philippines",8.19151,123.05639,PLDT Home Fiber,48722,44732,48.72,44.73,12,829,86,110
"Concepcion, Tarlac, Philippines",15.324,120.65596,Globe,280109,268503,280.11,268.50,5,829,253,397
"Roxas City, Capiz, Philippines",11.55288,122.74072,PLDT Home Fiber,88648,96452,88.65,96.45,9,829,177,229
"Orani, Bataan, Philippines",14.80086,120.53616,PLDT,63055,68542,63.06,68.54,18,826,196,306
"San Manuel, Pangasinan, Philippines",16.10561,120.67751,PLDT,94217,94381,94.22,94.38,7,809,239,391
"Dumaguete City, Negros Oriental, Philippines",9.29841,123.29249,PLDT Home Fiber,112504,177956,112.50,177.96,5,807,148,210
"Quezon, Nueva Ecija, Philippines",15.56953,120.82692,Globe,133143,142740,133.14,142.74,6,806,187,304
"Calapan City, Oriental Mindoro, Philippines",13.36643,121.19395,PLDT,66374,62118,66.37,62.12,13,806,299,389
"Cotabato City, Maguindanao, Philippines",7.20467,124.23104,PLDT Home Fiber,92399,106640,92.40,106.64,12,801,165,244
"La Carlota City, Negros Occidental, Philippines",10.41437,122.97757,PLDT Home Fiber,166121,214206,166.12,214.21,4,796,230,361
"La Paz, Tarlac, Philippines",15.4497,120.7235,PLDT Home Fiber,111318,100038,111.32,100.04,9,788,195,286
"Virac, Catanduanes, Philippines",13.61939,124.17544,PLDT Home Fiber,60957,64986,60.96,64.99,11,787,125,184
"Danao, Cebu, Philippines",10.52013,124.02712,PLDT,48427,48626,48.43,48.63,7,787,152,210
"Rosario, Batangas, Philippines",13.80433,121.28552,PLDT Home Fiber,99187,101845,99.19,101.85,6,787,186,244
"Makilala, Cotabato, Philippines",6.92343,125.08286,PLDT Home Fiber,93536,93972,93.54,93.97,9,787,233,314
"Baliwag, Bulacan, Philippines",14.96569,120.89431,PLDT,94246,94484,94.25,94.48,9,784,178,247
"Tanza, Cavite, Philippines",14.34293,120.85032,Globe,125707,114055,125.71,114.06,7,778,218,279
"Pozorrubio, Pangasinan, Philippines",16.11642,120.54316,PLDT,74797,83316,74.80,83.32,13,778,173,270
"Plaridel, Bulacan, Philippines",14.88591,120.85932,PLDT,98950,93839,98.95,93.84,5,777,223,329
"Puerto Princesa City, Palawan, Philippines",9.78563,118.62648,PLDT,87396,93932,87.40,93.93,18,776,177,252
"Borbon, Cebu, Philippines",10.84627,123.9973,Globe,157142,143461,157.14,143.46,19,775,254,388
"Santo Tomas, Batangas, Philippines",14.08754,121.17764,PLDT,76878,70452,76.88,70.45,9,775,156,207
"Candelaria, Quezon, Philippines",13.94899,121.42276,PLDT,84733,91884,84.73,91.88,9,773,184,238
"Salvador Benedicto, Negros Occidental, Philippines",10.5887,123.23632,PLDT,148348,173833,148.35,173.83,5,772,242,347
"Magalang, Pampanga, Philippines",15.21394,120.66181,PLDT Home Fiber,88706,93544,88.71,93.54,10,770,266,393
"Alfonso, Cavite, Philippines",14.1214,120.86138,PLDT,167572,176585,167.57,176.59,8,769,187,311
"Silang, Cavite, Philippines",14.22025,120.96469,Globe,174422,150742,174.42,150.74,6,768,202,285
"Carmona, Cavite, Philippines",14.3135,121.05712,Converge,206593,230711,206.59,230.71,6,767,157,248
"San Rafael, Bulacan, Philippines",15.00184,120.93141,Globe,190410,185265,190.41,185.27,7,755,190,296
"Daraga, Albay, Philippines",13.12278,123.69588,Globe,147717,121732,147.72,121.73,26,753,112,140
"Meycauayan, Bulacan, Philippines",14.73772,120.96077,PLDT,87176,88254,87.18,88.25,8,752,210,335
"Oton, Iloilo, Philippines",10.69251,122.47868,PLDT Home Fiber,91408,109484,91.41,109.48,8,750,95,128
"Santa Rosa, Nueva Ecija, Philippines",15.42502,120.93838,PLDT Home Fiber,88823,92305,88.82,92.31,12,750,168,257
"Balagtas, Bulacan, Philippines",14.81784,120.90646,PLDT Home Fiber,117171,113786,117.17,113.79,7,748,154,226
"Roxas City, Capiz, Philippines",11.55288,122.74072,Globe,119998,113595,120.00,113.60,10,747,136,172
"San Jose City, Nueva Ecija, Philippines",15.79188,120.99008,Converge,137490,162567,137.49,162.57,5,746,188,260
"Urdaneta City, Pangasinan, Philippines",15.98194,120.59698,PLDT,75135,90354,75.14,90.35,8,740,164,243
"Santo Tomas, Davao del Norte, Philippines",7.50929,125.63142,PLDT Home Fiber,60144,70301,60.14,70.30,9,740,108,147
"Enrique B. Magalona, Negros Occidental, Philippines",10.87695,122.98281,PLDT Home Fiber,94279,94562,94.28,94.56,9,737,136,206
"Daet, Camarines Norte, Philippines",14.10303,122.9325,Converge,75348,74615,75.35,74.62,5,734,114,178
"Tubay, Agusan Del Norte, Philippines",9.20362,125.55484,PLDT,26423,32096,26.42,32.10,12,734,4,4
"Mexico, Pampanga, Philippines",15.06457,120.72033,Globe,152233,145148,152.23,145.15,6,734,197,283
"Guimba, Nueva Ecija, Philippines",15.65641,120.76767,PLDT,81030,92835,81.03,92.84,13,732,121,169
"Liloan, Cebu, Philippines",10.39926,124.00002,PLDT,110013,144410,110.01,144.41,4,726,111,163
"Bayombong, Nueva Vizcaya, Philippines",16.48042,121.14813,Converge,94038,98564,94.04,98.56,11,725,184,283
"Laurel, Batangas, Philippines",14.05302,120.9073,Globe,94364,86101,94.36,86.10,5,724,226,458
"San Mateo, Rizal, Philippines",14.69539,121.11767,Globe,213219,209385,213.22,209.39,5,723,175,220
"Baungon, Bukidnon, Philippines",8.21754,124.75198,PLDT Home Fiber,158454,142761,158.45,142.76,6,723,225,339
"Bay, Laguna, Philippines",14.14064,121.26836,PLDT Home Fiber,154951,182111,154.95,182.11,7,719,157,241
"San Luis, Pampanga, Philippines",15.03986,120.81544,Globe,190322,182656,190.32,182.66,6,718,223,322
"Bauan, Batangas, Philippines",13.79627,120.97616,Globe,62599,54330,62.60,54.33,6,715,205,349
"Tacloban City, Leyte, Philippines",11.22238,124.99221,Globe,164462,153497,164.46,153.50,15,714,164,206
"Bustos, Bulacan, Philippines",14.95239,120.91735,PLDT,89436,91018,89.44,91.02,10,711,190,284
"City of Cabadbaran, Agusan Del Norte, Philippines",9.14092,125.697,PLDT Home Fiber,92810,93371,92.81,93.37,10,708,138,187
"Santa Cruz, Davao del Sur, Philippines",6.83551,125.41659,PLDT Home Fiber,98280,82586,98.28,82.59,9,702,199,295
"Tuguegarao City, Cagayan, Philippines",17.60306,121.75374,PLDT Home Fiber,82733,80715,82.73,80.72,13,699,174,233
"Ozamiz, Misamis Occidental, Philippines",8.15,123.85033,PLDT Home Fiber,76111,87359,76.11,87.36,6,689,84,107
"Bago, Negros Occidental, Philippines",10.53757,122.83609,PLDT,60024,70222,60.02,70.22,7,682,118,169
"Calabanga, Camarines Sur, Philippines",13.71633,123.28126,PLDT Home Fiber,103237,94590,103.24,94.59,9,681,85,100
"Polomolok, South Cotabato, Philippines",6.22451,125.06084,Globe,112596,75207,112.60,75.21,13,680,103,129
"San Ildefonso, Bulacan, Philippines",15.07717,120.94171,PLDT,53838,56403,53.84,56.40,10,679,110,141
"Los Baños, Laguna, Philippines",14.17731,121.22161,PLDT,89530,93733,89.53,93.73,8,677,182,268
"Ligao City, Albay, Philippines",13.17242,123.4944,Converge,52269,73687,52.27,73.69,18,676,143,233
"Baliwag, Bulacan, Philippines",14.96569,120.89431,Globe,166404,141015,166.40,141.02,8,670,147,182
"Surallah, South Cotabato, Philippines",6.3195,124.75198,PLDT Home Fiber,74399,89770,74.40,89.77,11,669,150,213
"Guiguinto, Bulacan, Philippines",14.82832,120.88429,PLDT Home Fiber,164571,148211,164.57,148.21,9,668,211,295
"San Leonardo, Nueva Ecija, Philippines",15.37285,120.95321,PLDT Home Fiber,78088,90230,78.09,90.23,12,668,137,207
"Sibonga, Cebu, Philippines",10.01547,123.584,PLDT Home Fiber,107120,140480,107.12,140.48,8,666,173,241
"Villasis, Pangasinan, Philippines",15.90523,120.55094,PLDT Home Fiber,82128,103606,82.13,103.61,11,662,183,295
"Kalayaan, Laguna, Philippines",14.32356,121.47757,Globe,102604,98398,102.60,98.40,6,662,196,327
"Iligan City, Lanao del Norte, Philippines",8.22707,124.46418,PLDT,65272,79673,65.27,79.67,23,659,231,327
"Tagbilaran City, Bohol, Philippines",9.6534,123.86703,Globe,164932,140507,164.93,140.51,12,654,107,146
"Umingan, Pangasinan, Philippines",15.90396,120.82692,PLDT Home Fiber,102673,120245,102.67,120.25,11,650,165,260
"Carcar, Cebu, Philippines",10.10478,123.64147,PLDT Home Fiber,91486,94069,91.49,94.07,5,647,72,101
"Jaen, Nueva Ecija, Philippines",15.39558,120.87286,PLDT,56681,54167,56.68,54.17,17,646,140,224
"Norzagaray, Bulacan, Philippines",14.89659,121.14813,PLDT,79107,74019,79.11,74.02,10,645,182,232
"Pagbilao, Quezon, Philippines",13.99683,121.73095,PLDT Home Fiber,153772,191887,153.77,191.89,6,640,169,271
"Santo Domingo, Nueva Ecija, Philippines",15.61284,120.88434,PLDT,56625,55540,56.63,55.54,19,639,128,189
"Pikit, Cotabato, Philippines",7.05314,124.61927,PLDT Home Fiber,74352,94156,74.35,94.16,11,637,160,255
"Nabua, Camarines Sur, Philippines",13.4069,123.37324,PLDT Home Fiber,86438,113298,86.44,113.30,9,635,117,161
"San Fernando City, La Union, Philippines",16.61592,120.32102,PLDT Home Fiber,107634,101662,107.63,101.66,3,628,148,209
"Argao, Cebu, Philippines",9.88114,123.60535,PLDT,43724,94531,43.72,94.53,13,627,80,103
"Pagadian City, Zamboanga del Sur, Philippines",7.86265,123.37106,PLDT,55342,52998,55.34,53.00,20,622,152,231
"Porac, Pampanga, Philippines",15.06974,120.55007,PLDT Home Fiber,99441,111233,99.44,111.23,8,621,167,250
"Rodriguez, Rizal, Philippines",14.73202,121.14516,PLDT,56497,57962,56.50,57.96,6,619,137,184
"Compostela, Cebu, Philippines",10.45408,124.013,PLDT Home Fiber,98902,119917,98.90,119.92,5,619,205,312
"San Fernando, Pampanga, Philippines",15.02781,120.69349,Globe,121221,104482,121.22,104.48,5,619,162,232
"Manaoag, Pangasinan, Philippines",16.04627,120.4876,PLDT Home Fiber,75445,94663,75.45,94.66,10,613,122,185
"Penablanca, Cagayan, Philippines",17.66268,121.94731,PLDT,52634,77910,52.63,77.91,12,612,200,273
"Trece Martires City, Cavite, Philippines",14.28222,120.86837,Globe,193983,172242,193.98,172.24,6,610,160,201
"Puerto Princesa City, Palawan, Philippines",9.78563,118.62648,Converge,106023,93772,106.02,93.77,16,610,122,184
"Toledo, Cebu, Philippines",10.38705,123.65017,PLDT,39366,30594,39.37,30.59,8,609,102,138
"Pandi, Bulacan, Philippines",14.87572,120.95941,Globe,136651,112079,136.65,112.08,8,609,111,143
"Consolacion, Cebu, Philippines",10.37581,123.95694,Converge,136837,174224,136.84,174.22,3,608,145,200
"Liloan, Cebu, Philippines",10.39926,124.00002,Converge,162716,173727,162.72,173.73,3,607,164,203
"Hagonoy, Bulacan, Philippines",14.83564,120.73371,PLDT,95350,96916,95.35,96.92,7,605,137,176
"M'lang, Cotabato, Philippines",6.93822,124.90655,PLDT Home Fiber,95329,95429,95.33,95.43,10,604,176,260
"Norzagaray, Bulacan, Philippines",14.89659,121.14813,Converge,103639,93523,103.64,93.52,8,603,123,160
"Baler, Aurora, Philippines",15.73361,121.57125,PLDT,61680,67154,61.68,67.15,15,603,122,162
"Baliwag, Bulacan, Philippines",14.96569,120.89431,Converge,137468,125246,137.47,125.25,7,601,134,187
"Mambajao, Camiguin, Philippines",9.22153,124.71882,PLDT Home Fiber,53457,52440,53.46,52.44,5,601,84,111
"Carcar, Cebu, Philippines",10.10478,123.64147,Globe,162034,131373,162.03,131.37,15,600,158,207
"Balanga City, Bataan, Philippines",14.67454,120.47033,Converge,128611,114545,128.61,114.55,4,599,137,205
"Muñoz, Nueva Ecija, Philippines",15.70664,120.9029,Converge,117151,112902,117.15,112.90,6,597,151,230
"Malolos, Bulacan, Philippines",14.86049,120.80916,Globe,141487,134731,141.49,134.73,7,597,155,193
"Cabuyao City, Laguna, Philippines",14.27433,121.11961,Globe,192844,178457,192.84,178.46,6,595,112,176
"Iriga City, Camarines Sur, Philippines",13.42095,123.41361,PLDT,95320,89462,95.32,89.46,11,595,77,107
"Balanga City, Bataan, Philippines",14.67454,120.47033,PLDT Home Fiber,151396,150131,151.40,150.13,7,594,164,236
"Carranglan, Nueva Ecija, Philippines",15.97584,121.03351,PLDT Home Fiber,93804,94116,93.80,94.12,9,593,139,236
"Laoag City, Ilocos Norte, Philippines",18.21075,120.58547,PLDT Home Fiber,101334,95990,101.33,95.99,7,592,157,222
"Panabo City, Davao del Norte, Philippines",7.30822,125.68662,PLDT,97562,82567,97.56,82.57,8,591,107,144
"Palo, Leyte, Philippines",11.15847,124.99191,PLDT,72843,80910,72.84,80.91,19,590,155,213
"Alicia, Isabela, Philippines",16.80691,121.69674,PLDT,56813,61190,56.81,61.19,14,590,133,179
"Kabacan, Cotabato, Philippines",7.10719,124.84034,PLDT Home Fiber,84170,84554,84.17,84.55,12,586,98,131
"Nagcarlan, Laguna, Philippines",14.14903,121.38847,PLDT,68661,73750,68.66,73.75,10,586,144,203
"Ilagan City, Isabela, Philippines",17.12845,122.12918,PLDT,53311,49802,53.31,49.80,14,585,34,47
"Cotabato City, Maguindanao, Philippines",7.20467,124.23104,Globe,117351,44331,117.35,44.33,11,583,78,102
"San Mateo, Rizal, Philippines",14.69539,121.11767,PLDT,58706,56246,58.71,56.25,10,581,189,270
"Talavera, Nueva Ecija, Philippines",15.58575,120.9197,PLDT Home Fiber,94229,91025,94.23,91.03,11,578,112,167
"Marawi City, Lanao del Sur, Philippines",8.0292,124.29772,PLDT,59450,47834,59.45,47.83,22,572,174,243
"Tanauan City, Batangas, Philippines",14.08354,121.14762,Globe,208246,186758,208.25,186.76,7,572,177,242
"Maddela, Quirino, Philippines",16.33255,121.78792,PLDT Home Fiber,38173,30692,38.17,30.69,15,572,18,23
"Pinamalayan, Oriental Mindoro, Philippines",13.01533,121.37703,PLDT Home Fiber,56509,60156,56.51,60.16,8,571,53,76
"Tuguegarao City, Cagayan, Philippines",17.60306,121.75374,Globe,121018,111443,121.02,111.44,11,571,98,126
"Minglanilla, Cebu, Philippines",10.24543,123.79599,PLDT,150861,141876,150.86,141.88,3,571,123,174
"Rosario, Cavite, Philippines",14.41672,120.85471,PLDT Home Fiber,96877,99100,96.88,99.10,6,570,140,194
"San Ildefonso, Bulacan, Philippines",15.07717,120.94171,Converge,156506,129785,156.51,129.79,7,565,76,106
"Mariveles, Bataan, Philippines",14.4354,120.49003,PLDT Home Fiber,89667,75990,89.67,75.99,9,564,117,160
"Passi City, Iloilo, Philippines",11.1688,122.65035,PLDT,48244,48850,48.24,48.85,18,561,149,225
"Apalit, Pampanga, Philippines",14.95255,120.76688,PLDT,68228,63228,68.23,63.23,12,560,137,176
"Calapan City, Oriental Mindoro, Philippines",13.36643,121.19395,PLDT Home Fiber,97936,104444,97.94,104.44,9,559,178,263
"Tanay, Rizal, Philippines",14.61419,121.37703,PLDT Home Fiber,72682,78032,72.68,78.03,5,557,127,180
"Kapatagan, Lanao del Norte, Philippines",7.86776,123.72942,PLDT Home Fiber,70326,67785,70.33,67.79,8,555,97,135
"Tacloban City, Leyte, Philippines",11.22238,124.99221,PLDT Home Fiber,143803,135923,143.80,135.92,7,554,94,127
"Paete, Laguna, Philippines",14.37243,121.54842,Converge,93647,87468,93.65,87.47,10,552,129,208
"Silay, Negros Occidental, Philippines",10.79968,122.97605,PLDT Home Fiber,92738,96618,92.74,96.62,9,552,130,186
"Liliw, Laguna, Philippines",14.12617,121.4399,PLDT Home Fiber,100005,149495,100.01,149.50,7,550,153,230
"Santa Maria, Bulacan, Philippines",14.82898,120.97616,PLDT,87064,75888,87.06,75.89,8,546,147,222
"Alaminos City, Pangasinan, Philippines",16.15053,119.98562,PLDT Home Fiber,96129,115143,96.13,115.14,9,546,109,149
"Binangonan, Rizal, Philippines",14.48441,121.1869,Converge,187150,181499,187.15,181.50,4,546,174,203
"Guimba, Nueva Ecija, Philippines",15.65641,120.76767,Globe,253268,220717,253.27,220.72,5,546,122,195
"Dapitan City, Zamboanga del Norte, Philippines",8.58118,123.42714,PLDT Home Fiber,142350,101368,142.35,101.37,9,540,77,99
"Santa Ana, Pampanga, Philippines",15.09442,120.76623,PLDT Home Fiber,89467,85107,89.47,85.11,9,539,155,238
"Badian, Cebu, Philippines",9.83209,123.41593,PLDT Home Fiber,117924,199028,117.92,199.03,10,539,46,64
"Bocaue, Bulacan, Philippines",14.7943,120.93073,Converge,139205,152387,139.21,152.39,7,538,122,188
"Tagum, Davao del Norte, Philippines",7.44742,125.80246,PLDT,107307,101746,107.31,101.75,9,536,117,159
"Cadiz City, Negros Occidental, Philippines",10.86192,123.23632,Globe,128949,107122,128.95,107.12,12,533,193,294
"Pili, Camarines Sur, Philippines",13.55521,123.28126,PLDT Home Fiber,77076,74324,77.08,74.32,9,529,114,149
"Zaragoza, Nueva Ecija, Philippines",15.46003,120.79246,PLDT Home Fiber,93909,96353,93.91,96.35,10,528,124,212
"Muñoz, Nueva Ecija, Philippines",15.70664,120.9029,PLDT Home Fiber,63956,87552,63.96,87.55,14,527,95,137
"Sorsogon City, Sorsogon, Philippines",12.97888,123.98477,PLDT,99278,65525,99.28,65.53,20,526,117,166
"Midsayap, Cotabato, Philippines",7.19181,124.53474,PLDT Home Fiber,108600,94857,108.60,94.86,12,526,75,97
"Guimba, Nueva Ecija, Philippines",15.65641,120.76767,PLDT Home Fiber,72438,78377,72.44,78.38,13,523,94,125
"Daraga, Albay, Philippines",13.12278,123.69588,PLDT,76794,57476,76.79,57.48,18,523,131,167
"Kiamba, Sarangani, Philippines",6.00076,124.70777,PLDT,19429,20325,19.43,20.33,14,523,39,52
"Kalibo, Aklan, Philippines",11.70734,122.36986,Converge,91097,82123,91.10,82.12,15,523,115,170
"Los Baños, Laguna, Philippines",14.17731,121.22161,Globe,294175,221913,294.18,221.91,4,522,169,244
"Kabankalan City, Negros Occidental, Philippines",9.91341,122.85358,PLDT,48300,43018,48.30,43.02,7,522,98,130
"Digos, Davao del Sur, Philippines",6.74347,125.35515,PLDT Home Fiber,105005,96688,105.01,96.69,10,522,122,173
"San Andres, Catanduanes, Philippines",13.6332,124.08641,PLDT,38400,65309,38.40,65.31,12,521,50,66
"Gandara, Samar, Philippines",12.06444,124.79617,PLDT Home Fiber,26362,23193,26.36,23.19,16,519,23,29
"Panabo City, Davao del Norte, Philippines",7.30822,125.68662,PLDT Home Fiber,97423,89897,97.42,89.90,8,518,126,179
"Kalibo, Aklan, Philippines",11.70734,122.36986,Globe,132677,127439,132.68,127.44,15,518,98,128
"Palayan City, Nueva Ecija, Philippines",15.53906,121.09083,PLDT,128413,151631,128.41,151.63,12,518,134,173
"Bayombong, Nueva Vizcaya, Philippines",16.48042,121.14813,PLDT Home Fiber,62303,71129,62.30,71.13,8,518,139,209
"Ormoc City, Leyte, Philippines",11.03843,124.61927,PLDT Home Fiber,93186,78285,93.19,78.29,7,516,96,127
"Salvador Benedicto, Negros Occidental, Philippines",10.5887,123.23632,Globe,125005,108651,125.01,108.65,19,515,152,252
"San Leonardo, Nueva Ecija, Philippines",15.37285,120.95321,PLDT,68247,89067,68.25,89.07,12,515,139,194
"Bakun, Benguet, Philippines",16.80796,120.68901,PLDT Home Fiber,133689,94529,133.69,94.53,6,515,188,281
"San Jose, Occidental Mindoro, Philippines",12.40119,121.10229,Converge,46060,52352,46.06,52.35,11,513,87,129
"Tagbilaran City, Bohol, Philippines",9.6534,123.86703,Converge,102347,114420,102.35,114.42,29,512,142,192
"Valencia City, Bukidnon, Philippines",7.86319,125.17087,Converge,127865,112141,127.87,112.14,11,511,120,155
"San Simon, Pampanga, Philippines",14.98432,120.75127,PLDT Home Fiber,93032,94350,93.03,94.35,8,510,151,231
"Zamboanga City, Zamboanga del Sur, Philippines",6.90437,122.07612,PLDT,51820,47295,51.82,47.30,16,510,114,198
"Sogod, Cebu, Philippines",10.77419,123.9527,Globe,131115,118881,131.12,118.88,20,510,191,256
"Gerona, Tarlac, Philippines",15.60489,120.59698,PLDT Home Fiber,91830,110376,91.83,110.38,11,509,114,163
"Pantukan, Davao de Oro, Philippines",7.20012,126.04584,PLDT Home Fiber,96901,91318,96.90,91.32,11,508,58,79
"Goa, Camarines Sur, Philippines",13.73619,123.41593,PLDT Home Fiber,55579,86466,55.58,86.47,9,507,113,145
"Ormoc City, Leyte, Philippines",11.03843,124.61927,Converge,99304,146390,99.30,146.39,5,507,99,163
"Butuan City, Agusan Del Norte, Philippines",8.94753,125.54063,PLDT,70784,64216,70.78,64.22,14,505,131,203
"Nasugbu, Batangas, Philippines",14.09404,120.68901,PLDT Home Fiber,94173,86210,94.17,86.21,7,504,126,180
"Guiguinto, Bulacan, Philippines",14.82832,120.88429,Converge,102449,108214,102.45,108.21,7,504,123,189
"Talavera, Nueva Ecija, Philippines",15.58575,120.9197,PLDT,58781,81104,58.78,81.10,11,503,45,70
"Padre Garcia, Batangas, Philippines",13.87668,121.24547,Globe,116068,103002,116.07,103.00,6,502,159,313
"Arakan, Cotabato, Philippines",7.35122,125.17087,PLDT Home Fiber,93299,94338,93.30,94.34,8,502,157,213
"San Fernando City, La Union, Philippines",16.61592,120.32102,Converge,118257,111753,118.26,111.75,4,501,135,179
"Pili, Camarines Sur, Philippines",13.55521,123.28126,PLDT,42566,32893,42.57,32.89,17,501,74,107
"General Mariano Alvarez, Cavite, Philippines",14.29525,121.0071,PLDT,166907,184470,166.91,184.47,6,499,126,164
"Santo Domingo, Nueva Ecija, Philippines",15.61284,120.88434,PLDT Home Fiber,135038,127692,135.04,127.69,13,497,79,121
"San Miguel, Bulacan, Philippines",15.14158,120.9751,Globe,195196,157080,195.20,157.08,6,497,140,212
"Cuyapo, Nueva Ecija, Philippines",15.79995,120.68901,PLDT Home Fiber,91238,123810,91.24,123.81,13,496,107,178
"Mariveles, Bataan, Philippines",14.4354,120.49003,Converge,108632,123092,108.63,123.09,9,496,130,189
"Catarman, Northern Samar, Philippines",12.44271,124.61927,PLDT Home Fiber,140200,183317,140.20,183.32,19,496,92,119
"Tayug, Pangasinan, Philippines",16.01085,120.74649,PLDT Home Fiber,83146,94525,83.15,94.53,13,495,64,103
"Lingayen, Pangasinan, Philippines",16.00973,120.22449,PLDT Home Fiber,92233,104434,92.23,104.43,13,493,105,144
"Arakan, Cotabato, Philippines",7.35122,125.17087,Globe,274933,259402,274.93,259.40,4,492,230,303
"Solana, Cagayan, Philippines",17.65284,121.65113,Converge,92381,91424,92.38,91.42,13,491,134,259
"Olongapo City, Zambales, Philippines",14.88739,120.36661,PLDT,127649,76936,127.65,76.94,7,491,136,192
"Arayat, Pampanga, Philippines",15.15443,120.771,Converge,106759,118738,106.76,118.74,3,490,150,201
"San Rafael, Iloilo, Philippines",11.17902,122.82752,PLDT,48292,47281,48.29,47.28,24,487,63,68
"Gapan City, Nueva Ecija, Philippines",15.29121,121.01057,Globe,148149,164642,148.15,164.64,5,486,131,200
"Santo Tomas, Batangas, Philippines",14.08754,121.17764,Converge,110817,124254,110.82,124.25,7,486,85,125
"San Rafael, Bulacan, Philippines",15.00184,120.93141,PLDT,84520,74656,84.52,74.66,7,486,94,137
"Ormoc City, Leyte, Philippines",11.03843,124.61927,PLDT,27565,25714,27.57,25.71,16,485,73,130
"Cordon, Isabela, Philippines",16.67835,121.46847,PLDT Home Fiber,54295,44908,54.30,44.91,15,484,100,153
"Angat, Bulacan, Philippines",14.92586,121.02204,PLDT Home Fiber,156998,139194,157.00,139.19,6,483,157,231
"Baao, Camarines Sur, Philippines",13.49319,123.35984,PLDT,55980,58875,55.98,58.88,13,482,60,77
"Datu Montawal (Pagagawan), Maguindanao, Philippines",7.10469,124.76303,PLDT Home Fiber,55635,75845,55.64,75.85,10,482,123,206
"Hinigaran, Negros Occidental, Philippines",10.27479,122.92123,PLDT Home Fiber,74552,73824,74.55,73.82,14,481,57,71
"Rizal, Nueva Ecija, Philippines",15.69357,121.10229,PLDT Home Fiber,73980,74508,73.98,74.51,12,481,87,131
"Paniqui, Tarlac, Philippines",15.66603,120.53942,PLDT Home Fiber,110702,94452,110.70,94.45,11,480,96,147
"Bacolor, Pampanga, Philippines",14.99692,120.65235,Converge,110081,101992,110.08,101.99,4,480,134,201
"Escalante City, Negros Occidental, Philippines",10.84117,123.49908,PLDT Home Fiber,71622,84641,71.62,84.64,7,479,130,197
"Calumpit, Bulacan, Philippines",14.91518,120.7662,Converge,192852,157560,192.85,157.56,6,479,95,137
"San Jose, Camarines Sur, Philippines",13.68724,123.53921,Converge,76865,56256,76.87,56.26,10,479,29,41
"Toboso, Negros Occidental, Philippines",10.71769,123.46077,PLDT Home Fiber,83096,94271,83.10,94.27,7,478,151,212
"Puerto Princesa City, Palawan, Philippines",9.78563,118.62648,Globe,111171,103295,111.17,103.30,17,473,114,176
"Catarman, Northern Samar, Philippines",12.44271,124.61927,Globe,79553,91065,79.55,91.07,15,473,80,112
"San Manuel, Tarlac, Philippines",15.82906,120.60273,PLDT Home Fiber,154522,166229,154.52,166.23,12,471,153,247
"Floridablanca, Pampanga, Philippines",14.9619,120.49471,Converge,68360,66396,68.36,66.40,4,471,113,149
"City of Mati, Davao Oriental, Philippines",6.95722,126.15454,Globe,111547,80798,111.55,80.80,14,471,75,99
"Mabalacat City, Pampanga, Philippines",15.24525,120.56567,Globe,132525,125010,132.53,125.01,4,470,132,168
"Nabua, Camarines Sur, Philippines",13.4069,123.37324,Converge,78884,93360,78.88,93.36,14,468,71,135
"New Corella, Davao del Norte, Philippines",7.59777,125.84981,PLDT Home Fiber,58178,55761,58.18,55.76,11,468,66,88
"Alilem, Ilocos Sur, Philippines",16.9074,120.59698,PLDT Home Fiber,138400,113210,138.40,113.21,6,468,85,130
"San Miguel, Bulacan, Philippines",15.14158,120.9751,Converge,144292,119611,144.29,119.61,6,467,117,148
"Umingan, Pangasinan, Philippines",15.90396,120.82692,Globe,97084,96796,97.08,96.80,9,466,128,244
"Gerona, Tarlac, Philippines",15.60489,120.59698,Converge,93669,94242,93.67,94.24,4,466,176,241
"San Luis, Pampanga, Philippines",15.03986,120.81544,PLDT Home Fiber,92326,93911,92.33,93.91,7,466,152,252
"Toledo, Cebu, Philippines",10.38705,123.65017,PLDT Home Fiber,96545,88674,96.55,88.67,5,466,74,97
"Pandi, Bulacan, Philippines",14.87572,120.95941,PLDT Home Fiber,98134,87863,98.13,87.86,9,466,113,159
"Balamban, Cebu, Philippines",10.48585,123.77412,PLDT,51730,59473,51.73,59.47,4,466,84,110
"Bayawan City, Negros Oriental, Philippines",9.53644,122.7633,PLDT,73215,91454,73.22,91.45,11,463,88,101
"Sariaya, Quezon, Philippines",13.96301,121.52388,PLDT,87947,93609,87.95,93.61,8,463,118,167
"Aritao, Nueva Vizcaya, Philippines",16.2515,121.01057,PLDT Home Fiber,98391,94169,98.39,94.17,9,462,86,143
"City of Mati, Davao Oriental, Philippines",6.95722,126.15454,PLDT Home Fiber,103033,106566,103.03,106.57,12,461,96,126
"Baras, Rizal, Philippines",14.53656,121.27408,PLDT Home Fiber,85673,90973,85.67,90.97,4,460,110,162
"San Luis, Batangas, Philippines",13.8406,120.95321,Globe,61264,53909,61.26,53.91,6,460,117,281
"General Mariano Alvarez, Cavite, Philippines",14.29525,121.0071,Converge,192413,201357,192.41,201.36,6,460,109,164
"Banga, South Cotabato, Philippines",6.38791,124.79617,PLDT Home Fiber,66431,44438,66.43,44.44,16,458,62,86
"Burauen, Leyte, Philippines",10.97109,124.84034,PLDT,89264,90844,89.26,90.84,27,458,140,186
"Olongapo City, Zambales, Philippines",14.88739,120.36661,PLDT Home Fiber,131045,60879,131.05,60.88,8,458,152,200
"Lagawe, Ifugao, Philippines",16.80825,121.19395,PLDT Home Fiber,86979,94196,86.98,94.20,7,457,129,210
"Tampakan, South Cotabato, Philippines",6.49121,125.08286,PLDT Home Fiber,75312,49096,75.31,49.10,11,457,79,122
"Toledo, Cebu, Philippines",10.38705,123.65017,Globe,126365,121860,126.37,121.86,14,455,172,251
"Guimba, Nueva Ecija, Philippines",15.65641,120.76767,Converge,115347,118699,115.35,118.70,5,455,78,109
"Los Baños, Laguna, Philippines",14.17731,121.22161,Converge,97100,94601,97.10,94.60,7,453,112,174
"Moises Padilla, Negros Occidental, Philippines",10.26269,123.11266,PLDT Home Fiber,86211,87079,86.21,87.08,6,452,54,74
"Guagua, Pampanga, Philippines",14.96374,120.63244,PLDT,78639,127287,78.64,127.29,14,452,83,108
"Alaminos, Laguna, Philippines",14.0454,121.25119,PLDT Home Fiber,88262,119266,88.26,119.27,8,452,94,132
"Roxas City, Capiz, Philippines",11.55288,122.74072,Converge,82973,87953,82.97,87.95,12,452,83,145
"Bula, Camarines Sur, Philippines",13.44119,123.23632,PLDT Home Fiber,95262,118153,95.26,118.15,10,451,54,83
"City Of Bislig, Surigao del Sur, Philippines",8.21006,126.28478,PLDT Home Fiber,83205,100059,83.21,100.06,10,450,59,90
"Maguing, Lanao del Sur, Philippines",7.90533,124.53068,PLDT Home Fiber,110526,100452,110.53,100.45,7,450,123,181
"Dinalupihan, Bataan, Philippines",14.88605,120.44729,PLDT Home Fiber,139925,121068,139.93,121.07,8,449,105,130
"Burgos, Ilocos Sur, Philippines",17.31148,120.51639,Converge,91859,100138,91.86,100.14,9,448,110,187
"Marawi City, Lanao del Sur, Philippines",8.0292,124.29772,Globe,54737,35668,54.74,35.67,9,448,78,118
"Dumangas, Iloilo, Philippines",10.82109,122.71167,PLDT Home Fiber,56006,72960,56.01,72.96,8,447,62,80
"San Antonio, Quezon, Philippines",13.89506,121.29697,Globe,261050,265380,261.05,265.38,6,446,140,232
"Gapan City, Nueva Ecija, Philippines",15.29121,121.01057,Converge,147830,155576,147.83,155.58,6,446,97,131
"Trento, Agusan del Sur, Philippines",8.05257,126.21969,PLDT,57917,77691,57.92,77.69,19,443,135,192
"Dagupan City, Pangasinan, Philippines",16.03375,120.33202,Globe,122334,121019,122.33,121.02,5,443,63,76
"Balagtas, Bulacan, Philippines",14.81784,120.90646,Globe,176710,125101,176.71,125.10,8,443,67,77
"Odiongan, Romblon, Philippines",12.36445,122.01555,PLDT,87485,86249,87.49,86.25,9,442,81,118
"Kabayan, Benguet, Philippines",16.61702,120.82692,PLDT Home Fiber,92061,91704,92.06,91.70,6,442,143,234
"San Francisco, Agusan del Sur, Philippines",8.44573,125.95878,PLDT Home Fiber,68529,65918,68.53,65.92,6,439,66,88
"Masbate City, Masbate, Philippines",12.31777,123.55041,PLDT,92384,43283,92.38,43.28,21,438,93,135
"Pavia, Iloilo, Philippines",10.7748,122.54261,Globe,163581,157470,163.58,157.47,4,437,111,147
"Rizal, Laguna, Philippines",14.08408,121.41133,PLDT Home Fiber,131802,147091,131.80,147.09,8,437,138,225
"Diadi, Nueva Vizcaya, Philippines",16.6595,121.33129,PLDT Home Fiber,63290,70286,63.29,70.29,11,436,49,85
"Mangatarem, Pangasinan, Philippines",15.73801,120.27435,PLDT,56037,84958,56.04,84.96,12,435,49,63
"Tanauan City, Batangas, Philippines",14.08354,121.14762,Converge,139750,149155,139.75,149.16,8,435,100,146
"Pateros, Metro Manila, Philippines",14.54838,121.07077,PLDT Home Fiber,193715,174182,193.72,174.18,3,435,112,159
"Tanza, Cavite, Philippines",14.34293,120.85032,PLDT,114237,99714,114.24,99.71,7,435,105,148
"Panglao, Bohol, Philippines",9.56947,123.78721,Globe,173227,163559,173.23,163.56,6,433,76,106
"Cavite, Philippines",14.48151,120.90833,PLDT Home Fiber,125413,152948,125.41,152.95,6,432,103,142
"Malay, Aklan, Philippines",11.93033,121.95191,Converge,81402,55274,81.40,55.27,11,431,99,166
"La Paz, Tarlac, Philippines",15.4497,120.7235,Converge,87254,92758,87.25,92.76,5,429,120,176
"Minalin, Pampanga, Philippines",14.97052,120.68518,PLDT Home Fiber,93384,94066,93.38,94.07,6,429,137,208
"Bayambang, Pangasinan, Philippines",15.80947,120.45714,PLDT Home Fiber,100918,113135,100.92,113.14,13,428,74,94
"Digos, Davao del Sur, Philippines",6.74347,125.35515,PLDT,73077,69738,73.08,69.74,11,427,101,151
"Paracale, Camarines Norte, Philippines",14.23721,122.78588,PLDT Home Fiber,83067,78408,83.07,78.41,8,427,54,65
"Barotac Viejo, Iloilo, Philippines",11.10187,122.87613,PLDT,37692,41034,37.69,41.03,15,427,59,78
"Mangaldan, Pangasinan, Philippines",16.06513,120.40474,PLDT Home Fiber,79445,82835,79.45,82.84,8,424,75,99
"Pigkawayan, Cotabato, Philippines",7.27922,124.43092,PLDT Home Fiber,60569,54465,60.57,54.47,12,423,84,110
"San Fernando, Cebu, Philippines",10.16316,123.70738,Globe,251953,197442,251.95,197.44,15,422,132,181
"Floridablanca, Pampanga, Philippines",14.9619,120.49471,PLDT Home Fiber,143111,109583,143.11,109.58,10,422,95,135
"San Carlos City, Pangasinan, Philippines",15.92589,120.34827,PLDT Home Fiber,112713,116192,112.71,116.19,8,421,128,178
"Lambayong (Mariano Marcos), Sultan Kudarat, Philippines",6.79879,124.61927,PLDT Home Fiber,73033,45156,73.03,45.16,12,421,57,80
"Malvar, Batangas, Philippines",14.04329,121.15875,Converge,152300,140012,152.30,140.01,8,421,84,137
"Urdaneta City, Pangasinan, Philippines",15.98194,120.59698,PLDT Home Fiber,108055,131663,108.06,131.66,7,421,101,156
"Binmaley, Pangasinan, Philippines",16.02892,120.26882,PLDT,75882,89361,75.88,89.36,12,420,90,120
"Bambang, Nueva Vizcaya, Philippines",16.40415,121.10229,PLDT Home Fiber,88676,94462,88.68,94.46,7,420,106,165
"Maribojoc, Bohol, Philippines",9.75462,123.85229,PLDT,88872,80349,88.87,80.35,17,418,97,136
"Alabel, Sarangani, Philippines",6.10416,125.28792,PLDT Home Fiber,67967,70699,67.97,70.70,12,418,67,93
"Mabini, Batangas, Philippines",13.72355,120.9073,Converge,77043,115359,77.04,115.36,9,418,47,70
"Naic, Cavite, Philippines",14.29649,120.79246,Converge,181453,178525,181.45,178.53,5,418,117,157
"Panabo City, Davao del Norte, Philippines",7.30822,125.68662,Globe,128421,110018,128.42,110.02,6,417,84,112
"Isulan, Sultan Kudarat, Philippines",6.6318,124.44201,PLDT,61398,60236,61.40,60.24,11,417,76,93
"City of Baybay, Leyte, Philippines",10.66858,124.80409,Globe,119946,90407,119.95,90.41,12,416,62,87
"Carcar, Cebu, Philippines",10.10478,123.64147,PLDT,49350,59918,49.35,59.92,13,415,96,138
"Dumaguete City, Negros Oriental, Philippines",9.29841,123.29249,Converge,121363,131727,121.36,131.73,18,415,96,138
"Jasaan, Misamis Oriental, Philippines",8.65161,124.78513,PLDT Home Fiber,85336,69832,85.34,69.83,8,415,70,101
"Samal, Davao del Norte, Philippines",7.08352,125.70578,PLDT Home Fiber,87138,94214,87.14,94.21,8,414,95,118
"Salug, Zamboanga del Norte, Philippines",8.06518,122.78588,PLDT,85683,53175,85.68,53.18,19,413,21,30
"City of Catbalogan, Samar, Philippines",11.85683,124.88449,Globe,97064,91018,97.06,91.02,13,412,93,133
"San Jose, Batangas, Philippines",13.87868,121.09942,Globe,61461,53610,61.46,53.61,5,412,134,236
"Ipil, Zamboanga Sibugay, Philippines",7.77318,122.57121,PLDT,91059,94637,91.06,94.64,19,411,100,132
"Madalum, Lanao del Sur, Philippines",7.87552,124.10311,PLDT Home Fiber,93067,90289,93.07,90.29,5,411,151,219
"Pilar, Bataan, Philippines",14.60553,120.51639,Converge,160241,158725,160.24,158.73,6,411,32,44
"Hagonoy, Bulacan, Philippines",14.83564,120.73371,PLDT Home Fiber,88109,93070,88.11,93.07,9,408,114,158
"Valencia, Negros Oriental, Philippines",9.28494,123.1464,PLDT Home Fiber,103993,140679,103.99,140.68,5,408,72,90
"Malasiqui, Pangasinan, Philippines",15.92028,120.41443,PLDT,94025,110654,94.03,110.65,8,407,63,83
"Panglao, Bohol, Philippines",9.56947,123.78721,PLDT,65134,55959,65.13,55.96,10,407,103,159
"Banayoyo, Ilocos Sur, Philippines",17.23507,120.49912,Converge,94432,108236,94.43,108.24,8,407,115,177
"City of Borongan, Eastern Samar, Philippines",11.61739,125.34663,Globe,123934,127913,123.93,127.91,25,407,103,132
"Calasiao, Pangasinan, Philippines",16.00949,120.35759,PLDT,82343,94403,82.34,94.40,8,407,77,105
"Sibalom, Antique, Philippines",10.76502,122.06102,PLDT Home Fiber,46813,44039,46.81,44.04,11,406,29,38
"Norzagaray, Bulacan, Philippines",14.89659,121.14813,PLDT Home Fiber,112497,97834,112.50,97.83,6,405,65,84
"Basey, Samar, Philippines",11.40967,125.17087,PLDT,39704,40760,39.70,40.76,39,405,46,62
"San Carlos City, Negros Occidental, Philippines",10.48344,123.30371,Converge,44985,58042,44.99,58.04,13,404,34,44
"Natividad, Pangasinan, Philippines",16.03821,120.83841,Globe,62013,53665,62.01,53.67,5,403,93,209
"Titay, Zamboanga Sibugay, Philippines",7.84847,122.57121,PLDT Home Fiber,178644,97021,178.64,97.02,10,402,54,83
"Naval, Biliran, Philippines",11.56681,124.44201,Globe,113279,109898,113.28,109.90,14,402,68,92
"City of Tayabas, Quezon, Philippines",14.01135,121.55983,PLDT,93698,95095,93.70,95.10,9,399,133,189
"Echague, Isabela, Philippines",16.66606,121.78792,PLDT Home Fiber,64367,113386,64.37,113.39,16,399,81,112
"Kadingilan, Bukidnon, Philippines",7.53321,124.87345,PLDT Home Fiber,92884,94215,92.88,94.22,8,399,85,121
"Santa Cruz, Laguna, Philippines",14.26911,121.41133,PLDT,126627,135316,126.63,135.32,8,398,114,151
"Trece Martires City, Cavite, Philippines",14.28222,120.86837,Converge,151834,127675,151.83,127.68,6,397,134,170
"Hamtic, Antique, Philippines",10.65189,122.01555,PLDT,48473,49333,48.47,49.33,10,396,40,53
"Jaen, Nueva Ecija, Philippines",15.39558,120.87286,Globe,149563,113723,149.56,113.72,4,395,98,136
"City of Borongan, Eastern Samar, Philippines",11.61739,125.34663,PLDT,54413,41271,54.41,41.27,23,393,104,176
"Infanta, Quezon, Philippines",14.74071,121.6451,PLDT,24362,27493,24.36,27.49,13,393,111,170
"Subic, Zambales, Philippines",14.83066,120.18202,PLDT,56522,56294,56.52,56.29,18,393,104,168
"Magallanes, Agusan Del Norte, Philippines",9.01943,125.53295,Converge,137248,146980,137.25,146.98,27,390,17,18
"Cauayan City, Isabela, Philippines",16.91662,121.78792,PLDT Home Fiber,91855,93441,91.86,93.44,12,389,91,123
"San Jose, Batangas, Philippines",13.87868,121.09942,PLDT Home Fiber,132248,123159,132.25,123.16,6,388,105,155
"Lupao, Nueva Ecija, Philippines",15.84768,120.91878,Globe,186724,163922,186.72,163.92,6,387,133,236
"Tayug, Pangasinan, Philippines",16.01085,120.74649,PLDT,61787,90486,61.79,90.49,9,386,57,107
"Bay, Laguna, Philippines",14.14064,121.26836,Converge,169285,183433,169.29,183.43,7,386,65,90
"Tigaon, Camarines Sur, Philippines",13.61703,123.47198,Converge,75969,87717,75.97,87.72,12,384,26,46
"New Washington, Aklan, Philippines",11.6466,122.39009,Converge,52676,51662,52.68,51.66,14,384,34,42
"City of Bayugan, Agusan del Sur, Philippines",8.71381,125.74865,Converge,90421,137658,90.42,137.66,50,383,35,40
"Balayan, Batangas, Philippines",13.94995,120.72973,Converge,88537,81640,88.54,81.64,7,380,54,76
"Labason, Zamboanga del Norte, Philippines",8.01373,122.51464,PLDT Home Fiber,36207,48240,36.21,48.24,12,380,27,39
"Pinamungahan, Cebu, Philippines",10.26958,123.63996,PLDT,66883,75890,66.88,75.89,6,379,37,49
"Teresa, Rizal, Philippines",14.5597,121.20593,PLDT Home Fiber,125438,139925,125.44,139.93,4,378,102,160
"Urdaneta City, Pangasinan, Philippines",15.98194,120.59698,Globe,117754,103961,117.75,103.96,5,377,57,73
"Polomolok, South Cotabato, Philippines",6.22451,125.06084,Converge,155836,156807,155.84,156.81,5,374,65,77
"Cavite, Philippines",14.48151,120.90833,PLDT,96235,143842,96.24,143.84,6,374,45,69
"Guinobatan, Albay, Philippines",13.15419,123.55041,Converge,63568,113571,63.57,113.57,15,373,36,50
"Dauis, Bohol, Philippines",9.60401,123.82996,PLDT Home Fiber,132790,190047,132.79,190.05,8,373,72,99
"Pateros, Metro Manila, Philippines",14.54838,121.07077,Globe,238553,198825,238.55,198.83,5,373,92,112
"Malaybalay City, Bukidnon, Philippines",8.15775,125.17087,Converge,113281,82493,113.28,82.49,12,371,63,87
"Balanga City, Bataan, Philippines",14.67454,120.47033,PLDT,95891,92932,95.89,92.93,10,370,107,154
"Amadeo, Cavite, Philippines",14.18985,120.92452,PLDT,145881,135553,145.88,135.55,9,370,107,136
"San Isidro, Nueva Ecija, Philippines",15.29656,120.9073,Globe,124426,134719,124.43,134.72,6,370,136,199
"Oton, Iloilo, Philippines",10.69251,122.47868,Globe,137787,114713,137.79,114.71,5,368,82,101
"Jordan, Guimaras, Philippines",10.59807,122.57121,PLDT Home Fiber,92302,94426,92.30,94.43,8,364,39,55
"General Tinio (Papaya), Nueva Ecija, Philippines",15.36345,121.21685,PLDT,56242,36230,56.24,36.23,13,364,93,144
"Naga, Cebu, Philippines",10.20764,123.75821,PLDT,79996,94221,80.00,94.22,5,364,109,142
"Bagumbayan, Sultan Kudarat, Philippines",6.4606,124.55284,PLDT Home Fiber,60159,40681,60.16,40.68,21,364,32,45
"Pavia, Iloilo, Philippines",10.7748,122.54261,PLDT Home Fiber,164762,177630,164.76,177.63,8,363,116,153
"Camiling, Tarlac, Philippines",15.67495,120.41272,PLDT Home Fiber,79711,99892,79.71,99.89,12,363,55,73
"Diffun, Quirino, Philippines",16.55288,121.46847,Converge,83036,85745,83.04,85.75,9,363,37,52
"Libmanan, Camarines Sur, Philippines",13.69376,123.05982,PLDT Home Fiber,52227,48669,52.23,48.67,28,362,56,82
"Tinambac, Camarines Sur, Philippines",13.90428,123.37106,PLDT Home Fiber,55579,52634,55.58,52.63,20,361,8,11
"San Fernando City, La Union, Philippines",16.61592,120.32102,PLDT,91561,84661,91.56,84.66,4,360,85,136
"San Carlos City, Pangasinan, Philippines",15.92589,120.34827,PLDT,114744,151685,114.74,151.69,6,359,62,83
"Pavia, Iloilo, Philippines",10.7748,122.54261,PLDT,51991,48549,51.99,48.55,15,358,117,170
"Isulan, Sultan Kudarat, Philippines",6.6318,124.44201,PLDT Home Fiber,93586,71961,93.59,71.96,11,358,95,130
"Oas, Albay, Philippines",13.14041,123.37106,PLDT,91980,89494,91.98,89.49,9,355,35,41
"Pilar, Sorsogon, Philippines",12.97477,123.6847,PLDT Home Fiber,58902,59553,58.90,59.55,42,355,2,3
"Tanjay City, Negros Oriental, Philippines",9.49579,122.9663,Globe,103047,86585,103.05,86.59,15,355,49,65
"Bantay, Ilocos Sur, Philippines",17.59832,120.44729,PLDT,73595,67658,73.60,67.66,13,355,87,127
"Ibajay, Aklan, Philippines",11.75186,122.18596,Converge,75184,38381,75.18,38.38,21,355,74,130
"Boac, Marinduque, Philippines",13.39413,121.87903,PLDT,88379,75255,88.38,75.26,11,354,78,112
"Lamut, Ifugao, Philippines",16.68241,121.19395,PLDT Home Fiber,98597,93944,98.60,93.94,8,354,90,139
"Sagbayan, Bohol, Philippines",9.91005,124.08641,PLDT,49010,70125,49.01,70.13,15,354,79,112
"Tuburan, Cebu, Philippines",10.66879,123.86345,Globe,118976,104507,118.98,104.51,6,353,97,185
"Siaton, Negros Oriental, Philippines",9.12425,123.03388,PLDT Home Fiber,61575,53463,61.58,53.46,10,353,36,49
"Bauang, La Union, Philippines",16.51433,120.35508,PLDT Home Fiber,104246,98402,104.25,98.40,3,352,74,109
"San Pascual, Batangas, Philippines",13.81044,121.02204,Globe,273116,220608,273.12,220.61,5,352,69,78
"Bais City, Negros Oriental, Philippines",9.56801,123.01136,PLDT Home Fiber,70744,94450,70.74,94.45,9,351,78,112
"Monkayo, Davao de Oro, Philippines",7.82426,126.0537,Converge,136364,129058,136.36,129.06,5,350,40,43
"Santo Domingo, Ilocos Sur, Philippines",17.64462,120.42424,PLDT Home Fiber,54005,53757,54.01,53.76,13,350,41,53
"Roxas, Oriental Mindoro, Philippines",12.62617,121.47989,PLDT Home Fiber,80117,83271,80.12,83.27,8,349,43,56
"Binmaley, Pangasinan, Philippines",16.02892,120.26882,PLDT Home Fiber,101947,105363,101.95,105.36,13,348,72,107
"Pitogo, Quezon, Philippines",13.80951,122.10647,PLDT,114295,93461,114.30,93.46,8,348,9,13
"Trece Martires City, Cavite, Philippines",14.28222,120.86837,PLDT,84628,83767,84.63,83.77,6,348,101,136
"Paracale, Camarines Norte, Philippines",14.23721,122.78588,PLDT,41401,9961,41.40,9.96,13,345,51,94
"Navotas, Metro Manila, Philippines",14.65819,120.94743,Globe,202796,175372,202.80,175.37,5,344,83,101
"Pili, Camarines Sur, Philippines",13.55521,123.28126,Converge,85017,73580,85.02,73.58,3,344,91,120
"Alimodian, Iloilo, Philippines",10.85495,122.39009,PLDT,52912,50188,52.91,50.19,9,343,46,68
"Cordova, Cebu, Philippines",10.25278,123.9494,Globe,180638,176690,180.64,176.69,5,341,70,87
"San Carlos City, Pangasinan, Philippines",15.92589,120.34827,Globe,83743,78150,83.74,78.15,4,339,58,70
"Panglao, Bohol, Philippines",9.56947,123.78721,PLDT Home Fiber,96473,87661,96.47,87.66,9,338,84,123
"Guimbal, Iloilo, Philippines",10.66341,122.32057,PLDT,62827,64565,62.83,64.57,16,338,50,70
"Roxas City, Capiz, Philippines",11.55288,122.74072,PLDT,93030,81658,93.03,81.66,14,338,90,127
"San Pascual, Batangas, Philippines",13.81044,121.02204,PLDT Home Fiber,92529,91285,92.53,91.29,7,338,76,103
"Sorsogon City, Sorsogon, Philippines",12.97888,123.98477,Converge,92970,115767,92.97,115.77,19,337,72,116
"Calauan, Laguna, Philippines",14.14551,121.3146,Globe,235658,211180,235.66,211.18,5,337,121,197
"Dona Remedios Trinidad, Bulacan, Philippines",15.11427,121.21685,PLDT Home Fiber,51117,48371,51.12,48.37,9,337,79,132
"Hagonoy, Bulacan, Philippines",14.83564,120.73371,Converge,119495,96835,119.50,96.84,6,336,76,95
"Naic, Cavite, Philippines",14.29649,120.79246,Globe,116235,108536,116.24,108.54,6,336,66,80
"Balagtas, Bulacan, Philippines",14.81784,120.90646,Converge,133939,130617,133.94,130.62,7,336,91,134
"Mariveles, Bataan, Philippines",14.4354,120.49003,PLDT,88667,89761,88.67,89.76,9,336,55,90
"Bacong, Negros Oriental, Philippines",9.24338,123.27003,PLDT Home Fiber,93813,121325,93.81,121.33,6,335,49,64
"Guiguinto, Bulacan, Philippines",14.82832,120.88429,Globe,124693,116141,124.69,116.14,8,334,77,99
"San Rafael, Bulacan, Philippines",15.00184,120.93141,Converge,102930,99276,102.93,99.28,7,334,92,129
"Nasugbu, Batangas, Philippines",14.09404,120.68901,PLDT,63376,94051,63.38,94.05,9,333,83,137
"Limay, Bataan, Philippines",14.53661,120.56245,PLDT Home Fiber,112904,111869,112.90,111.87,9,333,74,110
"City of Cabadbaran, Agusan Del Norte, Philippines",9.14092,125.697,PLDT,68694,54244,68.69,54.24,12,333,8,8
"San Isidro, Bohol, Philippines",9.84036,123.94155,PLDT,46125,46199,46.13,46.20,13,332,62,95
"Maasin, Southern Leyte, Philippines",10.13272,124.84081,Globe,88415,76776,88.42,76.78,22,331,78,101
"Bangued, Abra, Philippines",17.58818,120.63149,PLDT Home Fiber,67581,77160,67.58,77.16,14,330,81,107
"Mabitac, Laguna, Philippines",14.43383,121.41133,PLDT,74636,82243,74.64,82.24,6,329,106,150
"Anilao, Iloilo, Philippines",11.00026,122.74072,PLDT,59635,65762,59.64,65.76,13,329,19,25
"Lucena City, Quezon, Philippines",13.94139,121.62345,Globe,146360,116268,146.36,116.27,8,328,60,90
"Tublay, Benguet, Philippines",16.52924,120.62073,PLDT Home Fiber,93956,97190,93.96,97.19,7,328,99,147
"Asturias, Cebu, Philippines",10.60209,123.77412,PLDT Home Fiber,114338,102961,114.34,102.96,5,327,61,84
"Compostela, Cebu, Philippines",10.45408,124.013,PLDT,76679,95313,76.68,95.31,7,327,65,85
"Echague, Isabela, Philippines",16.66606,121.78792,PLDT,38233,42761,38.23,42.76,16,327,45,59
"Malvar, Batangas, Philippines",14.04329,121.15875,Globe,222749,209731,222.75,209.73,7,327,58,82
"Tanauan, Leyte, Philippines",11.07765,124.98373,PLDT,106005,94023,106.01,94.02,28,326,81,110
"Ilagan City, Isabela, Philippines",17.12845,122.12918,Converge,53079,52955,53.08,52.96,11,326,30,39
"Silay, Negros Occidental, Philippines",10.79968,122.97605,Globe,118573,103194,118.57,103.19,6,325,92,128
"Infanta, Quezon, Philippines",14.74071,121.6451,PLDT Home Fiber,89920,112832,89.92,112.83,9,325,68,109
"Tangub City, Misamis Occidental, Philippines",8.09592,123.6847,PLDT,54588,52362,54.59,52.36,26,323,56,80
"Surigao, Surigao del Norte, Philippines",9.79022,125.49311,Globe,88289,52406,88.29,52.41,17,321,70,91
"Noveleta, Cavite, Philippines",14.42785,120.88009,Globe,169869,188851,169.87,188.85,5,321,48,58
"Polomolok, South Cotabato, Philippines",6.22451,125.06084,PLDT,42552,38186,42.55,38.19,23,321,90,119
"Sibulan, Negros Oriental, Philippines",9.35972,123.28476,Globe,102583,99306,102.58,99.31,11,321,90,111
"General Mamerto Natividad, Nueva Ecija, Philippines",15.58788,121.04498,PLDT Home Fiber,77507,93682,77.51,93.68,11,321,85,135
"Carmen, Davao del Norte, Philippines",7.35492,125.704,PLDT Home Fiber,93190,85745,93.19,85.75,8,321,76,114
"Daet, Camarines Norte, Philippines",14.10303,122.9325,Globe,119789,109962,119.79,109.96,14,318,66,83
"Carmen, Davao del Norte, Philippines",7.35492,125.704,PLDT,70903,57364,70.90,57.36,8,318,38,50
"Apalit, Pampanga, Philippines",14.95255,120.76688,Converge,81865,88355,81.87,88.36,5,317,92,143
"Santa Barbara, Iloilo, Philippines",10.82707,122.53265,PLDT,46881,48477,46.88,48.48,19,317,111,153
"Tiaong, Quezon, Philippines",13.92962,121.34273,PLDT,92131,81795,92.13,81.80,13,316,54,73
"Narra, Palawan, Philippines",9.229,118.33047,PLDT,54349,65255,54.35,65.26,34,315,53,77
"Naujan, Oriental Mindoro, Philippines",13.24381,121.19395,PLDT Home Fiber,92844,94498,92.84,94.50,7,315,69,93
"General Tinio (Papaya), Nueva Ecija, Philippines",15.36345,121.21685,PLDT Home Fiber,114462,88275,114.46,88.28,12,315,43,70
"Hermosa, Bataan, Philippines",14.83566,120.47709,Converge,144351,159221,144.35,159.22,6,315,92,123
"Quezon, Nueva Ecija, Philippines",15.56953,120.82692,PLDT Home Fiber,86824,92788,86.82,92.79,14,314,50,75
"Sara, Iloilo, Philippines",11.28199,123.01136,PLDT Home Fiber,47312,37338,47.31,37.34,9,314,37,54
"La Carlota City, Negros Occidental, Philippines",10.41437,122.97757,PLDT,69775,79044,69.78,79.04,7,314,69,91
"Agoo, La Union, Philippines",16.3247,120.35508,PLDT,138044,114653,138.04,114.65,3,314,61,79
"Pateros, Metro Manila, Philippines",14.54838,121.07077,Converge,227883,218794,227.88,218.79,3,314,79,95
"Sagay City, Negros Occidental, Philippines",10.84555,123.37106,Globe,53704,50967,53.70,50.97,15,314,44,54
"Penaranda, Nueva Ecija, Philippines",15.36229,121.02204,Globe,156675,155965,156.68,155.97,6,313,107,174
"Alcala, Pangasinan, Philippines",15.8546,120.53942,PLDT Home Fiber,120877,179803,120.88,179.80,13,313,53,81
"Tacloban City, Leyte, Philippines",11.22238,124.99221,Converge,112559,109808,112.56,109.81,7,313,52,93
"Rosales, Pangasinan, Philippines",15.86126,120.63149,PLDT Home Fiber,93629,126930,93.63,126.93,12,313,109,152
"Vigan City, Ilocos Sur, Philippines",17.56485,120.38781,PLDT,83157,84964,83.16,84.96,10,312,70,105
"Aguinaldo, Ifugao, Philippines",16.95291,121.33129,PLDT Home Fiber,82370,93720,82.37,93.72,12,312,104,164
"Santiago, Isabela, Philippines",16.69679,121.55865,Globe,182760,180546,182.76,180.55,7,312,57,79
"Tagaytay City, Cavite, Philippines",14.11541,120.96202,Globe,121809,114687,121.81,114.69,6,312,71,98
"Gasan, Marinduque, Philippines",13.32138,121.89041,PLDT Home Fiber,91231,84293,91.23,84.29,9,311,31,42
"Alaminos, Laguna, Philippines",14.0454,121.25119,Converge,61250,116752,61.25,116.75,16,311,40,59
"Tanay, Rizal, Philippines",14.61419,121.37703,PLDT,37521,38184,37.52,38.18,7,311,79,107
"Capas, Tarlac, Philippines",15.34633,120.59344,PLDT Home Fiber,89456,96950,89.46,96.95,11,311,83,132
"Leganes, Iloilo, Philippines",10.78605,122.5888,PLDT Home Fiber,127575,142923,127.58,142.92,7,310,27,35
"Tiaong, Quezon, Philippines",13.92962,121.34273,PLDT Home Fiber,128939,124368,128.94,124.37,3,309,63,88
"Bayambang, Pangasinan, Philippines",15.80947,120.45714,PLDT,53334,54040,53.33,54.04,19,309,60,80
"Angat, Bulacan, Philippines",14.92586,121.02204,PLDT,100292,96429,100.29,96.43,6,309,82,116
"President Roxas, Cotabato, Philippines",7.37928,125.06084,Globe,151376,133319,151.38,133.32,4,309,123,164
"Ozamiz, Misamis Occidental, Philippines",8.15,123.85033,Globe,131988,45399,131.99,45.40,12,308,72,95
"Aroroy, Masbate, Philippines",12.38843,123.32617,Converge,121212,131790,121.21,131.79,19,308,25,36
"Dalaguete, Cebu, Philippines",9.78366,123.5056,PLDT Home Fiber,120868,157872,120.87,157.87,16,307,34,43
"Cauayan City, Isabela, Philippines",16.91662,121.78792,PLDT,41868,39298,41.87,39.30,12,306,53,91
"Porac, Pampanga, Philippines",15.06974,120.55007,PLDT,52430,48562,52.43,48.56,11,305,91,132
"Paombong, Bulacan, Philippines",14.83781,120.78406,PLDT,128628,108505,128.63,108.51,7,304,60,83
"Aliaga, Nueva Ecija, Philippines",15.51204,120.86138,PLDT Home Fiber,68652,78059,68.65,78.06,12,304,59,129
"Kidapawan, Cotabato, Philippines",7.02127,125.09019,Globe,129080,111178,129.08,111.18,15,303,45,72
