Location Name,Latitude,Longitude,Provider,Download Speed,Upload Speed,Download Speed Mbps,Upload Speed Mbps,Minimum Latency,Test Count,Sample Count,User Count
"Quezon City, Metro Manila, Philippines",14.64879,121.05094,PLDT Home Fiber,145861,155856,145.86,155.86,3,195020,43929,65714
"Quezon City, Metro Manila, Philippines",14.64879,121.05094,Converge,181582,175267,181.58,175.27,4,117202,27483,44138
"Quezon City, Metro Manila, Philippines",14.64879,121.05094,Globe,171096,150501,171.10,150.50,5,97189,25203,38913
"Davao City, Davao del Sur, Philippines",7.06475,125.60884,PLDT Home Fiber,108274,95631,108.27,95.63,9,91458,21847,31110
"Manila, Metro Manila, Philippines",14.59951,120.98423,Converge,197701,169352,197.70,169.35,4,75318,16636,29289
"Cebu City, Cebu, Philippines",10.29261,123.90219,PLDT Home Fiber,106718,117536,106.72,117.54,6,73098,14864,21158
"Manila, Metro Manila, Philippines",14.59951,120.98423,PLDT Home Fiber,101641,101494,101.64,101.49,5,60116,14357,22063
"Quezon City, Metro Manila, Philippines",14.64879,121.05094,PLDT,74536,71715,74.54,71.72,8,55488,14283,21056
"Davao City, Davao del Sur, Philippines",7.06475,125.60884,Globe,123359,111890,123.36,111.89,4,54846,14165,18990
"Cebu City, Cebu, Philippines",10.29261,123.90219,PLDT,79664,86934,79.66,86.93,9,49246,10797,15598
"Cebu City, Cebu, Philippines",10.29261,123.90219,Globe,122826,109342,122.83,109.34,6,48087,12254,17761
"Parañaque, Metro Manila, Philippines",14.47929,121.01985,Converge,191918,194476,191.92,194.48,4,46187,10629,17253
"Pasig, Metro Manila, Philippines",14.56082,121.0776,PLDT Home Fiber,154220,152327,154.22,152.33,3,42404,10926,16320
"Valenzuela, Metro Manila, Philippines",14.69247,120.96991,Converge,189344,184166,189.34,184.17,4,42247,8995,16169
"Parañaque, Metro Manila, Philippines",14.47929,121.01985,PLDT Home Fiber,136321,125010,136.32,125.01,4,38491,9523,13774
"Biñan, Laguna, Philippines",14.31456,121.08316,PLDT,96935,106075,96.94,106.08,9,38267,9396,14698
"Manila, Metro Manila, Philippines",14.59951,120.98423,PLDT,89544,91899,89.54,91.90,5,38191,9213,12940
"Calamba, Laguna, Philippines",14.19488,121.15974,Converge,155225,123699,155.23,123.70,6,37383,9041,14690
"Taguig, Metro Manila, Philippines",14.53063,121.05755,Converge,200248,196856,200.25,196.86,4,37136,8578,13708
"Pasig, Metro Manila, Philippines",14.56082,121.0776,Converge,109846,112989,109.85,112.99,4,36497,9165,12851
"Antipolo City, 1870 Rizal, Philippines",14.58584,121.17569,PLDT Home Fiber,128027,136711,128.03,136.71,3,36252,7999,11760
"Cagayan De Oro City, Misamis Oriental, Philippines",8.48029,124.64975,Globe,109673,86189,109.67,86.19,8,36127,7932,11550
"Parañaque, Metro Manila, Philippines",14.47929,121.01985,PLDT,103903,97316,103.90,97.32,5,34897,9558,14928
"Davao City, Davao del Sur, Philippines",7.06475,125.60884,Converge,105728,105885,105.73,105.89,3,34153,8392,12435
"Baguio, Benguet, Philippines",16.41297,120.5914,PLDT Home Fiber,94513,94756,94.51,94.76,6,32549,8872,12866
"Makati City, Metro Manila, Philippines",14.55474,121.02444,PLDT,71136,67843,71.14,67.84,12,32440,8693,12727
"Iligan City, Lanao del Norte, Philippines",8.22707,124.46418,PLDT Home Fiber,93869,93929,93.87,93.93,6,31590,6708,9572
"Cebu City, Cebu, Philippines",10.29261,123.90219,Converge,192293,188551,192.29,188.55,6,31521,7546,11186
"Caloocan, Metro Manila, Philippines",14.65136,120.99022,PLDT Home Fiber,134794,152345,134.79,152.35,3,29927,6998,9830
"Cagayan De Oro City, Misamis Oriental, Philippines",8.48029,124.64975,PLDT Home Fiber,96583,94509,96.58,94.51,8,29323,6906,9941
"Pandi, Bulacan, Philippines",14.87572,120.95941,Converge,195599,103334,195.60,103.33,7,29302,7182,11607
"Taguig, Metro Manila, Philippines",14.53063,121.05755,Globe,176284,150585,176.28,150.59,4,29269,8102,13028
"Marikina, Metro Manila, Philippines",14.63493,121.10195,Converge,183623,173073,183.62,173.07,3,28918,7252,11085
"San Pablo City, Laguna, Philippines",14.06422,121.32326,Converge,143260,146199,143.26,146.20,6,26900,5863,10327
"Angeles, Pampanga, Philippines",15.16061,120.60908,Converge,112186,114204,112.19,114.20,3,26351,6431,9289
"Imus, Cavite, Philippines",14.42764,120.93724,PLDT Home Fiber,146282,151021,146.28,151.02,4,26347,6139,9305
"Davao City, Davao del Sur, Philippines",7.06475,125.60884,PLDT,96431,94545,96.43,94.55,12,25469,7050,10219
"Cainta, Rizal, Philippines",14.58056,121.11565,PLDT Home Fiber,152803,163227,152.80,163.23,3,25387,6284,9033
"Makati City, Metro Manila, Philippines",14.55474,121.02444,PLDT Home Fiber,159231,147073,159.23,147.07,4,25307,6286,9269
"Bacoor, Cavite, Philippines",14.43122,120.96567,PLDT Home Fiber,112781,123822,112.78,123.82,6,24657,5070,6956
"Capas, Tarlac, Philippines",15.34633,120.59344,Converge,141359,141783,141.36,141.78,3,23953,6459,10359
"Pasay City, Metro Manila, Philippines",14.53767,121.00081,PLDT Home Fiber,147394,116434,147.39,116.43,4,23911,6488,9859
"Tanauan City, Batangas, Philippines",14.08354,121.14762,PLDT Home Fiber,116856,110837,116.86,110.84,7,23908,6163,9627
"Las Piñas, Metro Manila, Philippines",14.44934,120.98186,PLDT Home Fiber,166852,148302,166.85,148.30,4,23139,4801,6353
"Taguig, Metro Manila, Philippines",14.53063,121.05755,PLDT Home Fiber,173077,166193,173.08,166.19,4,21467,4562,6136
"Mexico, Pampanga, Philippines",15.06457,120.72033,Converge,152640,157281,152.64,157.28,3,21175,5751,8862
"Batangas City, Batangas, Philippines",13.75641,121.05833,Globe,115187,103443,115.19,103.44,10,21037,4969,7931
"Muntinlupa, Metro Manila, Philippines",14.39453,121.04483,PLDT,100546,96501,100.55,96.50,5,20043,4730,6713
"Antipolo City, 1870 Rizal, Philippines",14.58584,121.17569,Converge,170599,167038,170.60,167.04,3,19975,4819,7661
"Pasig, Metro Manila, Philippines",14.56082,121.0776,Globe,219396,185418,219.40,185.42,5,19542,4733,6753
"Valenzuela, Metro Manila, Philippines",14.69247,120.96991,PLDT Home Fiber,132469,140025,132.47,140.03,3,19464,4718,6743
"Iloilo City, Iloilo, Philippines",10.73019,122.55911,Globe,106307,95381,106.31,95.38,9,19348,4400,6775
"La Trinidad, Benguet, Philippines",16.44844,120.59047,Converge,102759,108423,102.76,108.42,3,18253,4911,7173
"Tarlac City, Tarlac, Philippines",15.48808,120.58719,Converge,104499,102269,104.50,102.27,4,17851,4476,7045
"Magpet, Cotabato, Philippines",7.1332,125.17087,PLDT Home Fiber,133290,97420,133.29,97.42,8,17507,5717,8293
"Dasmariñas, Cavite, Philippines",14.33385,120.95423,PLDT Home Fiber,124646,141180,124.65,141.18,5,17365,4048,5937
"General Trias, Cavite, Philippines",14.38159,120.87915,Converge,173453,190386,173.45,190.39,5,17085,4141,6494
"Caloocan, Metro Manila, Philippines",14.65136,120.99022,Converge,181354,187716,181.35,187.72,4,16214,2841,4610
"Bacolod, Negros Occidental, Philippines",10.66764,122.94556,PLDT Home Fiber,93977,96630,93.98,96.63,10,15774,3389,4683
"Bago, Negros Occidental, Philippines",10.53757,122.83609,Converge,156495,147034,156.50,147.03,13,15720,3739,6439
"Malabon, Metro Manila, Philippines",14.65793,120.95118,PLDT Home Fiber,124648,137371,124.65,137.37,3,15637,3794,5943
"San Fernando, Pampanga, Philippines",15.02781,120.69349,PLDT Home Fiber,131251,97764,131.25,97.76,8,15619,3890,5555
"Taguig, Metro Manila, Philippines",14.53063,121.05755,PLDT,80969,86378,80.97,86.38,8,15551,4192,6003
"Dasmariñas, Cavite, Philippines",14.33385,120.95423,PLDT,94459,102337,94.46,102.34,9,15259,4018,6247
"Makati City, Metro Manila, Philippines",14.55474,121.02444,Converge,172103,165438,172.10,165.44,5,15205,3597,5358
"San Juan City, Metro Manila, Philippines",14.60196,121.0355,PLDT,66770,60513,66.77,60.51,12,15075,4179,6205
"Caloocan, Metro Manila, Philippines",14.65136,120.99022,Globe,178375,156550,178.38,156.55,5,14838,3546,5113
"Concepcion, Tarlac, Philippines",15.324,120.65596,Converge,99564,109204,99.56,109.20,3,14779,4065,6493
"Pasig, Metro Manila, Philippines",14.56082,121.0776,PLDT,72857,71626,72.86,71.63,7,14565,4056,6019
"Iriga City, Camarines Sur, Philippines",13.42095,123.41361,Converge,104486,105076,104.49,105.08,4,14430,3245,5910
"Dasmariñas, Cavite, Philippines",14.33385,120.95423,Globe,175479,154759,175.48,154.76,5,14195,3898,6034
"Los Baños, Laguna, Philippines",14.17731,121.22161,PLDT Home Fiber,103949,138812,103.95,138.81,8,13891,3204,4872
"San Fernando, Pampanga, Philippines",15.02781,120.69349,Converge,97747,102478,97.75,102.48,4,13870,3660,4948
"Anao, Tarlac, Philippines",15.7435,120.61424,Globe,173439,143987,173.44,143.99,6,13766,3292,4945
"Canlaon City, Negros Oriental, Philippines",10.36048,123.19137,PLDT Home Fiber,133730,161307,133.73,161.31,7,13538,4131,6022
"Murcia, Negros Occidental, Philippines",10.60643,123.03944,Globe,119008,105222,119.01,105.22,8,13466,3755,5603
"Taytay, Rizal, Philippines",14.55288,121.12571,PLDT Home Fiber,153294,156876,153.29,156.88,4,13428,3439,5071
"Bulakan, Bulacan, Philippines",14.79484,120.87889,PLDT Home Fiber,110248,106836,110.25,106.84,7,13260,3378,5290
"Makati City, Metro Manila, Philippines",14.55474,121.02444,Globe,163106,125334,163.11,125.33,4,13152,3345,4785
"Arayat, Pampanga, Philippines",15.15443,120.771,Converge,132359,151060,132.36,151.06,4,13114,3311,5571
"Muntinlupa, Metro Manila, Philippines",14.39453,121.04483,PLDT Home Fiber,144144,101817,144.14,101.82,4,13098,2997,4195
"Minglanilla, Cebu, Philippines",10.24543,123.79599,Converge,251656,239901,251.66,239.90,6,13089,3271,5036
"Polangui, Albay, Philippines",13.29368,123.48542,Converge,105298,77487,105.30,77.49,13,12826,2525,4943
"Naga City, Camarines Sur, Philippines",13.6475,123.27003,Converge,91669,88887,91.67,88.89,10,12771,2093,3393
"Calamba, Laguna, Philippines",14.19488,121.15974,PLDT,94324,100859,94.32,100.86,9,12627,3221,5020
"SJDM, Bulacan, Philippines",14.82867,121.04324,Converge,143035,123011,143.04,123.01,7,12540,2609,3865
"Calamba, Laguna, Philippines",14.19488,121.15974,PLDT Home Fiber,110811,115127,110.81,115.13,8,12365,3108,4545
"Bustos, Bulacan, Philippines",14.95239,120.91735,PLDT Home Fiber,109841,118430,109.84,118.43,8,12358,2968,4474
"Butuan City, Agusan Del Norte, Philippines",8.94753,125.54063,PLDT Home Fiber,90005,93742,90.01,93.74,9,12251,2274,3269
"Lipa City, Batangas, Philippines",13.94047,121.19395,PLDT Home Fiber,113438,121053,113.44,121.05,7,12165,3105,4475
"Bacolod, Negros Occidental, Philippines",10.66764,122.94556,Globe,115053,104160,115.05,104.16,8,11902,2656,3695
"Itogon, Benguet, Philippines",16.36116,120.6787,PLDT,94310,95050,94.31,95.05,6,11890,3652,5670
"Pasay City, Metro Manila, Philippines",14.53767,121.00081,PLDT,88186,89413,88.19,89.41,6,11688,2914,4642
"Caloocan, Metro Manila, Philippines",14.65136,120.99022,PLDT,88566,91857,88.57,91.86,4,11649,2807,4093
"Bacolor, Pampanga, Philippines",14.99692,120.65235,PLDT Home Fiber,158474,118382,158.47,118.38,7,11619,3338,5319
"Itogon, Benguet, Philippines",16.36116,120.6787,PLDT Home Fiber,95460,97090,95.46,97.09,6,11337,3318,5354
"Las Piñas, Metro Manila, Philippines",14.44934,120.98186,PLDT,92847,93789,92.85,93.79,6,11196,2789,4113
"Mandaluyong City, Metro Manila, Philippines",14.57627,121.03924,Converge,176141,170735,176.14,170.74,4,11167,3017,4799
"Tanza, Cavite, Philippines",14.34293,120.85032,Converge,193154,204352,193.15,204.35,5,11165,2662,3913
"General Trias, Cavite, Philippines",14.38159,120.87915,PLDT Home Fiber,144945,125191,144.95,125.19,5,10949,2357,3432
"San Carlos City, Negros Occidental, Philippines",10.48344,123.30371,PLDT,154068,166929,154.07,166.93,5,10893,3738,5273
"Imus, Cavite, Philippines",14.42764,120.93724,Converge,201340,185834,201.34,185.83,6,10568,2887,4547
"Claveria, Misamis Oriental, Philippines",8.62972,124.90655,Converge,122269,116083,122.27,116.08,9,10535,2889,4669
"Mandaluyong City, Metro Manila, Philippines",14.57627,121.03924,Globe,200100,166724,200.10,166.72,5,10455,2730,4163
"Butuan City, Agusan Del Norte, Philippines",8.94753,125.54063,Globe,115085,57572,115.09,57.57,14,10443,2617,3697
"La Paz, Tarlac, Philippines",15.4497,120.7235,Globe,112384,103293,112.38,103.29,5,10388,2653,5026
"Baguio, Benguet, Philippines",16.41297,120.5914,PLDT,92730,94086,92.73,94.09,6,10343,2547,3752
"Cabanatuan City, Nueva Ecija, Philippines",15.49943,121.01057,Globe,118897,106462,118.90,106.46,5,10174,2303,3366
"Baguio, Benguet, Philippines",16.41297,120.5914,Converge,94769,100404,94.77,100.40,4,10013,2764,3892
"Marikina, Metro Manila, Philippines",14.63493,121.10195,PLDT Home Fiber,177752,164721,177.75,164.72,3,9971,2529,3614
"Binangonan, Rizal, Philippines",14.48441,121.1869,PLDT,122284,139853,122.28,139.85,3,9883,3024,4688
"Dasmariñas, Cavite, Philippines",14.33385,120.95423,Converge,202654,188701,202.65,188.70,5,9878,2469,4031
"Subic Bay Freeport Zone, Philippines",14.80319,120.30033,Converge,112138,110701,112.14,110.70,5,9875,2336,3458
"Silang, Cavite, Philippines",14.22025,120.96469,PLDT Home Fiber,148526,139585,148.53,139.59,5,9827,2708,4211
"San Pablo City, Laguna, Philippines",14.06422,121.32326,PLDT Home Fiber,127520,152255,127.52,152.26,6,9738,2293,3495
"Bacoor, Cavite, Philippines",14.43122,120.96567,PLDT,93022,93603,93.02,93.60,8,9671,2627,3886
"Candelaria, Quezon, Philippines",13.94899,121.42276,Converge,189126,193314,189.13,193.31,4,9596,2531,4369
"Talakag, Bukidnon, Philippines",8.05293,124.72988,PLDT Home Fiber,94440,94736,94.44,94.74,6,9461,2789,4302
"Parañaque, Metro Manila, Philippines",14.47929,121.01985,Globe,157855,130711,157.86,130.71,4,9339,2541,3568
"Biñan, Laguna, Philippines",14.31456,121.08316,PLDT Home Fiber,113986,125596,113.99,125.60,8,9336,2302,3395
"Santa Maria, Bulacan, Philippines",14.82898,120.97616,Converge,182179,115582,182.18,115.58,7,9169,2327,3714
"Burgos, La Union, Philippines",16.53803,120.47033,Converge,98608,105722,98.61,105.72,4,9136,2511,3915
"Iligan City, Lanao del Norte, Philippines",8.22707,124.46418,Converge,143296,133208,143.30,133.21,8,9090,2535,3851
"San Carlos City, Negros Occidental, Philippines",10.48344,123.30371,PLDT Home Fiber,148958,174688,148.96,174.69,7,8908,2801,3997
"Tarlac City, Tarlac, Philippines",15.48808,120.58719,PLDT,88383,91527,88.38,91.53,9,8388,2112,3103
"San Juan City, Metro Manila, Philippines",14.60196,121.0355,Converge,151532,144447,151.53,144.45,4,8372,2173,3509
"Cagayan De Oro City, Misamis Oriental, Philippines",8.48029,124.64975,Converge,105900,106862,105.90,106.86,9,8358,1936,2640
"San Juan City, Metro Manila, Philippines",14.60196,121.0355,PLDT Home Fiber,168836,158645,168.84,158.65,3,8355,2130,3086
"Iloilo City, Iloilo, Philippines",10.73019,122.55911,PLDT Home Fiber,94077,97569,94.08,97.57,10,8311,1740,2631
"Malabon, Metro Manila, Philippines",14.65793,120.95118,Converge,189267,189067,189.27,189.07,4,8201,1631,2705
"Santo Domingo, Nueva Ecija, Philippines",15.61284,120.88434,Globe,155404,152887,155.40,152.89,6,8175,2156,3253
"Bacolod, Negros Occidental, Philippines",10.66764,122.94556,PLDT,73488,82378,73.49,82.38,9,8074,1700,2335
"Bago, Negros Occidental, Philippines",10.53757,122.83609,PLDT Home Fiber,130913,147318,130.91,147.32,8,8018,2593,3734
"Muntinlupa, Metro Manila, Philippines",14.39453,121.04483,Converge,167935,178519,167.94,178.52,5,7833,1804,2581
"Tanauan City, Batangas, Philippines",14.08354,121.14762,PLDT,97358,98355,97.36,98.36,7,7675,2116,3251
"Tarlac City, Tarlac, Philippines",15.48808,120.58719,Globe,117656,105666,117.66,105.67,5,7652,1862,2863
"San Antonio, Nueva Ecija, Philippines",15.31921,120.82692,Globe,208949,203068,208.95,203.07,5,7572,2147,3216
"Taytay, Rizal, Philippines",14.55288,121.12571,Converge,204189,206764,204.19,206.76,3,7489,1821,2906
"Nasugbu, Batangas, Philippines",14.09404,120.68901,Globe,116073,105469,116.07,105.47,7,7471,1667,2437
"Mandaluyong City, Metro Manila, Philippines",14.57627,121.03924,PLDT Home Fiber,198111,187153,198.11,187.15,3,7367,1693,2159
"Tagaytay City, Cavite, Philippines",14.11541,120.96202,Converge,130735,118446,130.74,118.45,6,7142,1598,2727
"Marikina, Metro Manila, Philippines",14.63493,121.10195,Globe,187409,158350,187.41,158.35,5,7137,1923,2865
"Magpet, Cotabato, Philippines",7.1332,125.17087,Globe,62738,91993,62.74,91.99,5,7064,2096,3262
"Calapan City, Oriental Mindoro, Philippines",13.36643,121.19395,Converge,94250,94368,94.25,94.37,10,7050,1309,2432
"Bacolod, Negros Occidental, Philippines",10.66764,122.94556,Converge,122689,115486,122.69,115.49,14,7045,1527,2305
"Antipolo City, 1870 Rizal, Philippines",14.58584,121.17569,PLDT,63524,67031,63.52,67.03,8,7015,1648,2427
"Magpet, Cotabato, Philippines",7.1332,125.17087,PLDT,134292,97249,134.29,97.25,12,6901,2271,3185
"Subic, Zambales, Philippines",14.83066,120.18202,Converge,105736,108005,105.74,108.01,5,6890,1941,3101
"New Lucena, Iloilo, Philippines",10.87841,122.59781,Converge,154207,141517,154.21,141.52,12,6850,1593,2998
"Iloilo City, Iloilo, Philippines",10.73019,122.55911,Converge,103359,99176,103.36,99.18,12,6760,1429,2224
"Cabuyao City, Laguna, Philippines",14.27433,121.11961,PLDT Home Fiber,140654,133360,140.65,133.36,6,6630,1673,2483
"Olongapo City, Zambales, Philippines",14.88739,120.36661,Converge,107900,109030,107.90,109.03,5,6569,1833,2910
"Kawit, Cavite, Philippines",14.44588,120.90871,PLDT Home Fiber,96223,100267,96.22,100.27,8,6534,1720,2595
"Iloilo City, Iloilo, Philippines",10.73019,122.55911,PLDT,82203,84309,82.20,84.31,8,6459,1493,2118
"Bacoor, Cavite, Philippines",14.43122,120.96567,Converge,170200,154892,170.20,154.89,6,6452,1534,2357
"Murcia, Negros Occidental, Philippines",10.60643,123.03944,PLDT Home Fiber,129670,135671,129.67,135.67,8,6295,1844,2752
"Urdaneta City, Pangasinan, Philippines",15.98194,120.59698,Converge,99457,108852,99.46,108.85,5,6279,1681,2619
"Danao, Cebu, Philippines",10.52013,124.02712,Globe,124759,106318,124.76,106.32,7,6210,1944,2849
"Malolos, Bulacan, Philippines",14.86049,120.80916,PLDT Home Fiber,119738,117248,119.74,117.25,6,6152,1543,2290
"Cainta, Rizal, Philippines",14.58056,121.11565,PLDT,87613,91413,87.61,91.41,6,6136,1604,2274
"San Rafael, Bulacan, Philippines",15.00184,120.93141,PLDT Home Fiber,107561,109925,107.56,109.93,8,6007,1630,2535
"San Nicolas, Pangasinan, Philippines",16.12066,120.78097,PLDT,95813,96080,95.81,96.08,5,6001,1814,2916
"Manila, Metro Manila, Philippines",14.59951,120.98423,Globe,177882,141556,177.88,141.56,5,5917,1370,1911
"Valenzuela, Metro Manila, Philippines",14.69247,120.96991,PLDT,69051,80565,69.05,80.57,7,5835,1432,2030
"Angeles, Pampanga, Philippines",15.16061,120.60908,PLDT Home Fiber,122514,109318,122.51,109.32,8,5799,1329,1960
"Mexico, Pampanga, Philippines",15.06457,120.72033,PLDT Home Fiber,97611,97970,97.61,97.97,8,5753,1506,2346
"Marilao, Bulacan, Philippines",14.77237,120.96001,Converge,162422,123061,162.42,123.06,7,5740,1016,1488
"General Trias, Cavite, Philippines",14.38159,120.87915,Globe,228139,195472,228.14,195.47,6,5712,1305,1876
"Candaba, Pampanga, Philippines",15.09289,120.8277,PLDT Home Fiber,97422,98861,97.42,98.86,7,5707,1717,2692
"Cainta, Rizal, Philippines",14.58056,121.11565,Globe,183462,149970,183.46,149.97,5,5649,1421,1844
"Mandaluyong City, Metro Manila, Philippines",14.57627,121.03924,PLDT,61218,47447,61.22,47.45,10,5616,1502,2320
"Zamboanga City, Zamboanga del Sur, Philippines",6.90437,122.07612,PLDT Home Fiber,118832,94611,118.83,94.61,12,5588,1027,1328
"Santa Barbara, Pangasinan, Philippines",15.9774,120.42424,Converge,114868,112231,114.87,112.23,5,5576,1487,2309
"General Santos City (Dadiangas), South Cotabato, Philippines",6.14327,125.19286,PLDT Home Fiber,109218,93532,109.22,93.53,11,5568,1020,1251
"Dagupan City, Pangasinan, Philippines",16.03375,120.33202,PLDT Home Fiber,94432,94681,94.43,94.68,7,5517,1395,2154
"Naga City, Camarines Sur, Philippines",13.6475,123.27003,PLDT Home Fiber,105455,105561,105.46,105.56,7,5369,1213,1798
"Victoria, Tarlac, Philippines",15.59077,120.68901,Globe,61322,53536,61.32,53.54,5,5279,1074,2485
"San Mateo, Rizal, Philippines",14.69539,121.11767,PLDT Home Fiber,159589,162287,159.59,162.29,3,5173,1195,1712
"Bacoor, Cavite, Philippines",14.43122,120.96567,Globe,181166,157007,181.17,157.01,5,5116,1116,1447
"Banga, South Cotabato, Philippines",6.38791,124.79617,PLDT Home Fiber,77485,73016,77.49,73.02,11,5045,991,1478
"Santa Cruz, Davao del Sur, Philippines",6.83551,125.41659,Converge,134008,125784,134.01,125.78,4,4954,1405,2191
"City of Santa Rosa, Laguna, Philippines",14.31471,121.11232,PLDT Home Fiber,110369,109196,110.37,109.20,7,4927,909,1282
"Kawit, Cavite, Philippines",14.44588,120.90871,Globe,186157,148541,186.16,148.54,6,4897,1140,1642
"Antipolo City, 1870 Rizal, Philippines",14.58584,121.17569,Globe,159388,153111,159.39,153.11,5,4841,978,1252
"Baliwag, Bulacan, Philippines",14.96569,120.89431,PLDT Home Fiber,103590,112331,103.59,112.33,8,4805,1149,1660
"Valenzuela, Metro Manila, Philippines",14.69247,120.96991,Globe,186357,148603,186.36,148.60,4,4763,933,1216
"Taytay, Rizal, Philippines",14.55288,121.12571,PLDT,83001,87799,83.00,87.80,6,4728,1397,2103
"San Pedro, Laguna, Philippines",14.36443,121.06192,PLDT Home Fiber,140153,139378,140.15,139.38,5,4658,1004,1271
"Batangas City, Batangas, Philippines",13.75641,121.05833,PLDT Home Fiber,119457,120132,119.46,120.13,8,4649,1303,1844
"Santo Tomas, Batangas, Philippines",14.08754,121.17764,PLDT Home Fiber,103100,134362,103.10,134.36,9,4606,1045,1471
"Umingan, Pangasinan, Philippines",15.90396,120.82692,Globe,61156,53536,61.16,53.54,6,4579,1023,2108
"Las Piñas, Metro Manila, Philippines",14.44934,120.98186,Converge,168421,164468,168.42,164.47,4,4541,952,1361
"Danao, Cebu, Philippines",10.52013,124.02712,PLDT Home Fiber,160068,195924,160.07,195.92,5,4498,1337,1995
"SJDM, Bulacan, Philippines",14.82867,121.04324,PLDT,72666,69080,72.67,69.08,8,4480,1041,1444
"City of Santa Rosa, Laguna, Philippines",14.31471,121.11232,PLDT,85509,85132,85.51,85.13,9,4480,1131,1584
"Cabanatuan City, Nueva Ecija, Philippines",15.49943,121.01057,PLDT Home Fiber,83104,93668,83.10,93.67,11,4473,953,1313
"Santa Maria, Bulacan, Philippines",14.82898,120.97616,PLDT Home Fiber,134119,111757,134.12,111.76,8,4406,1076,1509
"Rodriguez, Rizal, Philippines",14.73202,121.14516,PLDT Home Fiber,119502,149248,119.50,149.25,4,4384,851,1069
"Marilao, Bulacan, Philippines",14.77237,120.96001,PLDT Home Fiber,104944,97860,104.94,97.86,9,4357,931,1297
"Silang, Cavite, Philippines",14.22025,120.96469,PLDT,100052,106314,100.05,106.31,7,4317,1258,1830
"Arayat, Pampanga, Philippines",15.15443,120.771,PLDT Home Fiber,94373,94413,94.37,94.41,9,4226,1249,1932
"Meycauayan, Bulacan, Philippines",14.73772,120.96077,PLDT Home Fiber,102294,100285,102.29,100.29,10,4194,1005,1426
"Calamba, Laguna, Philippines",14.19488,121.15974,Globe,130209,116064,130.21,116.06,6,4172,1112,1624
"Cardona, Rizal, Philippines",14.48493,121.232,PLDT,157050,169075,157.05,169.08,3,4156,1349,2052
"Candaba, Pampanga, Philippines",15.09289,120.8277,Converge,159530,179047,159.53,179.05,4,4129,1121,1719
"Kawit, Cavite, Philippines",14.44588,120.90871,PLDT,91431,94246,91.43,94.25,10,4069,1065,1635
"Cainta, Rizal, Philippines",14.58056,121.11565,Converge,160264,157201,160.26,157.20,3,4008,990,1306
"Bansalan, Davao del Sur, Philippines",6.84825,125.22584,PLDT Home Fiber,109968,96981,109.97,96.98,9,3945,1234,1818
"Bago, Negros Occidental, Philippines",10.53757,122.83609,Globe,117222,106392,117.22,106.39,4,3939,1148,1715
"Lapu-Lapu, Cebu, Philippines",10.31838,123.96395,Converge,124748,144347,124.75,144.35,3,3912,706,1054
"Lucena City, Quezon, Philippines",13.94139,121.62345,PLDT Home Fiber,100269,117803,100.27,117.80,4,3910,954,1400
"Lipa City, Batangas, Philippines",13.94047,121.19395,Globe,138374,138716,138.37,138.72,7,3864,1031,1516
"Mabalacat City, Pampanga, Philippines",15.24525,120.56567,Converge,114749,124426,114.75,124.43,3,3846,868,1153
"Las Piñas, Metro Manila, Philippines",14.44934,120.98186,Globe,207609,161245,207.61,161.25,5,3827,856,1073
"Pasay City, Metro Manila, Philippines",14.53767,121.00081,Converge,192887,192948,192.89,192.95,4,3808,940,1285
"Toledo, Cebu, Philippines",10.38705,123.65017,Globe,114274,99627,114.27,99.63,17,3789,1270,1756
"Tarlac City, Tarlac, Philippines",15.48808,120.58719,PLDT Home Fiber,98625,96296,98.63,96.30,10,3651,878,1284
"Compostela, Cebu, Philippines",10.45408,124.013,Converge,145596,180176,145.60,180.18,2,3578,1057,1589
"Cadiz City, Negros Occidental, Philippines",10.86192,123.23632,PLDT Home Fiber,91761,94104,91.76,94.10,8,3578,822,1313
"General Mamerto Natividad, Nueva Ecija, Philippines",15.58788,121.04498,Converge,99826,109059,99.83,109.06,6,3561,801,1423
"Marikina, Metro Manila, Philippines",14.63493,121.10195,PLDT,68307,73095,68.31,73.10,10,3551,916,1296
"Lipa City, Batangas, Philippines",13.94047,121.19395,Converge,133453,124669,133.45,124.67,6,3537,758,1202
"Lipa City, Batangas, Philippines",13.94047,121.19395,PLDT,93638,96837,93.64,96.84,8,3395,1018,1371
"Dolores, Quezon, Philippines",14.00193,121.41133,Converge,118797,189028,118.80,189.03,5,3390,786,1355
"Matalam, Cotabato, Philippines",7.17236,124.92861,PLDT Home Fiber,129474,96843,129.47,96.84,9,3380,1181,1651
"Angono, Rizal, Philippines",14.52592,121.15321,PLDT,94741,96908,94.74,96.91,4,3375,1123,1686
"City of Tayabas, Quezon, Philippines",14.01135,121.55983,PLDT Home Fiber,152187,167345,152.19,167.35,8,3365,960,1474
"Mauban, Quezon, Philippines",14.23756,121.69674,Converge,104297,106137,104.30,106.14,11,3336,717,1216
"Talavera, Nueva Ecija, Philippines",15.58575,120.9197,Converge,102550,109428,102.55,109.43,5,3284,794,1456
"City of Guihulngan, Negros Oriental, Philippines",10.18323,123.21385,PLDT Home Fiber,93824,101637,93.82,101.64,6,3279,940,1354
"Bocaue, Bulacan, Philippines",14.7943,120.93073,Converge,151791,117113,151.79,117.11,7,3262,755,1137
"Zamboanga City, Zamboanga del Sur, Philippines",6.90437,122.07612,Globe,116912,109172,116.91,109.17,14,3246,432,558
"Compostela, Cebu, Philippines",10.45408,124.013,Globe,64860,57157,64.86,57.16,6,3234,1031,1669
"Bamban, Tarlac, Philippines",15.2885,120.57044,Converge,146037,152110,146.04,152.11,3,3219,908,1354
"Silay, Negros Occidental, Philippines",10.79968,122.97605,PLDT,74412,76343,74.41,76.34,23,3213,702,1117
"Calatrava, Negros Occidental, Philippines",10.62843,123.39349,PLDT,111435,112183,111.44,112.18,6,3210,995,1450
"Lapu-Lapu, Cebu, Philippines",10.31838,123.96395,PLDT Home Fiber,162831,192924,162.83,192.92,3,3160,656,809
"Bokod, Benguet, Philippines",16.45641,120.78097,PLDT Home Fiber,120008,100309,120.01,100.31,5,3123,994,1490
"Consolacion, Cebu, Philippines",10.37581,123.95694,Globe,67711,63902,67.71,63.90,6,3108,832,1299
"Cabiao, Nueva Ecija, Philippines",15.25221,120.85957,Converge,121197,151197,121.20,151.20,4,3081,869,1381
"Manaoag, Pangasinan, Philippines",16.04627,120.4876,Converge,97896,105854,97.90,105.85,5,3075,939,1514
"San Nicolas, Pangasinan, Philippines",16.12066,120.78097,PLDT Home Fiber,94376,95843,94.38,95.84,6,3070,945,1471
"SJDM, Bulacan, Philippines",14.82867,121.04324,PLDT Home Fiber,116661,106578,116.66,106.58,5,3059,725,1005
"Pasay City, Metro Manila, Philippines",14.53767,121.00081,Globe,189671,173266,189.67,173.27,5,3056,775,1204
"Polomolok, South Cotabato, Philippines",6.22451,125.06084,PLDT Home Fiber,95686,94587,95.69,94.59,11,3048,712,1000
"Concepcion, Tarlac, Philippines",15.324,120.65596,PLDT Home Fiber,100673,96528,100.67,96.53,10,3032,670,993
"Panglao, Bohol, Philippines",9.56947,123.78721,Converge,64083,60023,64.08,60.02,26,3026,166,263
"San Pedro, Laguna, Philippines",14.36443,121.06192,Converge,187985,133140,187.99,133.14,6,3022,551,895
"Kidapawan, Cotabato, Philippines",7.02127,125.09019,PLDT Home Fiber,94596,96931,94.60,96.93,10,3012,801,1127
"Nagcarlan, Laguna, Philippines",14.14903,121.38847,PLDT Home Fiber,128596,161660,128.60,161.66,8,3005,750,1177
"San Manuel, Pangasinan, Philippines",16.10561,120.67751,PLDT Home Fiber,101522,105824,101.52,105.82,6,3002,911,1355
"Lapu-Lapu, Cebu, Philippines",10.31838,123.96395,Globe,139965,133944,139.97,133.94,5,2998,562,704
"Diadi, Nueva Vizcaya, Philippines",16.6595,121.33129,Converge,96783,107993,96.78,107.99,9,2983,676,1293
"Magsaysay, Davao del Sur, Philippines",6.75271,125.15221,PLDT Home Fiber,114578,99734,114.58,99.73,9,2980,913,1318
"Silang, Cavite, Philippines",14.22025,120.96469,Globe,96431,94571,96.43,94.57,6,2979,798,1311
"Alicia, Isabela, Philippines",16.80691,121.69674,Converge,98789,108702,98.79,108.70,9,2977,642,1119
"Candelaria, Quezon, Philippines",13.94899,121.42276,PLDT Home Fiber,100830,111346,100.83,111.35,5,2949,816,1181
"Pitogo, Quezon, Philippines",13.80951,122.10647,Converge,104614,102895,104.61,102.90,10,2912,662,1081
"Bocaue, Bulacan, Philippines",14.7943,120.93073,PLDT Home Fiber,96330,97742,96.33,97.74,9,2873,695,983
"Balanga City, Bataan, Philippines",14.67454,120.47033,PLDT Home Fiber,69097,136259,69.10,136.26,9,2840,434,560
"General Santos City (Dadiangas), South Cotabato, Philippines",6.14327,125.19286,Globe,105960,104949,105.96,104.95,15,2834,392,480
"Tacurong City, Sultan Kudarat, Philippines",6.6866,124.66353,PLDT Home Fiber,94306,93895,94.31,93.90,11,2823,603,854
"Imus, Cavite, Philippines",14.42764,120.93724,Globe,187890,164278,187.89,164.28,5,2818,724,1005
"Liloan, Cebu, Philippines",10.39926,124.00002,Converge,144554,188892,144.55,188.89,3,2816,764,1182
"Bulakan, Bulacan, Philippines",14.79484,120.87889,PLDT,87984,92159,87.98,92.16,5,2781,825,1241
"Mandaue, Cebu, Philippines",10.3279,123.94273,Globe,159741,138913,159.74,138.91,5,2768,512,652
"San Miguel, Bulacan, Philippines",15.14158,120.9751,PLDT Home Fiber,94415,94779,94.42,94.78,9,2717,645,986
"Rosario, Batangas, Philippines",13.80433,121.28552,Globe,127265,124329,127.27,124.33,7,2704,855,1303
"Rosario, Cavite, Philippines",14.41672,120.85471,Converge,172787,187076,172.79,187.08,6,2700,600,943
"Lapu-Lapu, Cebu, Philippines",10.31838,123.96395,PLDT,92480,98397,92.48,98.40,3,2683,573,800
"Mandaue, Cebu, Philippines",10.3279,123.94273,PLDT Home Fiber,148153,155715,148.15,155.72,3,2670,641,805
"Santa Fe, Nueva Vizcaya, Philippines",16.18249,120.91878,PLDT Home Fiber,104628,103273,104.63,103.27,6,2638,743,1127
"San Fernando, Pampanga, Philippines",15.02781,120.69349,PLDT,72656,70210,72.66,70.21,12,2632,757,1094
"Jamindan, Capiz, Philippines",11.39423,122.42407,Converge,150000,132608,150.00,132.61,13,2621,598,1182
"Tagum, Davao del Norte, Philippines",7.44742,125.80246,PLDT Home Fiber,95886,94676,95.89,94.68,8,2609,600,762
"Zaragoza, Nueva Ecija, Philippines",15.46003,120.79246,Globe,252786,226822,252.79,226.82,5,2588,685,1168
"Binangonan, Rizal, Philippines",14.48441,121.1869,PLDT Home Fiber,139452,137949,139.45,137.95,3,2588,677,1033
"Malolos, Bulacan, Philippines",14.86049,120.80916,PLDT,80520,87497,80.52,87.50,7,2565,647,950
"Candaba, Pampanga, Philippines",15.09289,120.8277,Globe,178875,140462,178.88,140.46,6,2550,603,953
"Malasiqui, Pangasinan, Philippines",15.92028,120.41443,PLDT Home Fiber,105441,117816,105.44,117.82,8,2522,605,975
"Navotas, Metro Manila, Philippines",14.65819,120.94743,PLDT Home Fiber,135434,164690,135.43,164.69,4,2520,588,779
"Subic Bay Freeport Zone, Philippines",14.80319,120.30033,PLDT,57894,65919,57.89,65.92,13,2507,703,1068
"Carmen, Cebu, Philippines",10.58876,123.96385,Globe,126021,104955,126.02,104.96,8,2484,749,1150
"President Roxas, Cotabato, Philippines",7.37928,125.06084,PLDT Home Fiber,143800,97083,143.80,97.08,9,2480,749,1041
"Dagupan City, Pangasinan, Philippines",16.03375,120.33202,Converge,93596,94839,93.60,94.84,6,2470,533,775
"Arakan, Cotabato, Philippines",7.35122,125.17087,PLDT,99416,96558,99.42,96.56,12,2466,825,1141
"La Castellana, Negros Occidental, Philippines",10.33198,123.10141,PLDT Home Fiber,94033,110012,94.03,110.01,8,2455,605,876
"Tanza, Cavite, Philippines",14.34293,120.85032,PLDT Home Fiber,170031,165416,170.03,165.42,4,2453,548,701
"Arakan, Cotabato, Philippines",7.35122,125.17087,PLDT Home Fiber,100499,94769,100.50,94.77,9,2446,823,1161
"Obando, Bulacan, Philippines",14.70986,120.93674,PLDT,91437,93761,91.44,93.76,6,2434,686,1038
"San Pedro, Laguna, Philippines",14.36443,121.06192,PLDT,103573,96494,103.57,96.49,7,2418,619,860
"Koronadal, South Cotabato, Philippines",6.50044,124.84333,PLDT Home Fiber,95908,93536,95.91,93.54,11,2401,405,523
"Pandi, Bulacan, Philippines",14.87572,120.95941,PLDT Home Fiber,105688,95124,105.69,95.12,8,2372,751,1112
"Tagaytay City, Cavite, Philippines",14.11541,120.96202,PLDT,94604,94642,94.60,94.64,9,2335,669,1090
"Angono, Rizal, Philippines",14.52592,121.15321,PLDT Home Fiber,107812,123296,107.81,123.30,4,2314,489,646
"City of Santa Rosa, Laguna, Philippines",14.31471,121.11232,Converge,124921,116489,124.92,116.49,6,2309,455,708
"San Antonio, Nueva Ecija, Philippines",15.31921,120.82692,PLDT Home Fiber,94073,94653,94.07,94.65,10,2304,708,1107
"Balamban, Cebu, Philippines",10.48585,123.77412,Globe,129503,106934,129.50,106.93,7,2302,635,963
"Kayapa, Nueva Vizcaya, Philippines",16.49326,120.94174,PLDT,94498,94718,94.50,94.72,6,2285,672,1064
"Lucena City, Quezon, Philippines",13.94139,121.62345,Converge,100718,105706,100.72,105.71,10,2277,412,639
"Mandaue, Cebu, Philippines",10.3279,123.94273,Converge,159423,154604,159.42,154.60,3,2276,511,751
"Angeles, Pampanga, Philippines",15.16061,120.60908,PLDT,68717,75251,68.72,75.25,9,2272,727,1106
"Baguio, Benguet, Philippines",16.41297,120.5914,Globe,113542,105180,113.54,105.18,6,2233,449,621
"Malabon, Metro Manila, Philippines",14.65793,120.95118,PLDT,93193,97652,93.19,97.65,4,2215,445,634
"Carmen, Cebu, Philippines",10.58876,123.96385,PLDT Home Fiber,146758,201223,146.76,201.22,5,2208,762,1116
"Obando, Bulacan, Philippines",14.70986,120.93674,PLDT Home Fiber,133686,132826,133.69,132.83,5,2206,621,880
"Calauan, Laguna, Philippines",14.14551,121.3146,PLDT Home Fiber,115880,130006,115.88,130.01,8,2195,569,924
"General Trias, Cavite, Philippines",14.38159,120.87915,PLDT,114666,115985,114.67,115.99,8,2172,477,622
"Tuguegarao City, Cagayan, Philippines",17.60306,121.75374,PLDT,89150,88537,89.15,88.54,13,2157,555,762
"Cabanatuan City, Nueva Ecija, Philippines",15.49943,121.01057,PLDT,71203,77849,71.20,77.85,12,2151,517,771
"Sagay City, Negros Occidental, Philippines",10.84555,123.37106,PLDT Home Fiber,91245,94457,91.25,94.46,8,2130,525,774
"Muntinlupa, Metro Manila, Philippines",14.39453,121.04483,Globe,198167,196525,198.17,196.53,6,2115,429,550
"Cabiao, Nueva Ecija, Philippines",15.25221,120.85957,Globe,151205,127311,151.21,127.31,6,2112,543,811
"San Ildefonso, Bulacan, Philippines",15.07717,120.94171,PLDT Home Fiber,93891,94420,93.89,94.42,8,2110,615,967
"Mandaue, Cebu, Philippines",10.3279,123.94273,PLDT,75779,77983,75.78,77.98,4,2103,461,655
"Kabacan, Cotabato, Philippines",7.10719,124.84034,PLDT Home Fiber,109236,94695,109.24,94.70,9,2094,636,903
"Dagupan City, Pangasinan, Philippines",16.03375,120.33202,PLDT,80624,85360,80.62,85.36,6,2086,534,842
"Batangas City, Batangas, Philippines",13.75641,121.05833,PLDT,94315,94565,94.32,94.57,9,2073,562,844
"General Santos City (Dadiangas), South Cotabato, Philippines",6.14327,125.19286,PLDT,70527,64189,70.53,64.19,17,2025,476,664
"Lucban, Quezon, Philippines",14.1144,121.55472,PLDT Home Fiber,140015,139998,140.02,140.00,8,2022,597,938
"Santa Fe, Nueva Vizcaya, Philippines",16.18249,120.91878,PLDT,94291,94721,94.29,94.72,6,2013,572,891
"Roxas City, Capiz, Philippines",11.55288,122.74072,PLDT Home Fiber,95272,106215,95.27,106.22,11,2012,304,435
"Cabuyao City, Laguna, Philippines",14.27433,121.11961,PLDT,93874,94582,93.87,94.58,9,2010,492,722
"Santo Tomas, Davao del Norte, Philippines",7.50929,125.63142,PLDT Home Fiber,94158,91981,94.16,91.98,9,1994,359,531
"Angono, Rizal, Philippines",14.52592,121.15321,Converge,223081,202623,223.08,202.62,3,1993,538,814
"Talisay, Cebu, Philippines",10.25859,123.82413,PLDT,134422,135254,134.42,135.25,3,1991,404,508
"Puerto Princesa City, Palawan, Philippines",9.78563,118.62648,PLDT Home Fiber,73892,92995,73.89,93.00,20,1980,393,523
"City of Santa Rosa, Laguna, Philippines",14.31471,121.11232,Globe,196976,176760,196.98,176.76,6,1976,553,810
"Talisay, Cebu, Philippines",10.25859,123.82413,PLDT Home Fiber,149142,152398,149.14,152.40,4,1972,362,463
"Malvar, Batangas, Philippines",14.04329,121.15875,PLDT Home Fiber,97948,99451,97.95,99.45,9,1958,523,765
"Naic, Cavite, Philippines",14.29649,120.79246,PLDT,83904,87936,83.90,87.94,9,1956,498,697
"Tuguegarao City, Cagayan, Philippines",17.60306,121.75374,Converge,75242,74639,75.24,74.64,12,1950,412,599
"President Roxas, Cotabato, Philippines",7.37928,125.06084,PLDT,98207,95280,98.21,95.28,11,1945,724,1009
"Kibungan, Benguet, Philippines",16.68162,120.68901,PLDT Home Fiber,98509,95495,98.51,95.50,6,1943,674,1021
"Cagayan De Oro City, Misamis Oriental, Philippines",8.48029,124.64975,PLDT,62562,59111,62.56,59.11,18,1930,485,676
"Angat, Bulacan, Philippines",14.92586,121.02204,PLDT Home Fiber,108703,127027,108.70,127.03,8,1930,471,690
"Daet, Camarines Norte, Philippines",14.10303,122.9325,PLDT,86716,84898,86.72,84.90,9,1928,406,539
"Carmona, Cavite, Philippines",14.3135,121.05712,PLDT,136157,141164,136.16,141.16,7,1925,451,602
"Malolos, Bulacan, Philippines",14.86049,120.80916,Converge,118259,109963,118.26,109.96,6,1893,351,490
"Consolacion, Cebu, Philippines",10.37581,123.95694,PLDT Home Fiber,168219,208931,168.22,208.93,4,1884,477,655
"Digos, Davao del Sur, Philippines",6.74347,125.35515,PLDT Home Fiber,101197,97410,101.20,97.41,9,1875,563,777
"Santa Rita, Pampanga, Philippines",14.99762,120.61451,PLDT Home Fiber,115751,125741,115.75,125.74,8,1867,515,776
"Lucena City, Quezon, Philippines",13.94139,121.62345,PLDT,93632,94359,93.63,94.36,4,1853,382,550
"Isabela, Basilan, Philippines",6.70387,121.9799,Globe,101104,94271,101.10,94.27,15,1851,59,74
"San Jose City, Nueva Ecija, Philippines",15.79188,120.99008,PLDT,54545,56552,54.55,56.55,15,1850,285,411
"Malaybalay City, Bukidnon, Philippines",8.15775,125.17087,PLDT Home Fiber,100503,109735,100.50,109.74,10,1842,405,576
"Dipolog City, Zamboanga del Norte, Philippines",8.58717,123.34035,PLDT Home Fiber,99460,99181,99.46,99.18,11,1839,320,412
"Bay, Laguna, Philippines",14.14064,121.26836,PLDT Home Fiber,139392,142632,139.39,142.63,4,1839,473,768
"San Jose City, Nueva Ecija, Philippines",15.79188,120.99008,Converge,102754,109119,102.75,109.12,5,1839,359,531
"Orani, Bataan, Philippines",14.80086,120.53616,Converge,99085,95030,99.09,95.03,6,1823,537,741
"Silay, Negros Occidental, Philippines",10.79968,122.97605,PLDT Home Fiber,104262,111419,104.26,111.42,13,1809,480,741
"Danao, Cebu, Philippines",10.52013,124.02712,PLDT,53064,64631,53.06,64.63,7,1799,246,320
"Matanao, Davao del Sur, Philippines",6.70421,125.22584,PLDT Home Fiber,111481,109271,111.48,109.27,9,1798,562,763
"Tacloban City, Leyte, Philippines",11.22238,124.99221,PLDT,89772,94277,89.77,94.28,6,1778,418,578
"San Simon, Pampanga, Philippines",14.98432,120.75127,PLDT Home Fiber,93370,94105,93.37,94.11,8,1778,401,645
"Mariveles, Bataan, Philippines",14.4354,120.49003,Converge,104308,106115,104.31,106.12,9,1769,220,305
"Imus, Cavite, Philippines",14.42764,120.93724,PLDT,114588,121644,114.59,121.64,7,1764,467,604
"San Mateo, Rizal, Philippines",14.69539,121.11767,Converge,160967,152843,160.97,152.84,4,1761,436,581
"Marilao, Bulacan, Philippines",14.77237,120.96001,Globe,169239,158187,169.24,158.19,8,1758,305,404
"General Mariano Alvarez, Cavite, Philippines",14.29525,121.0071,PLDT,102024,105304,102.02,105.30,7,1756,478,639
"La Trinidad, Benguet, Philippines",16.44844,120.59047,PLDT Home Fiber,91443,90421,91.44,90.42,9,1742,436,615
"Taytay, Rizal, Philippines",14.55288,121.12571,Globe,225254,199030,225.25,199.03,5,1734,312,381
"San Juan, Batangas, Philippines",13.75044,121.37703,PLDT Home Fiber,93327,94864,93.33,94.86,8,1734,459,697
"Dolores, Quezon, Philippines",14.00193,121.41133,PLDT Home Fiber,130326,124275,130.33,124.28,5,1732,531,775
"Porac, Pampanga, Philippines",15.06974,120.55007,PLDT Home Fiber,97671,120491,97.67,120.49,7,1731,431,602
"Talisay, Negros Occidental, Philippines",10.74828,122.98012,PLDT Home Fiber,94636,110237,94.64,110.24,10,1724,401,591
"Biñan, Laguna, Philippines",14.31456,121.08316,Converge,103234,109335,103.23,109.34,6,1723,339,542
"Mariveles, Bataan, Philippines",14.4354,120.49003,PLDT Home Fiber,71050,86371,71.05,86.37,9,1719,205,270
"Talisay, Negros Occidental, Philippines",10.74828,122.98012,PLDT,74737,69236,74.74,69.24,20,1715,357,547
"Alfonso, Cavite, Philippines",14.1214,120.86138,PLDT Home Fiber,100168,101768,100.17,101.77,6,1714,278,394
"Baliwag, Bulacan, Philippines",14.96569,120.89431,PLDT,67966,70144,67.97,70.14,7,1705,379,500
"Santa Maria, Bulacan, Philippines",14.82898,120.97616,Globe,191816,175030,191.82,175.03,8,1673,285,380
"Lagawe, Ifugao, Philippines",16.80825,121.19395,PLDT Home Fiber,101434,97852,101.43,97.85,8,1672,434,788
"San Fernando City, La Union, Philippines",16.61592,120.32102,PLDT Home Fiber,102889,94515,102.89,94.52,3,1665,250,347
"San Juan City, Metro Manila, Philippines",14.60196,121.0355,Globe,153563,139897,153.56,139.90,5,1663,421,602
"Tagum, Davao del Norte, Philippines",7.44742,125.80246,Globe,124576,118348,124.58,118.35,5,1662,235,296
"Navotas, Metro Manila, Philippines",14.65819,120.94743,Converge,201622,179156,201.62,179.16,4,1649,303,438
"Cabiao, Nueva Ecija, Philippines",15.25221,120.85957,PLDT Home Fiber,114089,112296,114.09,112.30,9,1636,544,846
"Malabon, Metro Manila, Philippines",14.65793,120.95118,Globe,165621,162428,165.62,162.43,5,1630,387,486
"Unisan, Quezon, Philippines",13.86351,122.01555,Converge,94538,94448,94.54,94.45,10,1622,381,599
"Mexico, Pampanga, Philippines",15.06457,120.72033,PLDT,68213,74676,68.21,74.68,14,1621,439,618
"Bago, Negros Occidental, Philippines",10.53757,122.83609,PLDT,85080,87466,85.08,87.47,7,1617,186,249
"Santa Maria, Bulacan, Philippines",14.82898,120.97616,PLDT,75508,71291,75.51,71.29,14,1614,415,589
"Liloan, Cebu, Philippines",10.39926,124.00002,Globe,168303,153161,168.30,153.16,5,1608,335,468
"Tagbilaran City, Bohol, Philippines",9.6534,123.86703,PLDT Home Fiber,103943,122536,103.94,122.54,10,1601,278,363
"Dumaguete City, Negros Oriental, Philippines",9.29841,123.29249,PLDT,91725,98595,91.73,98.60,9,1553,235,343
"Antipas, Cotabato, Philippines",7.27386,125.01679,PLDT Home Fiber,137511,97172,137.51,97.17,8,1535,518,718
"Santo Nino, Cagayan, Philippines",17.91267,121.49132,Converge,93342,94150,93.34,94.15,13,1531,383,715
"Meycauayan, Bulacan, Philippines",14.73772,120.96077,Converge,150680,129449,150.68,129.45,7,1504,328,471
"Rodriguez, Rizal, Philippines",14.73202,121.14516,Converge,166872,166264,166.87,166.26,4,1503,406,512
"SJDM, Bulacan, Philippines",14.82867,121.04324,Globe,185788,148949,185.79,148.95,8,1500,274,363
"Magalang, Pampanga, Philippines",15.21394,120.66181,Converge,102279,97213,102.28,97.21,3,1494,338,440
"Concepcion, Tarlac, Philippines",15.324,120.65596,PLDT,57777,56359,57.78,56.36,9,1493,313,417
"Antipas, Cotabato, Philippines",7.27386,125.01679,PLDT,165250,123098,165.25,123.10,11,1487,472,648
"Morong, Rizal, Philippines",14.51286,121.23855,PLDT Home Fiber,149318,148632,149.32,148.63,4,1481,427,707
"Malvar, Batangas, Philippines",14.04329,121.15875,Converge,160418,142517,160.42,142.52,6,1479,395,682
"Arayat, Pampanga, Philippines",15.15443,120.771,Globe,147285,134673,147.29,134.67,5,1473,439,646
"Apalit, Pampanga, Philippines",14.95255,120.76688,PLDT Home Fiber,99084,99299,99.08,99.30,6,1469,324,497
"Laoag City, Ilocos Norte, Philippines",18.21075,120.58547,Converge,95101,103043,95.10,103.04,10,1463,421,663
"Talisay, Cebu, Philippines",10.25859,123.82413,Globe,159700,144931,159.70,144.93,8,1458,322,418
"Lobo, Batangas, Philippines",13.6877,121.23974,Globe,178130,126353,178.13,126.35,8,1452,486,708
"Cotabato City, Maguindanao, Philippines",7.20467,124.23104,PLDT Home Fiber,123034,111167,123.03,111.17,12,1449,322,407
"Naga City, Camarines Sur, Philippines",13.6475,123.27003,Globe,117337,109801,117.34,109.80,12,1436,282,371
"San Jose City, Nueva Ecija, Philippines",15.79188,120.99008,PLDT Home Fiber,86722,86758,86.72,86.76,13,1435,216,293
"San Rafael, Bulacan, Philippines",15.00184,120.93141,Globe,223991,201130,223.99,201.13,6,1432,429,618
"M'lang, Cotabato, Philippines",6.93822,124.90655,PLDT Home Fiber,94613,97995,94.61,98.00,10,1424,430,649
"Calumpit, Bulacan, Philippines",14.91518,120.7662,PLDT Home Fiber,118937,106663,118.94,106.66,7,1416,366,489
"San Ildefonso, Bulacan, Philippines",15.07717,120.94171,Converge,121274,117852,121.27,117.85,7,1411,135,203
"Sariaya, Quezon, Philippines",13.96301,121.52388,Converge,166880,181054,166.88,181.05,5,1401,392,663
"Mabalacat City, Pampanga, Philippines",15.24525,120.56567,PLDT Home Fiber,151865,138518,151.87,138.52,7,1396,301,403
"Talisay, Cebu, Philippines",10.25859,123.82413,Converge,226218,198626,226.22,198.63,7,1393,246,377
"Guiguinto, Bulacan, Philippines",14.82832,120.88429,PLDT Home Fiber,147851,126778,147.85,126.78,8,1393,378,516
"Infanta, Quezon, Philippines",14.74071,121.6451,PLDT,51799,55018,51.80,55.02,13,1384,344,480
"Gapan City, Nueva Ecija, Philippines",15.29121,121.01057,PLDT Home Fiber,96051,96063,96.05,96.06,12,1378,294,434
"Palo, Leyte, Philippines",11.15847,124.99191,PLDT,66012,59424,66.01,59.42,17,1369,273,388
"Guagua, Pampanga, Philippines",14.96374,120.63244,Converge,47000,43352,47.00,43.35,5,1364,325,471
"Legazpi City, Albay, Philippines",13.11288,123.76295,PLDT,96947,113748,96.95,113.75,7,1359,286,411
"Kapangan, Benguet, Philippines",16.61238,120.59698,PLDT Home Fiber,93287,94496,93.29,94.50,6,1358,476,694
"Magalang, Pampanga, Philippines",15.21394,120.66181,PLDT Home Fiber,94419,94595,94.42,94.60,10,1353,347,583
"Pagadian City, Zamboanga del Sur, Philippines",7.86265,123.37106,PLDT Home Fiber,122290,119134,122.29,119.13,6,1346,266,352
"San Miguel, Bulacan, Philippines",15.14158,120.9751,Globe,119122,109381,119.12,109.38,6,1336,306,429
"Pulilan, Bulacan, Philippines",14.90243,120.8459,PLDT Home Fiber,97665,102793,97.67,102.79,6,1332,367,540
"Palayan City, Nueva Ecija, Philippines",15.53906,121.09083,Converge,99911,112428,99.91,112.43,7,1331,310,442
"Goa, Camarines Sur, Philippines",13.73619,123.41593,PLDT Home Fiber,74369,77626,74.37,77.63,9,1324,188,267
"Santa Ana, Pampanga, Philippines",15.09442,120.76623,PLDT Home Fiber,91717,92692,91.72,92.69,8,1323,408,664
"Baras, Rizal, Philippines",14.53656,121.27408,PLDT Home Fiber,40931,114587,40.93,114.59,22,1321,139,178
"Dinalupihan, Bataan, Philippines",14.88605,120.44729,PLDT Home Fiber,88997,132933,89.00,132.93,10,1318,209,254
"Naic, Cavite, Philippines",14.29649,120.79246,PLDT Home Fiber,101292,102599,101.29,102.60,7,1313,204,263
"Kayapa, Nueva Vizcaya, Philippines",16.49326,120.94174,PLDT Home Fiber,93693,95048,93.69,95.05,6,1311,353,557
"San Manuel, Pangasinan, Philippines",16.10561,120.67751,PLDT,94750,94962,94.75,94.96,6,1304,388,609
"Mambusao, Capiz, Philippines",11.44257,122.59383,Converge,98794,103795,98.79,103.80,14,1304,347,663
"Consolacion, Cebu, Philippines",10.37581,123.95694,PLDT,123722,137207,123.72,137.21,4,1300,314,399
"Lubao, Pampanga, Philippines",14.92678,120.58795,Converge,67237,67582,67.24,67.58,4,1300,282,415
"Surigao, Surigao del Norte, Philippines",9.79022,125.49311,PLDT Home Fiber,78453,87111,78.45,87.11,11,1298,254,316
"Sariaya, Quezon, Philippines",13.96301,121.52388,PLDT Home Fiber,98677,118016,98.68,118.02,4,1297,375,553
"Balagtas, Bulacan, Philippines",14.81784,120.90646,PLDT Home Fiber,134542,111145,134.54,111.15,7,1291,402,571
"Puerto Princesa City, Palawan, Philippines",9.78563,118.62648,PLDT,63102,94990,63.10,94.99,19,1287,294,421
"Toledo, Cebu, Philippines",10.38705,123.65017,PLDT,33628,38746,33.63,38.75,6,1284,121,153
"Talaingod, Davao del Norte, Philippines",7.68339,125.522,Globe,63932,56132,63.93,56.13,4,1276,387,632
"Sorsogon City, Sorsogon, Philippines",12.97888,123.98477,PLDT,101163,121707,101.16,121.71,13,1275,161,218
"Taal, Batangas, Philippines",13.87826,120.92508,Globe,230810,196318,230.81,196.32,6,1273,355,569
"Quezon, Nueva Ecija, Philippines",15.56953,120.82692,Globe,266638,239058,266.64,239.06,5,1272,353,587
"Liliw, Laguna, Philippines",14.12617,121.4399,PLDT Home Fiber,133843,158269,133.84,158.27,8,1269,310,525
"Pinamungahan, Cebu, Philippines",10.26958,123.63996,Globe,170949,142007,170.95,142.01,18,1268,485,653
"Silang, Cavite, Philippines",14.22025,120.96469,Converge,147695,142940,147.70,142.94,6,1265,278,417
"Salvador Benedicto, Negros Occidental, Philippines",10.5887,123.23632,PLDT Home Fiber,149870,151846,149.87,151.85,8,1261,424,635
"San Pedro, Laguna, Philippines",14.36443,121.06192,Globe,136004,131368,136.00,131.37,9,1255,280,350
"Magalang, Pampanga, Philippines",15.21394,120.66181,PLDT,47707,47630,47.71,47.63,12,1249,279,414
"Taysan, Batangas, Philippines",13.76108,121.2283,Globe,113985,104880,113.99,104.88,8,1238,368,553
"Leyte, Philippines",11.32728,124.48636,PLDT,108381,111343,108.38,111.34,16,1237,238,410
"Atok, Benguet, Philippines",16.59745,120.68901,PLDT Home Fiber,94513,94807,94.51,94.81,5,1237,472,671
"Dumaguete City, Negros Oriental, Philippines",9.29841,123.29249,Globe,116096,101833,116.10,101.83,12,1233,260,357
"Naga City, Camarines Sur, Philippines",13.6475,123.27003,PLDT,65103,65825,65.10,65.83,13,1230,306,442
"Catarman, Northern Samar, Philippines",12.44271,124.61927,Globe,54366,96594,54.37,96.59,15,1230,121,160
"San Pablo City, Laguna, Philippines",14.06422,121.32326,PLDT,92110,94543,92.11,94.54,7,1228,326,455
"Legazpi City, Albay, Philippines",13.11288,123.76295,Converge,111235,109660,111.24,109.66,5,1224,236,356
"Virac, Catanduanes, Philippines",13.61939,124.17544,PLDT Home Fiber,69510,68189,69.51,68.19,10,1221,205,261
"Dumanjug, Cebu, Philippines",10.02819,123.47198,PLDT Home Fiber,94569,109740,94.57,109.74,7,1219,390,528
"Surallah, South Cotabato, Philippines",6.3195,124.75198,PLDT Home Fiber,71834,59758,71.83,59.76,12,1219,240,323
"Guagua, Pampanga, Philippines",14.96374,120.63244,PLDT Home Fiber,148896,103797,148.90,103.80,8,1214,344,526
"Iligan City, Lanao del Norte, Philippines",8.22707,124.46418,Globe,120395,58333,120.40,58.33,13,1213,243,310
"San Isidro, Nueva Ecija, Philippines",15.29656,120.9073,PLDT Home Fiber,98969,93577,98.97,93.58,10,1205,323,540
"Minglanilla, Cebu, Philippines",10.24543,123.79599,PLDT,109282,124990,109.28,124.99,4,1200,309,403
"Dipolog City, Zamboanga del Norte, Philippines",8.58717,123.34035,Globe,72698,41448,72.70,41.45,20,1197,100,133
"Plaridel, Bulacan, Philippines",14.88591,120.85932,Converge,100932,94480,100.93,94.48,7,1194,211,312
"Meycauayan, Bulacan, Philippines",14.73772,120.96077,Globe,142615,124462,142.62,124.46,8,1193,321,414
"Orion, Bataan, Philippines",14.61604,120.56431,PLDT Home Fiber,63978,111719,63.98,111.72,9,1190,127,149
"Sogod, Southern Leyte, Philippines",10.44929,125.01679,PLDT Home Fiber,45479,136106,45.48,136.11,17,1190,71,85
"Malvar, Batangas, Philippines",14.04329,121.15875,PLDT,99204,106234,99.20,106.23,9,1189,363,523
"Escalante City, Negros Occidental, Philippines",10.84117,123.49908,PLDT Home Fiber,88423,92268,88.42,92.27,9,1189,275,415
"Ormoc City, Leyte, Philippines",11.03843,124.61927,Converge,115280,127208,115.28,127.21,5,1184,164,245
"Calapan City, Oriental Mindoro, Philippines",13.36643,121.19395,PLDT,64076,67163,64.08,67.16,13,1183,293,434
"Navotas, Metro Manila, Philippines",14.65819,120.94743,PLDT,82173,80841,82.17,80.84,7,1182,317,471
"Digos, Davao del Sur, Philippines",6.74347,125.35515,Globe,117520,127506,117.52,127.51,4,1177,129,168
"Tanay, Rizal, Philippines",14.61419,121.37703,PLDT,67137,64944,67.14,64.94,7,1171,299,431
"Tuguegarao City, Cagayan, Philippines",17.60306,121.75374,PLDT Home Fiber,74777,79169,74.78,79.17,13,1170,310,444
"Malasiqui, Pangasinan, Philippines",15.92028,120.41443,Converge,93860,94475,93.86,94.48,5,1166,313,447
"Vintar, Ilocos Norte, Philippines",18.31413,120.78097,Converge,94673,104384,94.67,104.38,10,1162,321,528
"Butuan City, Agusan Del Norte, Philippines",8.94753,125.54063,PLDT,60475,61713,60.48,61.71,17,1160,352,518
"Daet, Camarines Norte, Philippines",14.10303,122.9325,Converge,120082,113367,120.08,113.37,6,1157,164,257
"San Quintin, Pangasinan, Philippines",15.9754,120.83841,PLDT Home Fiber,93597,94608,93.60,94.61,7,1156,362,586
"Panabo City, Davao del Norte, Philippines",7.30822,125.68662,PLDT Home Fiber,104268,95658,104.27,95.66,8,1155,263,350
"Plaridel, Bulacan, Philippines",14.88591,120.85932,PLDT,78901,89485,78.90,89.49,5,1148,278,392
"Meycauayan, Bulacan, Philippines",14.73772,120.96077,PLDT,87417,90302,87.42,90.30,7,1143,236,340
"Ormoc City, Leyte, Philippines",11.03843,124.61927,Globe,115864,103425,115.86,103.43,18,1142,185,262
"Roxas City, Capiz, Philippines",11.55288,122.74072,Globe,93888,82339,93.89,82.34,12,1141,152,216
"San Miguel, Bulacan, Philippines",15.14158,120.9751,Converge,118571,111535,118.57,111.54,6,1140,195,271
"Santa Rosa, Nueva Ecija, Philippines",15.42502,120.93838,PLDT Home Fiber,94494,96594,94.49,96.59,11,1139,257,385
"Sindangan, Zamboanga del Norte, Philippines",8.19151,123.05639,PLDT Home Fiber,47851,51266,47.85,51.27,12,1137,102,138
"San Ildefonso, Bulacan, Philippines",15.07717,120.94171,PLDT,60427,57098,60.43,57.10,11,1137,227,297
"Marilao, Bulacan, Philippines",14.77237,120.96001,PLDT,71830,68769,71.83,68.77,12,1136,343,488
"Cabuyao City, Laguna, Philippines",14.27433,121.11961,Converge,116965,132471,116.97,132.47,6,1124,145,244
"Calatrava, Negros Occidental, Philippines",10.62843,123.39349,PLDT Home Fiber,92379,94688,92.38,94.69,9,1122,314,482
"Pozorrubio, Pangasinan, Philippines",16.11642,120.54316,PLDT,73082,72550,73.08,72.55,11,1118,281,399
"Hinunangan, Southern Leyte, Philippines",10.39458,125.14888,PLDT,42239,74577,42.24,74.58,15,1115,84,103
"Rosario, Batangas, Philippines",13.80433,121.28552,PLDT Home Fiber,100406,96193,100.41,96.19,6,1111,228,338
"Tuburan, Cebu, Philippines",10.66879,123.86345,Globe,151024,113679,151.02,113.68,9,1109,317,492
"Concepcion, Tarlac, Philippines",15.324,120.65596,Globe,153869,148128,153.87,148.13,5,1098,363,541
"Limay, Bataan, Philippines",14.53661,120.56245,PLDT Home Fiber,63045,116819,63.05,116.82,9,1097,158,193
"Porac, Pampanga, Philippines",15.06974,120.55007,Converge,115750,124249,115.75,124.25,3,1094,280,399
"Plaridel, Bulacan, Philippines",14.88591,120.85932,PLDT Home Fiber,107708,114955,107.71,114.96,7,1091,304,429
"Santiago, Isabela, Philippines",16.69679,121.55865,PLDT Home Fiber,89044,84284,89.04,84.28,15,1081,244,338
"Ligao City, Albay, Philippines",13.17242,123.4944,Converge,88117,85091,88.12,85.09,16,1071,212,306
"Cadiz City, Negros Occidental, Philippines",10.86192,123.23632,PLDT,65168,66087,65.17,66.09,12,1070,263,410
"Pili, Camarines Sur, Philippines",13.55521,123.28126,PLDT Home Fiber,71906,82156,71.91,82.16,8,1067,185,253
"Angeles, Pampanga, Philippines",15.16061,120.60908,Globe,120171,112001,120.17,112.00,5,1060,286,377
"Balamban, Cebu, Philippines",10.48585,123.77412,PLDT,66798,70135,66.80,70.14,9,1059,227,312
"Daraga, Albay, Philippines",13.12278,123.69588,Converge,103160,86356,103.16,86.36,13,1053,135,225
"Dumaguete City, Negros Oriental, Philippines",9.29841,123.29249,PLDT Home Fiber,171203,187019,171.20,187.02,8,1051,229,293
"Guiguinto, Bulacan, Philippines",14.82832,120.88429,Converge,109359,101781,109.36,101.78,7,1047,190,284
"Santa Ana, Pampanga, Philippines",15.09442,120.76623,Converge,169742,177467,169.74,177.47,3,1046,342,532
"Santiago, Ilocos Sur, Philippines",17.28073,120.44729,Converge,94024,94778,94.02,94.78,9,1046,270,444
"San Carlos City, Negros Occidental, Philippines",10.48344,123.30371,Converge,53192,56482,53.19,56.48,14,1039,50,75
"Capas, Tarlac, Philippines",15.34633,120.59344,PLDT,77314,80351,77.31,80.35,7,1028,150,218
"Hagonoy, Bulacan, Philippines",14.83564,120.73371,PLDT,79954,79017,79.95,79.02,8,1026,208,281
"Iligan City, Lanao del Norte, Philippines",8.22707,124.46418,PLDT,73537,80404,73.54,80.40,20,1019,279,401
"Catmon, Cebu, Philippines",10.65242,123.9973,PLDT Home Fiber,126106,167235,126.11,167.24,6,1016,347,520
"Carmen, Cotabato, Philippines",7.38261,124.81826,PLDT Home Fiber,112785,98947,112.79,98.95,9,1012,353,504
"Jaen, Nueva Ecija, Philippines",15.39558,120.87286,PLDT,54160,54320,54.16,54.32,16,1010,254,390
"Libmanan, Camarines Sur, Philippines",13.69376,123.05982,PLDT Home Fiber,43840,43093,43.84,43.09,13,1008,111,151
"Calabanga, Camarines Sur, Philippines",13.71633,123.28126,PLDT Home Fiber,107271,98186,107.27,98.19,7,1004,104,124
"Santo Domingo, Nueva Ecija, Philippines",15.61284,120.88434,PLDT,88124,87439,88.12,87.44,19,1002,182,264
"Escalante City, Negros Occidental, Philippines",10.84117,123.49908,PLDT,86907,93828,86.91,93.83,9,1002,193,289
"Butuan City, Agusan Del Norte, Philippines",8.94753,125.54063,Converge,105982,107332,105.98,107.33,11,1002,140,186
"Cauayan City, Isabela, Philippines",16.91662,121.78792,Converge,92780,99050,92.78,99.05,10,998,221,326
"Los Baños, Laguna, Philippines",14.17731,121.22161,PLDT,95911,94109,95.91,94.11,7,997,343,446
"Compostela, Cebu, Philippines",10.45408,124.013,PLDT Home Fiber,163456,196418,163.46,196.42,5,988,336,482
"Ormoc City, Leyte, Philippines",11.03843,124.61927,PLDT Home Fiber,87634,90369,87.63,90.37,5,987,177,217
"Pili, Camarines Sur, Philippines",13.55521,123.28126,Globe,98827,105592,98.83,105.59,12,986,50,65
"General Santos City (Dadiangas), South Cotabato, Philippines",6.14327,125.19286,Converge,108193,114048,108.19,114.05,5,986,239,300
"Zamboanga City, Zamboanga del Sur, Philippines",6.90437,122.07612,Converge,90020,93099,90.02,93.10,19,984,203,268
"Pililla, Rizal, Philippines",14.44393,121.34273,PLDT,97509,104067,97.51,104.07,3,984,328,532
"San Mateo, Rizal, Philippines",14.69539,121.11767,PLDT,73099,72349,73.10,72.35,11,982,225,349
"Olongapo City, Zambales, Philippines",14.88739,120.36661,PLDT Home Fiber,116208,86837,116.21,86.84,8,982,268,345
"Matalam, Cotabato, Philippines",7.17236,124.92861,PLDT,184257,133118,184.26,133.12,12,977,356,488
"Binangonan, Rizal, Philippines",14.48441,121.1869,Globe,167770,155136,167.77,155.14,4,972,183,230
"City of Cabadbaran, Agusan Del Norte, Philippines",9.14092,125.697,PLDT Home Fiber,69182,54806,69.18,54.81,11,972,163,216
"Gerona, Tarlac, Philippines",15.60489,120.59698,PLDT Home Fiber,92015,94738,92.02,94.74,10,971,196,276
"San Leonardo, Nueva Ecija, Philippines",15.37285,120.95321,PLDT Home Fiber,88907,94283,88.91,94.28,12,969,228,387
"Indang, Cavite, Philippines",14.19204,120.87286,PLDT,106857,116587,106.86,116.59,8,968,230,292
"Malasiqui, Pangasinan, Philippines",15.92028,120.41443,PLDT,95891,98677,95.89,98.68,5,957,236,333
"Alangalang, Leyte, Philippines",11.23565,124.88449,PLDT,41073,33869,41.07,33.87,24,954,212,341
"Sagay City, Negros Occidental, Philippines",10.84555,123.37106,PLDT,54212,60978,54.21,60.98,9,951,227,324
"Trece Martires City, Cavite, Philippines",14.28222,120.86837,PLDT Home Fiber,182862,168842,182.86,168.84,4,951,276,351
"Mayoyao, Ifugao, Philippines",16.95131,121.21685,PLDT Home Fiber,119258,105412,119.26,105.41,11,949,299,486
"Catmon, Cebu, Philippines",10.65242,123.9973,Globe,120700,106997,120.70,107.00,18,947,297,401
"Ozamiz, Misamis Occidental, Philippines",8.15,123.85033,Globe,68160,47080,68.16,47.08,20,945,104,145
"Cotabato City, Maguindanao, Philippines",7.20467,124.23104,PLDT,66407,63814,66.41,63.81,14,944,228,306
"Calapan City, Oriental Mindoro, Philippines",13.36643,121.19395,PLDT Home Fiber,103095,98539,103.10,98.54,8,936,240,333
"Legazpi City, Albay, Philippines",13.11288,123.76295,Globe,118338,103145,118.34,103.15,21,936,169,225
"Pagadian City, Zamboanga del Sur, Philippines",7.86265,123.37106,Globe,103689,67879,103.69,67.88,7,936,155,214
"Baliwag, Bulacan, Philippines",14.96569,120.89431,Converge,128561,115759,128.56,115.76,7,927,195,271
"Binmaley, Pangasinan, Philippines",16.02892,120.26882,PLDT,86891,93575,86.89,93.58,9,927,225,298
"Bocaue, Bulacan, Philippines",14.7943,120.93073,PLDT,92972,92765,92.97,92.77,7,922,261,396
"Biñan, Laguna, Philippines",14.31456,121.08316,Globe,124654,115344,124.65,115.34,7,921,238,325
"Kabankalan City, Negros Occidental, Philippines",9.91341,122.85358,PLDT,70248,72735,70.25,72.74,9,921,136,182
"Carmona, Cavite, Philippines",14.3135,121.05712,Converge,132319,147440,132.32,147.44,6,917,217,332
"Sogod, Cebu, Philippines",10.77419,123.9527,Globe,109136,94822,109.14,94.82,20,915,300,413
"San Luis, Aurora, Philippines",15.63572,121.46847,PLDT,52249,31372,52.25,31.37,13,915,80,110
"Vallehermoso, Negros Oriental, Philippines",10.33905,123.29249,PLDT Home Fiber,92300,94615,92.30,94.62,8,914,305,421
"Sagay City, Negros Occidental, Philippines",10.84555,123.37106,Globe,65185,63352,65.19,63.35,14,911,46,63
"Minalin, Pampanga, Philippines",14.97052,120.68518,PLDT Home Fiber,98308,94809,98.31,94.81,7,911,290,459
"Cotabato City, Maguindanao, Philippines",7.20467,124.23104,Globe,100234,43432,100.23,43.43,12,904,77,99
"Lobo, Batangas, Philippines",13.6877,121.23974,PLDT Home Fiber,171780,180559,171.78,180.56,6,903,246,384
"Ozamiz, Misamis Occidental, Philippines",8.15,123.85033,PLDT Home Fiber,105112,95396,105.11,95.40,6,900,120,172
"Tacloban City, Leyte, Philippines",11.22238,124.99221,Globe,110465,91802,110.47,91.80,16,896,163,210
"Majayjay, Laguna, Philippines",14.14491,121.46983,PLDT Home Fiber,113964,142586,113.96,142.59,8,892,230,362
"San Fernando, Pampanga, Philippines",15.02781,120.69349,Globe,105756,99165,105.76,99.17,5,888,193,263
"Odiongan, Romblon, Philippines",12.36445,122.01555,PLDT,61604,72702,61.60,72.70,9,885,112,152
"Tanauan City, Batangas, Philippines",14.08354,121.14762,Globe,168039,164077,168.04,164.08,6,884,275,391
"Bayombong, Nueva Vizcaya, Philippines",16.48042,121.14813,PLDT Home Fiber,92574,92788,92.57,92.79,8,884,162,236
"Liloan, Cebu, Philippines",10.39926,124.00002,PLDT,150832,191381,150.83,191.38,4,882,196,246
"Muñoz, Nueva Ecija, Philippines",15.70664,120.9029,PLDT Home Fiber,79451,92087,79.45,92.09,13,879,194,269
"Mabitac, Laguna, Philippines",14.43383,121.41133,Converge,93446,92172,93.45,92.17,11,878,169,270
"Calasiao, Pangasinan, Philippines",16.00949,120.35759,PLDT Home Fiber,103262,113170,103.26,113.17,6,876,260,356
"Pantukan, Davao de Oro, Philippines",7.20012,126.04584,PLDT Home Fiber,73951,69122,73.95,69.12,13,873,72,105
"Bakun, Benguet, Philippines",16.80796,120.68901,PLDT Home Fiber,93952,97677,93.95,97.68,5,872,307,472
"Jaen, Nueva Ecija, Philippines",15.39558,120.87286,PLDT Home Fiber,101227,92830,101.23,92.83,10,868,239,370
"Laoag City, Ilocos Norte, Philippines",18.21075,120.58547,PLDT Home Fiber,114211,110513,114.21,110.51,9,867,183,258
"Alcala, Cagayan, Philippines",17.90497,121.65113,Converge,94375,94273,94.38,94.27,13,864,200,364
"Aringay, La Union, Philippines",16.40163,120.40119,PLDT,50438,55953,50.44,55.95,8,863,213,299
"Pandi, Bulacan, Philippines",14.87572,120.95941,PLDT,85739,75315,85.74,75.32,7,861,217,315
"Kidapawan, Cotabato, Philippines",7.02127,125.09019,Globe,61655,92966,61.66,92.97,7,860,282,382
"Mambajao, Camiguin, Philippines",9.22153,124.71882,PLDT Home Fiber,114964,108525,114.96,108.53,8,856,191,275
"Lubao, Pampanga, Philippines",14.92678,120.58795,PLDT Home Fiber,137527,140421,137.53,140.42,10,856,144,197
"Balanga City, Bataan, Philippines",14.67454,120.47033,PLDT,84960,89806,84.96,89.81,10,854,244,331
"Mambusao, Capiz, Philippines",11.44257,122.59383,PLDT,93428,94634,93.43,94.63,10,853,237,312
"Naic, Cavite, Philippines",14.29649,120.79246,Converge,117757,115494,117.76,115.49,5,844,152,217
"Santo Tomas, Batangas, Philippines",14.08754,121.17764,PLDT,90032,89244,90.03,89.24,8,842,268,382
"Guiguinto, Bulacan, Philippines",14.82832,120.88429,PLDT,94287,95047,94.29,95.05,6,839,244,375
"Balanga City, Bataan, Philippines",14.67454,120.47033,Converge,156360,152351,156.36,152.35,5,834,199,275
"Tanza, Cavite, Philippines",14.34293,120.85032,Globe,171676,161327,171.68,161.33,7,834,234,299
"Nagcarlan, Laguna, Philippines",14.14903,121.38847,PLDT,84881,87021,84.88,87.02,15,830,234,319
"General Tinio (Papaya), Nueva Ecija, Philippines",15.36345,121.21685,PLDT,59477,37508,59.48,37.51,11,830,262,400
"Olongapo City, Zambales, Philippines",14.88739,120.36661,PLDT,104869,77017,104.87,77.02,7,830,224,303
"Carmen, Cebu, Philippines",10.58876,123.96385,PLDT,77640,91406,77.64,91.41,12,829,178,245
"San Rafael, Bulacan, Philippines",15.00184,120.93141,Converge,146114,119956,146.11,119.96,8,828,135,201
"Norzagaray, Bulacan, Philippines",14.89659,121.14813,Converge,141104,128117,141.10,128.12,7,823,109,172
"Paniqui, Tarlac, Philippines",15.66603,120.53942,PLDT Home Fiber,117288,102421,117.29,102.42,11,823,186,240
"Rodriguez, Rizal, Philippines",14.73202,121.14516,PLDT,70161,61513,70.16,61.51,5,819,155,213
"Trece Martires City, Cavite, Philippines",14.28222,120.86837,Globe,132118,114723,132.12,114.72,6,819,188,241
"Sultan Kudarat (Nuling), Maguindanao, Philippines",7.26221,124.30883,PLDT Home Fiber,79154,94024,79.15,94.02,12,817,106,150
"San Jose, Batangas, Philippines",13.87868,121.09942,PLDT Home Fiber,116353,116592,116.35,116.59,7,815,221,350
"Mangaldan, Pangasinan, Philippines",16.06513,120.40474,PLDT Home Fiber,121223,103644,121.22,103.64,8,813,182,270
"Cavinti, Laguna, Philippines",14.24907,121.54842,Globe,141428,132866,141.43,132.87,6,813,218,386
"Daraga, Albay, Philippines",13.12278,123.69588,PLDT,120645,128729,120.65,128.73,8,812,155,190
"Mexico, Pampanga, Philippines",15.06457,120.72033,Globe,117126,113111,117.13,113.11,7,810,162,204
"Midsayap, Cotabato, Philippines",7.19181,124.53474,PLDT Home Fiber,96414,103751,96.41,103.75,13,809,173,228
"Cavite, Philippines",14.48151,120.90833,PLDT Home Fiber,119468,121809,119.47,121.81,4,808,190,252
"Bacolor, Pampanga, Philippines",14.99692,120.65235,Converge,121556,123095,121.56,123.10,4,806,267,345
"Trece Martires City, Cavite, Philippines",14.28222,120.86837,Converge,123402,134115,123.40,134.12,6,806,244,305
"Maramag, Bukidnon, Philippines",7.82687,124.97271,Globe,56570,18422,56.57,18.42,23,805,135,216
"Nabua, Camarines Sur, Philippines",13.4069,123.37324,PLDT Home Fiber,86402,93690,86.40,93.69,8,801,133,193
"Sorsogon City, Sorsogon, Philippines",12.97888,123.98477,Converge,94975,94713,94.98,94.71,16,795,84,145
"Naga, Cebu, Philippines",10.20764,123.75821,Globe,123299,115597,123.30,115.60,17,795,296,399
"Consolacion, Cebu, Philippines",10.37581,123.95694,Converge,193204,201705,193.20,201.71,3,794,175,247
"La Paz, Tarlac, Philippines",15.4497,120.7235,PLDT Home Fiber,95054,94036,95.05,94.04,9,794,211,322
"Moalboal, Cebu, Philippines",9.93681,123.42714,Globe,74119,66742,74.12,66.74,14,792,150,229
"Guimba, Nueva Ecija, Philippines",15.65641,120.76767,PLDT Home Fiber,89080,93678,89.08,93.68,11,791,199,302
"Cabuyao City, Laguna, Philippines",14.27433,121.11961,Globe,120673,106392,120.67,106.39,5,789,202,293
"Valladolid, Negros Occidental, Philippines",10.46898,122.8423,PLDT Home Fiber,98094,105204,98.09,105.20,11,787,181,291
"Tacloban City, Leyte, Philippines",11.22238,124.99221,PLDT Home Fiber,133150,143267,133.15,143.27,6,784,143,189
"Pili, Camarines Sur, Philippines",13.55521,123.28126,PLDT,33695,30992,33.70,30.99,15,782,96,141
"Oton, Iloilo, Philippines",10.69251,122.47868,PLDT Home Fiber,84147,98015,84.15,98.02,9,781,124,157
"Bokod, Benguet, Philippines",16.45641,120.78097,PLDT,94333,94633,94.33,94.63,6,781,260,390
"Kalibo, Aklan, Philippines",11.70734,122.36986,Converge,78619,74485,78.62,74.49,15,776,120,168
"Gapan City, Nueva Ecija, Philippines",15.29121,121.01057,Converge,99004,116249,99.00,116.25,6,774,158,221
"La Carlota City, Negros Occidental, Philippines",10.41437,122.97757,PLDT,48458,69959,48.46,69.96,9,774,102,124
"Talugtug, Nueva Ecija, Philippines",15.7698,120.81544,PLDT,63192,56521,63.19,56.52,18,774,199,270
"Bamban, Tarlac, Philippines",15.2885,120.57044,PLDT Home Fiber,98930,124246,98.93,124.25,8,772,191,288
"Pavia, Iloilo, Philippines",10.7748,122.54261,PLDT Home Fiber,181486,192896,181.49,192.90,8,771,203,250
"Dapitan City, Zamboanga del Norte, Philippines",8.58118,123.42714,PLDT Home Fiber,106265,83496,106.27,83.50,9,771,107,143
"Cauayan City, Isabela, Philippines",16.91662,121.78792,PLDT Home Fiber,92723,93692,92.72,93.69,13,770,174,239
"Tanay, Rizal, Philippines",14.61419,121.37703,PLDT Home Fiber,113262,126479,113.26,126.48,4,768,112,172
"Puerto Princesa City, Palawan, Philippines",9.78563,118.62648,Globe,75605,90433,75.61,90.43,15,768,177,266
"Alcala, Pangasinan, Philippines",15.8546,120.53942,PLDT Home Fiber,131819,156502,131.82,156.50,10,764,202,309
"Bagulin, La Union, Philippines",16.59753,120.49336,PLDT Home Fiber,95976,98909,95.98,98.91,5,762,221,365
"Dona Remedios Trinidad, Bulacan, Philippines",15.11427,121.21685,PLDT,51471,25741,51.47,25.74,12,762,254,369
"Libungan, Cotabato, Philippines",7.31637,124.53068,PLDT Home Fiber,105641,94390,105.64,94.39,12,761,67,90
"Rosario, Cavite, Philippines",14.41672,120.85471,PLDT Home Fiber,85995,90163,86.00,90.16,5,759,145,207
"Bagabag, Nueva Vizcaya, Philippines",16.58337,121.28552,PLDT Home Fiber,89823,94324,89.82,94.32,9,759,96,163
"Rodriguez, Rizal, Philippines",14.73202,121.14516,Globe,162430,129509,162.43,129.51,4,758,158,219
"Urdaneta City, Pangasinan, Philippines",15.98194,120.59698,PLDT Home Fiber,93451,94541,93.45,94.54,8,754,210,313
"Kumalarang, Zamboanga del Sur, Philippines",7.7703,123.1464,PLDT,64719,65739,64.72,65.74,21,753,228,325
"Barotac Viejo, Iloilo, Philippines",11.10187,122.87613,PLDT,34029,38814,34.03,38.81,10,753,93,128
"Talavera, Nueva Ecija, Philippines",15.58575,120.9197,PLDT Home Fiber,84650,93895,84.65,93.90,11,753,129,185
"Liloan, Cebu, Philippines",10.39926,124.00002,PLDT Home Fiber,159763,196278,159.76,196.28,4,753,228,333
"Marawi City, Lanao del Sur, Philippines",8.0292,124.29772,Globe,41681,47168,41.68,47.17,10,753,104,142
"Panglao, Bohol, Philippines",9.56947,123.78721,PLDT,69793,71103,69.79,71.10,12,749,116,196
"Cabatuan, Iloilo, Philippines",10.87914,122.48206,PLDT,71832,63622,71.83,63.62,11,748,166,254
"Limay, Bataan, Philippines",14.53661,120.56245,Converge,89380,98911,89.38,98.91,13,746,140,189
"San Mateo, Rizal, Philippines",14.69539,121.11767,Globe,124992,105478,124.99,105.48,5,746,192,241
"Angat, Bulacan, Philippines",14.92586,121.02204,Converge,94842,92255,94.84,92.26,8,746,89,144
"Tagbilaran City, Bohol, Philippines",9.6534,123.86703,Globe,145194,120142,145.19,120.14,11,746,132,170
"City of Mati, Davao Oriental, Philippines",6.95722,126.15454,Globe,96417,80079,96.42,80.08,15,734,93,125
"Kumalarang, Zamboanga del Sur, Philippines",7.7703,123.1464,PLDT Home Fiber,92430,94342,92.43,94.34,8,734,156,230
"Tagum, Davao del Norte, Philippines",7.44742,125.80246,PLDT,95394,96630,95.39,96.63,12,734,177,241
"San Luis, Pampanga, Philippines",15.03986,120.81544,PLDT Home Fiber,90373,93955,90.37,93.96,8,729,194,318
"Enrique B. Magalona, Negros Occidental, Philippines",10.87695,122.98281,PLDT,49883,56360,49.88,56.36,23,729,116,165
"General Mariano Alvarez, Cavite, Philippines",14.29525,121.0071,Converge,200382,190970,200.38,190.97,7,728,128,206
"Paete, Laguna, Philippines",14.37243,121.54842,PLDT,66978,77013,66.98,77.01,11,728,135,182
"San Ildefonso, Bulacan, Philippines",15.07717,120.94171,Globe,253254,226324,253.25,226.32,6,727,229,353
"Marawi City, Lanao del Sur, Philippines",8.0292,124.29772,PLDT,71270,49519,71.27,49.52,22,727,176,280
"Candon City, Ilocos Sur, Philippines",17.19612,120.44729,Converge,90616,94283,90.62,94.28,9,726,161,243
"Tubungan, Iloilo, Philippines",10.80645,122.29941,PLDT,48101,50128,48.10,50.13,15,724,190,275
"Toledo, Cebu, Philippines",10.38705,123.65017,PLDT Home Fiber,71647,87000,71.65,87.00,6,724,167,225
"Ibaan, Batangas, Philippines",13.81895,121.13082,PLDT Home Fiber,106399,121711,106.40,121.71,5,721,164,219
"Lingayen, Pangasinan, Philippines",16.00973,120.22449,PLDT Home Fiber,99793,98473,99.79,98.47,9,720,182,268
"Sariaya, Quezon, Philippines",13.96301,121.52388,PLDT,92486,89768,92.49,89.77,8,719,190,298
"San Isidro, Bohol, Philippines",9.84036,123.94155,PLDT,38593,44896,38.59,44.90,20,718,161,267
"Aroroy, Masbate, Philippines",12.38843,123.32617,Converge,112531,107604,112.53,107.60,17,713,34,49
"Boac, Marinduque, Philippines",13.39413,121.87903,PLDT Home Fiber,84857,94197,84.86,94.20,9,712,98,129
"Alabel, Sarangani, Philippines",6.10416,125.28792,PLDT Home Fiber,67498,64319,67.50,64.32,11,712,142,194
"Paracale, Camarines Norte, Philippines",14.23721,122.78588,PLDT Home Fiber,60033,51854,60.03,51.85,8,708,68,89
"Calasiao, Pangasinan, Philippines",16.00949,120.35759,PLDT,75410,69590,75.41,69.59,6,708,114,171
"Carmona, Cavite, Philippines",14.3135,121.05712,Globe,120358,105818,120.36,105.82,6,708,209,311
"Tiaong, Quezon, Philippines",13.92962,121.34273,PLDT Home Fiber,110614,129138,110.61,129.14,4,706,161,241
"Lemery, Batangas, Philippines",13.95318,120.88434,Globe,105241,99640,105.24,99.64,6,704,221,341
"Bayombong, Nueva Vizcaya, Philippines",16.48042,121.14813,Converge,95341,96046,95.34,96.05,10,704,207,307
"Kidapawan, Cotabato, Philippines",7.02127,125.09019,Converge,117364,115775,117.36,115.78,5,704,141,174
"Escalante City, Negros Occidental, Philippines",10.84117,123.49908,Globe,23224,9070,23.22,9.07,38,702,159,358
"Puerto Princesa City, Palawan, Philippines",9.78563,118.62648,Converge,82474,87499,82.47,87.50,14,700,171,226
"Aliaga, Nueva Ecija, Philippines",15.51204,120.86138,PLDT Home Fiber,84225,92103,84.23,92.10,11,698,181,286
"Calumpit, Bulacan, Philippines",14.91518,120.7662,Converge,112110,97419,112.11,97.42,6,694,164,217
"Sapang Dalaga, Misamis Occidental, Philippines",8.52815,123.584,PLDT Home Fiber,114622,101377,114.62,101.38,8,693,90,132
"Daraga, Albay, Philippines",13.12278,123.69588,Globe,124316,113227,124.32,113.23,22,691,96,135
"Lambunao, Iloilo, Philippines",11.12265,122.37876,PLDT,66866,60052,66.87,60.05,10,688,206,286
"Kadingilan, Bukidnon, Philippines",7.53321,124.87345,PLDT Home Fiber,93200,94398,93.20,94.40,9,681,136,204
"Trece Martires City, Cavite, Philippines",14.28222,120.86837,PLDT,86416,92185,86.42,92.19,6,679,186,238
"Igbaras, Iloilo, Philippines",10.74408,122.2427,PLDT,51097,55697,51.10,55.70,8,679,175,245
"Naga, Cebu, Philippines",10.20764,123.75821,PLDT,83773,87302,83.77,87.30,4,679,149,198
"Atimonan, Quezon, Philippines",13.96507,121.87903,PLDT Home Fiber,97766,113326,97.77,113.33,5,678,153,219
"San Mateo, Isabela, Philippines",16.87673,121.59408,PLDT Home Fiber,56802,61066,56.80,61.07,13,675,92,130
"Baliwag, Bulacan, Philippines",14.96569,120.89431,Globe,168988,153682,168.99,153.68,8,675,132,171
"Mallig, Isabela, Philippines",17.15803,121.61307,PLDT Home Fiber,41838,49731,41.84,49.73,14,673,104,139
"Bula, Camarines Sur, Philippines",13.44119,123.23632,PLDT Home Fiber,87535,93704,87.54,93.70,10,672,75,105
"Victorias, Negros Occidental, Philippines",10.901,123.07045,PLDT Home Fiber,148027,115913,148.03,115.91,9,667,161,233
"Baungon, Bukidnon, Philippines",8.21754,124.75198,PLDT Home Fiber,98352,101049,98.35,101.05,6,666,245,368
"Anao, Tarlac, Philippines",15.7435,120.61424,PLDT,50324,52236,50.32,52.24,18,665,144,251
"Catarman, Northern Samar, Philippines",12.44271,124.61927,PLDT Home Fiber,142634,156224,142.63,156.22,12,664,122,158
"Zaragoza, Nueva Ecija, Philippines",15.46003,120.79246,PLDT Home Fiber,94923,94724,94.92,94.72,10,664,173,263
"Labason, Zamboanga del Norte, Philippines",8.01373,122.51464,PLDT Home Fiber,37657,42734,37.66,42.73,13,664,38,46
"Teresa, Rizal, Philippines",14.5597,121.20593,PLDT Home Fiber,135713,149704,135.71,149.70,4,660,159,263
"Valencia City, Bukidnon, Philippines",7.86319,125.17087,Converge,98849,109713,98.85,109.71,10,659,135,189
"Naval, Biliran, Philippines",11.56681,124.44201,Globe,106021,96574,106.02,96.57,15,659,83,95
"Nasugbu, Batangas, Philippines",14.09404,120.68901,PLDT Home Fiber,91429,98423,91.43,98.42,9,659,115,156
"Calatrava, Negros Occidental, Philippines",10.62843,123.39349,Globe,22062,5965,22.06,5.97,38,659,141,323
"Indang, Cavite, Philippines",14.19204,120.87286,Globe,62772,54087,62.77,54.09,6,659,185,331
"Minglanilla, Cebu, Philippines",10.24543,123.79599,Globe,143955,136703,143.96,136.70,9,658,145,179
"Bustos, Bulacan, Philippines",14.95239,120.91735,PLDT,95674,86361,95.67,86.36,11,657,160,233
"Lambayong (Mariano Marcos), Sultan Kudarat, Philippines",6.79879,124.61927,PLDT Home Fiber,47262,36271,47.26,36.27,13,657,72,93
"Polomolok, South Cotabato, Philippines",6.22451,125.06084,Globe,85224,89904,85.22,89.90,13,655,107,130
"Valencia City, Bukidnon, Philippines",7.86319,125.17087,PLDT Home Fiber,96253,92236,96.25,92.24,5,654,118,162
"Pilar, Bataan, Philippines",14.60553,120.51639,PLDT Home Fiber,72616,151510,72.62,151.51,8,653,100,130
"Batangas City, Batangas, Philippines",13.75641,121.05833,Converge,173902,167687,173.90,167.69,7,653,164,267
"Carcar, Cebu, Philippines",10.10478,123.64147,PLDT Home Fiber,112503,103312,112.50,103.31,4,649,84,114
"Hinigaran, Negros Occidental, Philippines",10.27479,122.92123,PLDT Home Fiber,83903,88073,83.90,88.07,14,646,71,93
"Datu Montawal (Pagagawan), Maguindanao, Philippines",7.10469,124.76303,PLDT Home Fiber,156600,113465,156.60,113.47,10,645,163,248
"Pulilan, Bulacan, Philippines",14.90243,120.8459,PLDT,93191,93981,93.19,93.98,6,640,145,218
"Guimba, Nueva Ecija, Philippines",15.65641,120.76767,Converge,144339,134009,144.34,134.01,5,639,143,196
"Malolos, Bulacan, Philippines",14.86049,120.80916,Globe,137032,113068,137.03,113.07,7,637,147,185
"Alfonso Lista, Ifugao, Philippines",16.98852,121.49132,PLDT Home Fiber,94441,100896,94.44,100.90,12,637,134,247
"Samal, Davao del Norte, Philippines",7.08352,125.70578,PLDT Home Fiber,97804,94162,97.80,94.16,9,637,116,150
"Pavia, Iloilo, Philippines",10.7748,122.54261,Globe,120050,108977,120.05,108.98,4,636,128,172
"Norzagaray, Bulacan, Philippines",14.89659,121.14813,PLDT,68834,48097,68.83,48.10,7,636,150,206
"Umingan, Pangasinan, Philippines",15.90396,120.82692,PLDT Home Fiber,108635,107867,108.64,107.87,8,636,159,267
"Pili, Camarines Sur, Philippines",13.55521,123.28126,Converge,80103,86502,80.10,86.50,4,636,143,203
"Pinamungahan, Cebu, Philippines",10.26958,123.63996,PLDT,70319,68441,70.32,68.44,6,635,65,82
"Bauang, La Union, Philippines",16.51433,120.35508,PLDT Home Fiber,101333,103665,101.33,103.67,3,635,90,115
"Talavera, Nueva Ecija, Philippines",15.58575,120.9197,Globe,152162,199147,152.16,199.15,6,633,160,251
"Nasugbu, Batangas, Philippines",14.09404,120.68901,PLDT,87510,98946,87.51,98.95,9,633,166,261
"Bambang, Nueva Vizcaya, Philippines",16.40415,121.10229,PLDT Home Fiber,102798,89072,102.80,89.07,7,632,78,99
"Ibaan, Batangas, Philippines",13.81895,121.13082,Globe,124239,109445,124.24,109.45,8,632,221,331
"San Simon, Pampanga, Philippines",14.98432,120.75127,PLDT,90394,93108,90.39,93.11,11,631,173,251
"Rizal, Nueva Ecija, Philippines",15.69357,121.10229,PLDT,93279,94880,93.28,94.88,5,630,162,236
"Mabalacat City, Pampanga, Philippines",15.24525,120.56567,Globe,118780,105963,118.78,105.96,4,629,142,178
"El Nido, Palawan, Philippines",11.19892,119.42317,PLDT,91076,91733,91.08,91.73,30,628,80,150
"Masbate City, Masbate, Philippines",12.31777,123.55041,PLDT,61759,56276,61.76,56.28,20,628,119,161
"Bayambang, Pangasinan, Philippines",15.80947,120.45714,PLDT Home Fiber,131597,128371,131.60,128.37,12,628,147,199
"Valencia, Negros Oriental, Philippines",9.28494,123.1464,PLDT Home Fiber,115616,144180,115.62,144.18,9,627,94,120
"Panabo City, Davao del Norte, Philippines",7.30822,125.68662,Globe,125776,118793,125.78,118.79,9,625,89,111
"Amadeo, Cavite, Philippines",14.18985,120.92452,PLDT,165789,177947,165.79,177.95,9,625,157,208
"Asturias, Cebu, Philippines",10.60209,123.77412,PLDT Home Fiber,93569,94549,93.57,94.55,5,625,79,114
"General Mariano Alvarez, Cavite, Philippines",14.29525,121.0071,PLDT Home Fiber,110121,179338,110.12,179.34,6,623,133,159
"Tanza, Cavite, Philippines",14.34293,120.85032,PLDT,106743,104647,106.74,104.65,7,623,116,168
"Tupi, South Cotabato, Philippines",6.33849,124.97271,PLDT Home Fiber,74544,73832,74.54,73.83,12,620,87,117
"Roxas City, Capiz, Philippines",11.55288,122.74072,Converge,91073,94008,91.07,94.01,13,619,107,163
"Manapla, Negros Occidental, Philippines",10.95795,123.12428,PLDT Home Fiber,89893,93935,89.89,93.94,7,619,109,175
"Malay, Aklan, Philippines",11.93033,121.95191,PLDT Home Fiber,157158,85947,157.16,85.95,29,617,40,69
"Camiling, Tarlac, Philippines",15.67495,120.41272,PLDT Home Fiber,79528,73904,79.53,73.90,12,615,64,88
"Palayan City, Nueva Ecija, Philippines",15.53906,121.09083,PLDT Home Fiber,92199,93888,92.20,93.89,10,613,88,137
"Binangonan, Rizal, Philippines",14.48441,121.1869,Converge,149357,177770,149.36,177.77,4,613,191,234
"Tigaon, Camarines Sur, Philippines",13.61703,123.47198,PLDT Home Fiber,97860,107812,97.86,107.81,7,612,55,68
"Rosario, Cavite, Philippines",14.41672,120.85471,PLDT,64340,75225,64.34,75.23,7,612,166,214
"Tagbilaran City, Bohol, Philippines",9.6534,123.86703,Converge,124028,134300,124.03,134.30,25,611,178,238
"Moises Padilla, Negros Occidental, Philippines",10.26269,123.11266,PLDT Home Fiber,92280,98900,92.28,98.90,10,609,119,182
"Kiamba, Sarangani, Philippines",6.00076,124.70777,PLDT,16277,16827,16.28,16.83,21,607,41,58
"Mabalacat City, Pampanga, Philippines",15.24525,120.56567,PLDT,60176,76563,60.18,76.56,9,606,127,182
"Pavia, Iloilo, Philippines",10.7748,122.54261,PLDT,90811,94585,90.81,94.59,13,605,221,284
"Toboso, Negros Occidental, Philippines",10.71769,123.46077,PLDT,61804,66056,61.80,66.06,10,603,145,233
"Abucay, Bataan, Philippines",14.73361,120.49336,PLDT Home Fiber,58556,121472,58.56,121.47,9,603,90,107
"Dumangas, Iloilo, Philippines",10.82109,122.71167,PLDT Home Fiber,90468,100834,90.47,100.83,9,603,88,109
"City Of Bislig, Surigao del Sur, Philippines",8.21006,126.28478,PLDT Home Fiber,72682,117177,72.68,117.18,10,602,87,117
"City of Catbalogan, Samar, Philippines",11.85683,124.88449,Globe,74035,63104,74.04,63.10,16,600,126,178
"Pulilan, Bulacan, Philippines",14.90243,120.8459,Converge,69869,64730,69.87,64.73,6,600,177,235
"Arakan, Cotabato, Philippines",7.35122,125.17087,Globe,112268,122219,112.27,122.22,4,598,219,278
"Polanco, Zamboanga del Norte, Philippines",8.49106,123.38228,PLDT Home Fiber,92991,92729,92.99,92.73,11,595,98,132
"Isulan, Sultan Kudarat, Philippines",6.6318,124.44201,PLDT,93582,91576,93.58,91.58,18,590,108,147
"Ipil, Zamboanga Sibugay, Philippines",7.77318,122.57121,PLDT Home Fiber,105343,93713,105.34,93.71,20,589,104,139
"Santo Tomas, Batangas, Philippines",14.08754,121.17764,Globe,113650,103639,113.65,103.64,8,585,136,167
"Santa Lucia, Ilocos Sur, Philippines",17.12888,120.47033,Converge,94411,100271,94.41,100.27,8,585,124,202
"Penaranda, Nueva Ecija, Philippines",15.36229,121.02204,PLDT Home Fiber,99506,94158,99.51,94.16,12,584,115,187
"San Pascual, Batangas, Philippines",13.81044,121.02204,PLDT Home Fiber,122133,107178,122.13,107.18,7,583,132,178
"Natividad, Pangasinan, Philippines",16.03821,120.83841,PLDT Home Fiber,93923,96205,93.92,96.21,7,582,154,268
"Floridablanca, Pampanga, Philippines",14.9619,120.49471,Converge,94453,112297,94.45,112.30,4,581,144,187
"Santo Tomas, Batangas, Philippines",14.08754,121.17764,Converge,173200,147135,173.20,147.14,7,581,123,161
"Enrique B. Magalona, Negros Occidental, Philippines",10.87695,122.98281,PLDT Home Fiber,79149,90995,79.15,91.00,10,581,173,235
"Cardona, Rizal, Philippines",14.48493,121.232,PLDT Home Fiber,110191,113035,110.19,113.04,4,581,196,289
"Isabela, Negros Occidental, Philippines",10.22566,123.01136,PLDT Home Fiber,145086,140448,145.09,140.45,12,580,114,150
"San Carlos City, Pangasinan, Philippines",15.92589,120.34827,Converge,96371,107756,96.37,107.76,6,580,111,134
"Alaminos City, Pangasinan, Philippines",16.15053,119.98562,PLDT Home Fiber,92359,96880,92.36,96.88,8,579,120,151
"Barili, Cebu, Philippines",10.1254,123.55041,PLDT Home Fiber,93792,96746,93.79,96.75,6,578,125,179
"Natividad, Pangasinan, Philippines",16.03821,120.83841,PLDT,94003,94469,94.00,94.47,6,577,169,302
"Pateros, Metro Manila, Philippines",14.54838,121.07077,PLDT Home Fiber,165133,155222,165.13,155.22,3,577,157,198
"Maramag, Bukidnon, Philippines",7.82687,124.97271,PLDT Home Fiber,96411,94324,96.41,94.32,8,574,148,207
"Noveleta, Cavite, Philippines",14.42785,120.88009,PLDT Home Fiber,122740,130847,122.74,130.85,7,574,180,255
"Himamaylan, Negros Occidental, Philippines",10.10162,122.86995,PLDT Home Fiber,75089,68648,75.09,68.65,14,573,75,102
"Naujan, Oriental Mindoro, Philippines",13.24381,121.19395,PLDT Home Fiber,87950,89968,87.95,89.97,7,573,96,149
"Salvador Benedicto, Negros Occidental, Philippines",10.5887,123.23632,PLDT,98553,151871,98.55,151.87,5,571,195,311
"Asingan, Pangasinan, Philippines",16.00318,120.67063,PLDT Home Fiber,131579,117909,131.58,117.91,7,571,171,257
"Tigaon, Camarines Sur, Philippines",13.61703,123.47198,Converge,94697,36254,94.70,36.25,12,570,34,50
"Sibalom, Antique, Philippines",10.76502,122.06102,PLDT Home Fiber,100032,72077,100.03,72.08,11,569,49,59
"Tayug, Pangasinan, Philippines",16.01085,120.74649,PLDT Home Fiber,82301,86466,82.30,86.47,10,569,172,268
"Aguinaldo, Ifugao, Philippines",16.95291,121.33129,PLDT Home Fiber,92893,94006,92.89,94.01,11,565,136,260
"Siniloan, Laguna, Philippines",14.43831,121.48561,Converge,155039,154791,155.04,154.79,10,565,98,153
"Gapan City, Nueva Ecija, Philippines",15.29121,121.01057,Globe,123897,111338,123.90,111.34,5,562,155,218
"Zamboanga City, Zamboanga del Sur, Philippines",6.90437,122.07612,PLDT,54074,53260,54.07,53.26,21,560,135,218
"Gingoog City, Misamis Oriental, Philippines",8.81446,125.10406,PLDT Home Fiber,67710,71232,67.71,71.23,7,560,72,95
"General Luna, Quezon, Philippines",13.69977,122.23135,PLDT Home Fiber,32763,154859,32.76,154.86,15,560,36,48
"Baao, Camarines Sur, Philippines",13.49319,123.35984,PLDT,43480,51355,43.48,51.36,13,558,59,82
"Alimodian, Iloilo, Philippines",10.85495,122.39009,PLDT,68617,88133,68.62,88.13,8,558,44,60
"Paniqui, Tarlac, Philippines",15.66603,120.53942,Converge,79101,87897,79.10,87.90,5,558,192,276
"Roxas, Isabela, Philippines",17.12035,121.61915,PLDT Home Fiber,55892,59644,55.89,59.64,14,558,91,110
"Dinalupihan, Bataan, Philippines",14.88605,120.44729,Converge,99954,103359,99.95,103.36,6,556,140,190
"Lala, Lanao del Norte, Philippines",7.9486,123.76295,PLDT Home Fiber,62489,63937,62.49,63.94,9,556,73,88
"San Leonardo, Nueva Ecija, Philippines",15.37285,120.95321,PLDT,53162,53894,53.16,53.89,12,556,137,204
"Apalit, Pampanga, Philippines",14.95255,120.76688,PLDT,72538,84355,72.54,84.36,14,555,142,212
"Victoria, Tarlac, Philippines",15.59077,120.68901,PLDT Home Fiber,111035,103052,111.04,103.05,11,553,146,213
"Villasis, Pangasinan, Philippines",15.90523,120.55094,PLDT Home Fiber,118236,105763,118.24,105.76,7,553,164,260
"Pototan, Iloilo, Philippines",10.94194,122.63874,PLDT Home Fiber,48097,58825,48.10,58.83,10,552,60,77
"La Carlota City, Negros Occidental, Philippines",10.41437,122.97757,PLDT Home Fiber,166893,168451,166.89,168.45,9,551,231,303
"San Andres, Catanduanes, Philippines",13.6332,124.08641,PLDT,50127,55960,50.13,55.96,12,551,69,83
"Pandi, Bulacan, Philippines",14.87572,120.95941,Globe,114484,102316,114.48,102.32,7,551,86,114
"Guimba, Nueva Ecija, Philippines",15.65641,120.76767,Globe,125308,159258,125.31,159.26,6,550,175,275
"Nabua, Camarines Sur, Philippines",13.4069,123.37324,Converge,91042,121124,91.04,121.12,3,549,46,79
"Alaminos, Laguna, Philippines",14.0454,121.25119,PLDT Home Fiber,120052,139685,120.05,139.69,8,549,129,200
"Kalibo, Aklan, Philippines",11.70734,122.36986,Globe,99932,91121,99.93,91.12,15,548,113,161
"Santa Cruz, Laguna, Philippines",14.26911,121.41133,PLDT,102327,104370,102.33,104.37,11,548,157,212
"Narra, Palawan, Philippines",9.229,118.33047,PLDT,59011,86630,59.01,86.63,35,547,52,81
"Alaminos City, Pangasinan, Philippines",16.15053,119.98562,Converge,151613,138783,151.61,138.78,6,546,112,145
"Los Baños, Laguna, Philippines",14.17731,121.22161,Globe,272750,213656,272.75,213.66,5,542,202,271
"Dumaguete City, Negros Oriental, Philippines",9.29841,123.29249,Converge,123766,97064,123.77,97.06,20,541,144,194
"New Corella, Davao del Norte, Philippines",7.59777,125.84981,PLDT Home Fiber,76222,82784,76.22,82.78,10,541,117,163
"Tanauan City, Batangas, Philippines",14.08354,121.14762,Converge,122359,120976,122.36,120.98,7,540,135,208
"Guimba, Nueva Ecija, Philippines",15.65641,120.76767,PLDT,80280,89659,80.28,89.66,14,540,66,98
"Baler, Aurora, Philippines",15.73361,121.57125,PLDT,59475,63353,59.48,63.35,14,538,115,170
"Balayan, Batangas, Philippines",13.94995,120.72973,PLDT Home Fiber,86987,156937,86.99,156.94,9,536,89,113
"Maasin, Southern Leyte, Philippines",10.13272,124.84081,PLDT Home Fiber,151297,158743,151.30,158.74,8,535,90,109
"Magalang, Pampanga, Philippines",15.21394,120.66181,Globe,100382,93700,100.38,93.70,5,534,152,211
"Santa Cruz, Davao del Sur, Philippines",6.83551,125.41659,PLDT Home Fiber,103651,85827,103.65,85.83,9,534,76,106
"Floridablanca, Pampanga, Philippines",14.9619,120.49471,PLDT Home Fiber,122369,105482,122.37,105.48,11,533,113,152
"Vigan City, Ilocos Sur, Philippines",17.56485,120.38781,PLDT,57492,54653,57.49,54.65,12,533,109,157
"Hermosa, Bataan, Philippines",14.83566,120.47709,PLDT Home Fiber,77782,115272,77.78,115.27,9,533,81,101
"Toboso, Negros Occidental, Philippines",10.71769,123.46077,Globe,21571,5982,21.57,5.98,40,533,152,327
"Molave, Zamboanga del Sur, Philippines",8.10419,123.4944,PLDT Home Fiber,49733,48813,49.73,48.81,10,533,81,115
"Santa Cruz, Laguna, Philippines",14.26911,121.41133,PLDT Home Fiber,154048,162704,154.05,162.70,12,531,115,165
"Candelaria, Quezon, Philippines",13.94899,121.42276,PLDT,86014,80899,86.01,80.90,9,531,148,218
"Calauan, Laguna, Philippines",14.14551,121.3146,PLDT,39781,43949,39.78,43.95,16,530,58,88
"Orani, Bataan, Philippines",14.80086,120.53616,PLDT Home Fiber,68982,102991,68.98,102.99,9,528,74,89
"Ormoc City, Leyte, Philippines",11.03843,124.61927,PLDT,26692,30520,26.69,30.52,6,528,81,130
"Balagtas, Bulacan, Philippines",14.81784,120.90646,Converge,167873,164275,167.87,164.28,7,526,134,185
"Bula, Camarines Sur, Philippines",13.44119,123.23632,PLDT,30149,36969,30.15,36.97,16,525,29,34
"Hermosa, Bataan, Philippines",14.83566,120.47709,Converge,104546,117575,104.55,117.58,6,523,118,151
"Tagaytay City, Cavite, Philippines",14.11541,120.96202,Globe,92682,81073,92.68,81.07,6,523,181,274
"Echague, Isabela, Philippines",16.66606,121.78792,PLDT Home Fiber,86758,101300,86.76,101.30,14,522,98,125
"San Jose, Batangas, Philippines",13.87868,121.09942,PLDT,144314,142584,144.31,142.58,7,521,150,192
"San Fernando City, La Union, Philippines",16.61592,120.32102,PLDT,86221,90074,86.22,90.07,4,520,150,213
"Santo Nino, South Cotabato, Philippines",6.44221,124.67459,PLDT Home Fiber,58285,48119,58.29,48.12,12,519,58,80
"Carcar, Cebu, Philippines",10.10478,123.64147,Globe,116942,100843,116.94,100.84,9,519,85,107
"Koronadal, South Cotabato, Philippines",6.50044,124.84333,Globe,96865,92121,96.87,92.12,6,519,81,107
"San Fernando City, La Union, Philippines",16.61592,120.32102,Converge,121709,118963,121.71,118.96,3,518,139,184
"Tuguegarao City, Cagayan, Philippines",17.60306,121.75374,Globe,107962,105303,107.96,105.30,10,518,79,111
"Sogod, Southern Leyte, Philippines",10.44929,125.01679,PLDT,19784,38391,19.78,38.39,20,517,29,40
"Malaybalay City, Bukidnon, Philippines",8.15775,125.17087,PLDT,80084,48353,80.08,48.35,9,516,176,254
"San Fabian, Pangasinan, Philippines",16.14188,120.44729,PLDT,91015,92250,91.02,92.25,5,515,110,180
"Labo, Camarines Norte, Philippines",14.13903,122.7633,PLDT,40879,33349,40.88,33.35,14,515,80,110
"Ipil, Zamboanga Sibugay, Philippines",7.77318,122.57121,PLDT,92775,94028,92.78,94.03,20,514,112,140
"Paracale, Camarines Norte, Philippines",14.23721,122.78588,PLDT,21825,21000,21.83,21.00,13,513,60,112
"Cordon, Isabela, Philippines",16.67835,121.46847,PLDT Home Fiber,102485,93730,102.49,93.73,13,512,120,208
"Carles, Iloilo, Philippines",11.55216,123.13515,PLDT,25710,30377,25.71,30.38,14,512,32,42
"Porac, Pampanga, Philippines",15.06974,120.55007,PLDT,54357,57868,54.36,57.87,10,511,137,197
"Manaoag, Pangasinan, Philippines",16.04627,120.4876,PLDT Home Fiber,109488,117174,109.49,117.17,8,511,123,169
"Rizal, Laguna, Philippines",14.08408,121.41133,PLDT Home Fiber,163517,200737,163.52,200.74,8,509,176,269
"Tuba, Benguet, Philippines",16.39277,120.56034,PLDT Home Fiber,96132,94656,96.13,94.66,7,508,139,229
"Urdaneta City, Pangasinan, Philippines",15.98194,120.59698,PLDT,94000,91544,94.00,91.54,5,508,140,203
"Miagao, Iloilo, Philippines",10.64201,122.23632,PLDT,128591,159385,128.59,159.39,8,508,65,92
"San Carlos City, Pangasinan, Philippines",15.92589,120.34827,Globe,90545,87012,90.55,87.01,4,508,52,67
"Obando, Bulacan, Philippines",14.70986,120.93674,Converge,106980,98933,106.98,98.93,5,507,74,100
"Malay, Aklan, Philippines",11.93033,121.95191,Converge,60888,49048,60.89,49.05,15,506,121,208
"Burauen, Leyte, Philippines",10.97109,124.84034,PLDT,46983,48753,46.98,48.75,16,505,77,103
"Sasmuan, Pampanga, Philippines",14.88764,120.61424,PLDT,72456,78206,72.46,78.21,10,503,137,207
"Urdaneta City, Pangasinan, Philippines",15.98194,120.59698,Globe,116130,103255,116.13,103.26,5,503,65,76
"Infanta, Quezon, Philippines",14.74071,121.6451,PLDT Home Fiber,66607,91462,66.61,91.46,11,503,80,106
"Santa Cruz, Laguna, Philippines",14.26911,121.41133,Converge,156045,147717,156.05,147.72,8,501,70,108
"Bacong, Negros Oriental, Philippines",9.24338,123.27003,PLDT Home Fiber,154171,141677,154.17,141.68,10,499,70,90
"Guiguinto, Bulacan, Philippines",14.82832,120.88429,Globe,121071,111465,121.07,111.47,7,498,113,140
"San Jose, Occidental Mindoro, Philippines",12.40119,121.10229,Converge,54175,59986,54.18,59.99,9,496,83,125
"Panabo City, Davao del Norte, Philippines",7.30822,125.68662,Converge,176655,177276,176.66,177.28,4,495,85,112
"Barira, Maguindanao, Philippines",7.45408,124.31993,PLDT Home Fiber,192705,140305,192.71,140.31,8,494,52,75
"City of Baybay, Leyte, Philippines",10.66858,124.80409,Globe,93608,89944,93.61,89.94,12,494,79,102
"General Mariano Alvarez, Cavite, Philippines",14.29525,121.0071,Globe,152423,132750,152.42,132.75,5,493,134,209
"City of Batac, Ilocos Norte, Philippines",18.04961,120.59698,PLDT Home Fiber,103794,125889,103.79,125.89,8,493,88,129
"Maitum, Sarangani, Philippines",6.12408,124.48636,PLDT,12569,14499,12.57,14.50,19,492,42,70
"General Mamerto Natividad, Nueva Ecija, Philippines",15.58788,121.04498,PLDT Home Fiber,91496,96390,91.50,96.39,10,491,86,134
"City of Mati, Davao Oriental, Philippines",6.95722,126.15454,PLDT Home Fiber,108352,102255,108.35,102.26,13,489,94,141
"Lucban, Quezon, Philippines",14.1144,121.55472,Converge,83351,81431,83.35,81.43,8,488,110,173
"Bay, Laguna, Philippines",14.14064,121.26836,Converge,226664,226947,226.66,226.95,5,487,159,272
"Los Baños, Laguna, Philippines",14.17731,121.22161,Converge,130303,130958,130.30,130.96,6,487,101,165
"Samal, Bataan, Philippines",14.77188,120.51639,PLDT Home Fiber,80828,48767,80.83,48.77,9,485,54,65
"Camalig, Albay, Philippines",13.14101,123.63996,Converge,86551,93264,86.55,93.26,14,485,66,107
"Toboso, Negros Occidental, Philippines",10.71769,123.46077,PLDT Home Fiber,89458,93791,89.46,93.79,7,485,146,221
"Argao, Cebu, Philippines",9.88114,123.60535,PLDT,68612,73303,68.61,73.30,7,481,78,108
"Rizal, Nueva Ecija, Philippines",15.69357,121.10229,PLDT Home Fiber,79590,80751,79.59,80.75,9,480,83,120
"City of Tayabas, Quezon, Philippines",14.01135,121.55983,PLDT,91645,94177,91.65,94.18,8,478,128,164
"Subic Bay Freeport Zone, Philippines",14.80319,120.30033,PLDT Home Fiber,119098,119576,119.10,119.58,8,476,104,164
"Imelda, Zamboanga Sibugay, Philippines",7.62787,122.95503,PLDT Home Fiber,119210,109053,119.21,109.05,9,475,37,42
"Brooke's Point, Palawan, Philippines",8.78617,117.83817,PLDT Home Fiber,54131,55062,54.13,55.06,17,475,56,76
"Nasugbu, Batangas, Philippines",14.09404,120.68901,Converge,119296,118591,119.30,118.59,7,473,128,202
"Ipil, Zamboanga Sibugay, Philippines",7.77318,122.57121,Globe,74757,67434,74.76,67.43,10,472,63,82
"Guagua, Pampanga, Philippines",14.96374,120.63244,PLDT,78772,73301,78.77,73.30,11,472,116,151
"Old Kaabakan, Philippines",7.22147,124.85635,PLDT Home Fiber,98427,94690,98.43,94.69,9,471,151,233
"Norzagaray, Bulacan, Philippines",14.89659,121.14813,PLDT Home Fiber,94344,90210,94.34,90.21,7,471,116,166
"La Trinidad, Benguet, Philippines",16.44844,120.59047,PLDT,89617,94201,89.62,94.20,5,471,122,161
"Victoria, Laguna, Philippines",14.19678,121.34273,PLDT Home Fiber,121241,159908,121.24,159.91,7,468,100,143
"Pagbilao, Quezon, Philippines",13.99683,121.73095,PLDT Home Fiber,153602,149281,153.60,149.28,3,468,109,148
"Lucena City, Quezon, Philippines",13.94139,121.62345,Globe,95431,102110,95.43,102.11,9,467,80,106
"San Carlos City, Pangasinan, Philippines",15.92589,120.34827,PLDT,90790,94182,90.79,94.18,5,467,129,176
"San Francisco, Agusan del Sur, Philippines",8.44573,125.95878,PLDT Home Fiber,89061,87532,89.06,87.53,6,464,94,119
"Pateros, Metro Manila, Philippines",14.54838,121.07077,Globe,117495,101183,117.50,101.18,5,464,163,233
"Talisay, Batangas, Philippines",14.11598,121.04498,PLDT Home Fiber,115146,107208,115.15,107.21,6,463,158,248
"Iriga City, Camarines Sur, Philippines",13.42095,123.41361,PLDT Home Fiber,93736,102932,93.74,102.93,8,462,106,147
"Maco, Davao de Oro, Philippines",7.40845,125.937,PLDT Home Fiber,36208,38694,36.21,38.69,11,462,64,88
"Panglao, Bohol, Philippines",9.56947,123.78721,PLDT Home Fiber,90908,86305,90.91,86.31,10,460,102,158
"Borbon, Cebu, Philippines",10.84627,123.9973,Globe,87910,94848,87.91,94.85,18,460,132,181
"Balanga City, Bataan, Philippines",14.67454,120.47033,Globe,132273,120354,132.27,120.35,9,458,63,82
"Tagkawayan, Quezon, Philippines",13.96843,122.53376,PLDT,65758,67980,65.76,67.98,8,458,68,95
"Rosales, Pangasinan, Philippines",15.86126,120.63149,PLDT,60219,51374,60.22,51.37,18,458,102,154
"Tabaco City, Albay, Philippines",13.36138,123.72876,Converge,87467,88793,87.47,88.79,5,457,79,123
"Talavera, Nueva Ecija, Philippines",15.58575,120.9197,PLDT,97448,97838,97.45,97.84,10,456,56,86
"Madridejos, Cebu, Philippines",11.25859,123.7406,PLDT,96135,90744,96.14,90.74,7,456,51,67
"Cauayan City, Isabela, Philippines",16.91662,121.78792,PLDT,35479,36472,35.48,36.47,13,455,95,149
"Minalin, Pampanga, Philippines",14.97052,120.68518,Converge,82285,90963,82.29,90.96,4,455,68,84
"Tagum, Davao del Norte, Philippines",7.44742,125.80246,Converge,167718,152059,167.72,152.06,5,454,121,155
"San Juan, Batangas, Philippines",13.75044,121.37703,Converge,110794,98984,110.79,98.98,8,453,128,192
"Jaen, Nueva Ecija, Philippines",15.39558,120.87286,Globe,121119,111771,121.12,111.77,5,453,125,166
"Sibulan, Negros Oriental, Philippines",9.35972,123.28476,Globe,84996,83029,85.00,83.03,10,452,118,148
"Noveleta, Cavite, Philippines",14.42785,120.88009,PLDT,80068,89798,80.07,89.80,8,452,104,168
"Gattaran, Cagayan, Philippines",18.07365,121.87903,PLDT,54586,44613,54.59,44.61,16,451,83,125
"Tagaytay City, Cavite, Philippines",14.11541,120.96202,PLDT Home Fiber,46327,26930,46.33,26.93,7,451,155,227
"Labangan, Zamboanga del Sur, Philippines",7.85732,123.503,PLDT Home Fiber,78899,95102,78.90,95.10,10,451,107,143
"Cuyapo, Nueva Ecija, Philippines",15.79995,120.68901,PLDT Home Fiber,103722,101953,103.72,101.95,12,449,102,158
"Laurel, Batangas, Philippines",14.05302,120.9073,PLDT,84830,95898,84.83,95.90,9,448,77,111
"Sagbayan, Bohol, Philippines",9.91005,124.08641,PLDT,40137,30877,40.14,30.88,20,447,104,153
"Pagadian City, Zamboanga del Sur, Philippines",7.86265,123.37106,PLDT,80895,75672,80.90,75.67,15,447,112,155
"Talisay, Negros Occidental, Philippines",10.74828,122.98012,Converge,154994,121144,154.99,121.14,12,446,125,167
"Puerto Galera, Oriental Mindoro, Philippines",13.44475,120.91878,Converge,176225,140247,176.23,140.25,9,445,39,67
"Santa Cruz, Zambales, Philippines",15.77308,120.04341,Converge,83318,65419,83.32,65.42,6,445,56,73
"Irosin, Sorsogon, Philippines",12.72398,124.04187,PLDT,90776,69287,90.78,69.29,17,445,57,73
"Muñoz, Nueva Ecija, Philippines",15.70664,120.9029,Converge,120860,132537,120.86,132.54,5,444,87,127
