Location Name,Latitude,Longitude,Provider,Download Speed,Upload Speed,Download Speed Mbps,Upload Speed Mbps,Minimum Latency,Test Count,Sample Count,User Count
"Davao City, Davao del Sur, Philippines",7.06475,125.60884,Converge,191478,189260,191.48,189.26,3,39542,8119,12491
"Quezon City, Metro Manila, Philippines",14.64879,121.05094,Globe,241982,213739,241.98,213.74,5,28840,9014,14914
"Quezon City, Metro Manila, Philippines",14.64879,121.05094,PLDT Home Fiber,150250,152428,150.25,152.43,3,28749,8786,12957
"Quezon City, Metro Manila, Philippines",14.64879,121.05094,Converge,186942,173523,186.94,173.52,4,22732,6941,11065
"Davao City, Davao del Sur, Philippines",7.06475,125.60884,Globe,192814,175444,192.81,175.44,4,15449,5481,7802
"Cebu City, Cebu, Philippines",10.29261,123.90219,Globe,197983,174400,197.98,174.40,6,13714,4522,6793
"Cebu City, Cebu, Philippines",10.29261,123.90219,PLDT Home Fiber,95315,107399,95.32,107.40,6,13256,3426,4920
"Manila, Metro Manila, Philippines",14.59951,120.98423,Converge,198219,171496,198.22,171.50,4,12232,3593,6264
"Davao City, Davao del Sur, Philippines",7.06475,125.60884,PLDT Home Fiber,106018,94365,106.02,94.37,9,12000,3483,5023
"Manila, Metro Manila, Philippines",14.59951,120.98423,PLDT Home Fiber,99153,101017,99.15,101.02,6,11925,3254,5041
"Quezon City, Metro Manila, Philippines",14.64879,121.05094,PLDT,76342,77668,76.34,77.67,9,11853,3561,5255
"Cebu City, Cebu, Philippines",10.29261,123.90219,PLDT,87436,93763,87.44,93.76,8,10648,3211,4518
"Cagayan De Oro City, Misamis Oriental, Philippines",8.48029,124.64975,Globe,118897,72827,118.90,72.83,8,10508,3274,5177
"Pasig, Metro Manila, Philippines",14.56082,121.0776,Converge,135914,135095,135.91,135.10,4,10337,3268,4753
"Manila, Metro Manila, Philippines",14.59951,120.98423,PLDT,89477,93203,89.48,93.20,5,10273,2931,4241
"Santa Cruz, Davao del Sur, Philippines",6.83551,125.41659,Converge,185614,190081,185.61,190.08,3,9504,2001,3402
"Pasig, Metro Manila, Philippines",14.56082,121.0776,PLDT Home Fiber,158744,150470,158.74,150.47,3,8691,2706,3991
"Taguig, Metro Manila, Philippines",14.53063,121.05755,Globe,224792,199365,224.79,199.37,4,8146,2756,4630
"Cagayan De Oro City, Misamis Oriental, Philippines",8.48029,124.64975,PLDT Home Fiber,95396,94492,95.40,94.49,9,7964,2513,3590
"Baguio, Benguet, Philippines",16.41297,120.5914,PLDT Home Fiber,91872,98314,91.87,98.31,7,7871,2148,3242
"Cebu City, Cebu, Philippines",10.29261,123.90219,Converge,205473,189334,205.47,189.33,15,7766,2385,3592
"Parañaque, Metro Manila, Philippines",14.47929,121.01985,Converge,200716,199031,200.72,199.03,4,7578,2407,3776
"Biñan, Laguna, Philippines",14.31456,121.08316,PLDT,131947,130194,131.95,130.19,8,7250,2180,3347
"Parañaque, Metro Manila, Philippines",14.47929,121.01985,PLDT,132993,103411,132.99,103.41,5,7244,2420,3680
"Makati City, Metro Manila, Philippines",14.55474,121.02444,PLDT,72472,74383,72.47,74.38,11,7236,2288,3212
"Parañaque, Metro Manila, Philippines",14.47929,121.01985,PLDT Home Fiber,169879,145736,169.88,145.74,4,7062,2215,3190
"San Pablo City, Laguna, Philippines",14.06422,121.32326,Converge,173604,187024,173.60,187.02,6,6915,1857,3017
"Antipolo City, 1870 Rizal, Philippines",14.58584,121.17569,PLDT Home Fiber,129695,128868,129.70,128.87,3,6885,1978,2955
"Batangas City, Batangas, Philippines",13.75641,121.05833,Globe,120291,107360,120.29,107.36,9,6764,1993,3467
"Calamba, Laguna, Philippines",14.19488,121.15974,Converge,147868,128404,147.87,128.40,6,6672,1936,3084
"Valenzuela, Metro Manila, Philippines",14.69247,120.96991,Converge,199505,195043,199.51,195.04,4,6583,2055,3402
"Makati City, Metro Manila, Philippines",14.55474,121.02444,PLDT Home Fiber,146994,138375,146.99,138.38,4,6419,1943,2904
"Impasug-ong, Bukidnon, Philippines",8.38854,125.08286,Converge,84259,94068,84.26,94.07,34,6344,1179,1847
"Taguig, Metro Manila, Philippines",14.53063,121.05755,Converge,200213,199226,200.21,199.23,4,6045,1976,3108
"Iloilo City, Iloilo, Philippines",10.73019,122.55911,Globe,120012,106915,120.01,106.92,8,6013,1845,2847
"Marikina, Metro Manila, Philippines",14.63493,121.10195,Converge,185237,178283,185.24,178.28,3,5857,1892,2973
"Cainta, Rizal, Philippines",14.58056,121.11565,PLDT Home Fiber,152935,162539,152.94,162.54,3,5324,1561,2380
"Caloocan, Metro Manila, Philippines",14.65136,120.99022,PLDT Home Fiber,165400,163343,165.40,163.34,3,5261,1577,2231
"Mexico, Pampanga, Philippines",15.06457,120.72033,Converge,162447,148408,162.45,148.41,3,5202,1768,2615
"Caloocan, Metro Manila, Philippines",14.65136,120.99022,Globe,219030,199030,219.03,199.03,5,5173,1780,2634
"Muntinlupa, Metro Manila, Philippines",14.39453,121.04483,PLDT,95760,96584,95.76,96.58,5,5029,1594,2410
"Imus, Cavite, Philippines",14.42764,120.93724,PLDT Home Fiber,179851,166393,179.85,166.39,4,4895,1453,2140
"Iligan City, Lanao del Norte, Philippines",8.22707,124.46418,PLDT Home Fiber,94226,93870,94.23,93.87,7,4826,1403,2019
"San Antonio, Nueva Ecija, Philippines",15.31921,120.82692,Globe,275434,256318,275.43,256.32,5,4670,1381,2627
"Pasig, Metro Manila, Philippines",14.56082,121.0776,Globe,280759,254870,280.76,254.87,5,4645,1624,2286
"Davao City, Davao del Sur, Philippines",7.06475,125.60884,PLDT,94432,94024,94.43,94.02,9,4641,1540,2042
"Bamban, Tarlac, Philippines",15.2885,120.57044,Converge,167405,169453,167.41,169.45,3,4607,1628,2358
"Pasay City, Metro Manila, Philippines",14.53767,121.00081,PLDT Home Fiber,135966,117719,135.97,117.72,4,4585,1540,2257
"Bacoor, Cavite, Philippines",14.43122,120.96567,PLDT Home Fiber,135362,135987,135.36,135.99,6,4534,1292,1821
"Makati City, Metro Manila, Philippines",14.55474,121.02444,Globe,204592,191532,204.59,191.53,4,4514,1596,2445
"Pandi, Bulacan, Philippines",14.87572,120.95941,Converge,202855,109187,202.86,109.19,7,4408,1445,2152
"San Juan City, Metro Manila, Philippines",14.60196,121.0355,Globe,232613,202675,232.61,202.68,5,4346,1500,2212
"Calamba, Laguna, Philippines",14.19488,121.15974,PLDT Home Fiber,128304,132544,128.30,132.54,8,4170,1263,1914
"Cabanatuan City, Nueva Ecija, Philippines",15.49943,121.01057,Globe,143651,123543,143.65,123.54,5,4130,1314,2017
"Angeles, Pampanga, Philippines",15.16061,120.60908,Converge,130017,137636,130.02,137.64,3,4099,1374,1983
"San Carlos City, Negros Occidental, Philippines",10.48344,123.30371,PLDT,120001,144933,120.00,144.93,5,4089,1436,2060
"Pasig, Metro Manila, Philippines",14.56082,121.0776,PLDT,78197,82028,78.20,82.03,9,4005,1274,1876
"Magpet, Cotabato, Philippines",7.1332,125.17087,PLDT,141035,97205,141.04,97.21,9,3895,1450,1909
"Las Piñas, Metro Manila, Philippines",14.44934,120.98186,PLDT Home Fiber,168280,157916,168.28,157.92,4,3894,1162,1601
"Tarlac City, Tarlac, Philippines",15.48808,120.58719,Converge,145268,128866,145.27,128.87,4,3892,1334,1935
"Antipolo City, 1870 Rizal, Philippines",14.58584,121.17569,Converge,189467,179386,189.47,179.39,3,3794,1177,1796
"Bacolod, Negros Occidental, Philippines",10.66764,122.94556,Globe,136451,115960,136.45,115.96,7,3679,1195,1692
"Mandaluyong City, Metro Manila, Philippines",14.57627,121.03924,Globe,275218,229559,275.22,229.56,5,3674,1166,1978
"Cagayan De Oro City, Misamis Oriental, Philippines",8.48029,124.64975,Converge,97490,105184,97.49,105.18,13,3641,760,1067
"Bacolod, Negros Occidental, Philippines",10.66764,122.94556,PLDT Home Fiber,87213,93009,87.21,93.01,8,3600,969,1336
"Taguig, Metro Manila, Philippines",14.53063,121.05755,PLDT Home Fiber,171050,167207,171.05,167.21,4,3552,1034,1468
"Valenzuela, Metro Manila, Philippines",14.69247,120.96991,PLDT Home Fiber,134774,132099,134.77,132.10,3,3510,1106,1636
"Imus, Cavite, Philippines",14.42764,120.93724,Converge,211031,185936,211.03,185.94,6,3504,1218,1898
"Dasmariñas, Cavite, Philippines",14.33385,120.95423,PLDT Home Fiber,131649,138142,131.65,138.14,5,3481,1031,1504
"Tanauan City, Batangas, Philippines",14.08354,121.14762,PLDT Home Fiber,102302,106736,102.30,106.74,7,3474,1084,1692
"Dasmariñas, Cavite, Philippines",14.33385,120.95423,PLDT,97509,102699,97.51,102.70,9,3408,1069,1689
"Iriga City, Camarines Sur, Philippines",13.42095,123.41361,Converge,97791,94549,97.79,94.55,6,3340,1005,1719
"San Fernando, Pampanga, Philippines",15.02781,120.69349,Converge,97803,102833,97.80,102.83,4,3314,1113,1604
"Taguig, Metro Manila, Philippines",14.53063,121.05755,PLDT,87271,92674,87.27,92.67,7,3295,1106,1517
"Iligan City, Lanao del Norte, Philippines",8.22707,124.46418,Converge,100410,94363,100.41,94.36,26,3211,815,1193
"La Trinidad, Benguet, Philippines",16.44844,120.59047,Converge,112291,112529,112.29,112.53,3,3209,1137,1571
"Malabon, Metro Manila, Philippines",14.65793,120.95118,PLDT Home Fiber,134195,128659,134.20,128.66,3,3156,1034,1616
"Bago, Negros Occidental, Philippines",10.53757,122.83609,Converge,178038,125679,178.04,125.68,16,3155,919,1424
"San Fernando, Pampanga, Philippines",15.02781,120.69349,PLDT Home Fiber,120611,94939,120.61,94.94,9,3119,874,1285
"Dasmariñas, Cavite, Philippines",14.33385,120.95423,Globe,188296,149147,188.30,149.15,5,3117,1010,1731
"Murcia, Negros Occidental, Philippines",10.60643,123.03944,Globe,207678,178819,207.68,178.82,8,3082,1029,1807
"Magpet, Cotabato, Philippines",7.1332,125.17087,PLDT Home Fiber,135252,96646,135.25,96.65,9,3045,1105,1522
"SJDM, Bulacan, Philippines",14.82867,121.04324,Converge,170442,122692,170.44,122.69,7,3015,1062,1564
"General Trias, Cavite, Philippines",14.38159,120.87915,Converge,201083,175475,201.08,175.48,5,2997,969,1541
"Magpet, Cotabato, Philippines",7.1332,125.17087,Globe,64576,99223,64.58,99.22,5,2983,1080,1657
"Butuan City, Agusan Del Norte, Philippines",8.94753,125.54063,Globe,166876,60687,166.88,60.69,12,2898,886,1385
"San Juan City, Metro Manila, Philippines",14.60196,121.0355,Converge,184562,165586,184.56,165.59,4,2887,926,1514
"Itogon, Benguet, Philippines",16.36116,120.6787,PLDT,94298,140304,94.30,140.30,7,2803,830,1198
"Bacoor, Cavite, Philippines",14.43122,120.96567,PLDT,105622,99823,105.62,99.82,8,2795,818,1201
"Tarlac City, Tarlac, Philippines",15.48808,120.58719,Globe,122201,107922,122.20,107.92,5,2718,917,1321
"Minglanilla, Cebu, Philippines",10.24543,123.79599,Converge,254403,215319,254.40,215.32,19,2704,953,1412
"Bacolor, Pampanga, Philippines",14.99692,120.65235,PLDT Home Fiber,143839,99066,143.84,99.07,9,2647,818,1154
"Parañaque, Metro Manila, Philippines",14.47929,121.01985,Globe,221092,183147,221.09,183.15,4,2606,922,1360
"Magalang, Pampanga, Philippines",15.21394,120.66181,Converge,125208,144851,125.21,144.85,3,2563,917,1365
"Calamba, Laguna, Philippines",14.19488,121.15974,PLDT,98903,104344,98.90,104.34,8,2430,716,1125
"Los Baños, Laguna, Philippines",14.17731,121.22161,PLDT Home Fiber,116467,137208,116.47,137.21,7,2420,798,1205
"La Paz, Tarlac, Philippines",15.4497,120.7235,Globe,61551,53628,61.55,53.63,5,2384,602,1402
"Caloocan, Metro Manila, Philippines",14.65136,120.99022,PLDT,89549,93093,89.55,93.09,4,2381,719,1124
"Naga City, Camarines Sur, Philippines",13.6475,123.27003,Converge,94370,94186,94.37,94.19,10,2376,616,1055
"San Juan City, Metro Manila, Philippines",14.60196,121.0355,PLDT,69663,73535,69.66,73.54,13,2369,782,1090
"Danao, Cebu, Philippines",10.52013,124.02712,Globe,113775,104317,113.78,104.32,6,2365,748,1260
"Tarlac City, Tarlac, Philippines",15.48808,120.58719,PLDT,80930,100776,80.93,100.78,12,2318,651,928
"Malabon, Metro Manila, Philippines",14.65793,120.95118,Converge,188134,180504,188.13,180.50,4,2247,652,1129
"Biñan, Laguna, Philippines",14.31456,121.08316,PLDT Home Fiber,131385,125135,131.39,125.14,8,2171,591,869
"Mandaluyong City, Metro Manila, Philippines",14.57627,121.03924,Converge,176128,159658,176.13,159.66,4,2164,690,1019
"Pasay City, Metro Manila, Philippines",14.53767,121.00081,PLDT,87423,90432,87.42,90.43,8,2153,675,1048
"Itogon, Benguet, Philippines",16.36116,120.6787,PLDT Home Fiber,93990,109804,93.99,109.80,7,2152,686,1036
"San Carlos City, Negros Occidental, Philippines",10.48344,123.30371,PLDT Home Fiber,119856,139005,119.86,139.01,5,2105,695,1006
"Baguio, Benguet, Philippines",16.41297,120.5914,PLDT,85805,94277,85.81,94.28,8,2086,575,914
"San Luis, Pampanga, Philippines",15.03986,120.81544,Converge,132555,129624,132.56,129.62,4,2046,787,1152
"Silang, Cavite, Philippines",14.22025,120.96469,PLDT Home Fiber,174960,162174,174.96,162.17,5,1979,640,960
"Lipa City, Batangas, Philippines",13.94047,121.19395,PLDT Home Fiber,129366,129341,129.37,129.34,6,1976,619,888
"Naga City, Camarines Sur, Philippines",13.6475,123.27003,PLDT Home Fiber,110012,108604,110.01,108.60,8,1910,558,900
"Muntinlupa, Metro Manila, Philippines",14.39453,121.04483,PLDT Home Fiber,166634,117366,166.63,117.37,4,1905,529,793
"Las Piñas, Metro Manila, Philippines",14.44934,120.98186,PLDT,74705,83855,74.71,83.86,9,1863,541,748
"Baguio, Benguet, Philippines",16.41297,120.5914,Converge,111451,121043,111.45,121.04,4,1839,648,958
"Caloocan, Metro Manila, Philippines",14.65136,120.99022,Converge,204764,202627,204.76,202.63,4,1819,580,849
"Bacolod, Negros Occidental, Philippines",10.66764,122.94556,Converge,138864,117338,138.86,117.34,12,1814,469,697
"Iloilo City, Iloilo, Philippines",10.73019,122.55911,PLDT,90645,92918,90.65,92.92,9,1813,403,569
"San Juan City, Metro Manila, Philippines",14.60196,121.0355,PLDT Home Fiber,167001,166397,167.00,166.40,3,1780,577,864
"Manila, Metro Manila, Philippines",14.59951,120.98423,Globe,295910,235441,295.91,235.44,5,1750,665,855
"San Rafael, Bulacan, Philippines",15.00184,120.93141,PLDT Home Fiber,109287,101066,109.29,101.07,7,1745,574,826
"Subic Bay Freeport Zone, Philippines",14.80319,120.30033,Converge,153345,191748,153.35,191.75,4,1716,524,785
"Calapan City, Oriental Mindoro, Philippines",13.36643,121.19395,Converge,96866,94624,96.87,94.62,12,1706,492,799
"Muntinlupa, Metro Manila, Philippines",14.39453,121.04483,Globe,169198,141229,169.20,141.23,6,1694,579,822
"Antipolo City, 1870 Rizal, Philippines",14.58584,121.17569,PLDT,74687,74806,74.69,74.81,8,1690,515,703
"Iloilo City, Iloilo, Philippines",10.73019,122.55911,PLDT Home Fiber,94086,100886,94.09,100.89,9,1673,461,665
"Talakag, Bukidnon, Philippines",8.05293,124.72988,PLDT Home Fiber,92934,94390,92.93,94.39,7,1669,558,853
"General Santos City (Dadiangas), South Cotabato, Philippines",6.14327,125.19286,Converge,168543,169952,168.54,169.95,5,1640,315,357
"Santa Maria, Bulacan, Philippines",14.82898,120.97616,Converge,171983,101125,171.98,101.13,7,1637,494,779
"General Trias, Cavite, Philippines",14.38159,120.87915,PLDT Home Fiber,176568,156397,176.57,156.40,5,1604,467,650
"Iloilo City, Iloilo, Philippines",10.73019,122.55911,Converge,108794,96365,108.79,96.37,12,1598,465,730
"Canlaon City, Negros Oriental, Philippines",10.36048,123.19137,PLDT Home Fiber,164604,211316,164.60,211.32,5,1591,570,789
"Marilao, Bulacan, Philippines",14.77237,120.96001,PLDT Home Fiber,100173,103469,100.17,103.47,10,1580,395,578
"Mandaluyong City, Metro Manila, Philippines",14.57627,121.03924,PLDT Home Fiber,157983,147979,157.98,147.98,3,1560,493,692
"Danao, Cebu, Philippines",10.52013,124.02712,PLDT Home Fiber,134237,194186,134.24,194.19,5,1545,457,652
"Makati City, Metro Manila, Philippines",14.55474,121.02444,Converge,175139,159384,175.14,159.38,5,1541,435,616
"Marikina, Metro Manila, Philippines",14.63493,121.10195,PLDT Home Fiber,189412,163089,189.41,163.09,3,1527,530,783
"Bago, Negros Occidental, Philippines",10.53757,122.83609,Globe,117125,106133,117.13,106.13,4,1513,469,875
"Malabon, Metro Manila, Philippines",14.65793,120.95118,PLDT,70790,89128,70.79,89.13,7,1509,527,733
"Bacolod, Negros Occidental, Philippines",10.66764,122.94556,PLDT,58366,62285,58.37,62.29,11,1493,466,649
"Valenzuela, Metro Manila, Philippines",14.69247,120.96991,Globe,238052,227438,238.05,227.44,4,1490,430,564
"Antipolo City, 1870 Rizal, Philippines",14.58584,121.17569,Globe,229568,188810,229.57,188.81,5,1480,512,653
"San Pablo City, Laguna, Philippines",14.06422,121.32326,PLDT Home Fiber,136478,128797,136.48,128.80,6,1473,452,715
"Taytay, Rizal, Philippines",14.55288,121.12571,Converge,219571,222630,219.57,222.63,3,1459,434,648
"Marikina, Metro Manila, Philippines",14.63493,121.10195,Globe,195344,179233,195.34,179.23,5,1453,489,785
"Taytay, Rizal, Philippines",14.55288,121.12571,PLDT Home Fiber,176486,158285,176.49,158.29,4,1433,443,621
"Binangonan, Rizal, Philippines",14.48441,121.1869,PLDT,136789,119854,136.79,119.85,4,1431,491,789
"Cainta, Rizal, Philippines",14.58056,121.11565,Globe,269750,228140,269.75,228.14,5,1419,525,699
"Tagaytay City, Cavite, Philippines",14.11541,120.96202,Converge,139972,141574,139.97,141.57,6,1409,416,684
"Lucena City, Quezon, Philippines",13.94139,121.62345,PLDT Home Fiber,99998,104475,100.00,104.48,5,1409,364,555
"Butuan City, Agusan Del Norte, Philippines",8.94753,125.54063,Converge,40667,106167,40.67,106.17,62,1400,170,209
"Taytay, Rizal, Philippines",14.55288,121.12571,PLDT,67821,81213,67.82,81.21,10,1386,505,711
"Las Piñas, Metro Manila, Philippines",14.44934,120.98186,Globe,270858,202012,270.86,202.01,6,1383,453,577
"San Quintin, Pangasinan, Philippines",15.9754,120.83841,Globe,61321,53692,61.32,53.69,6,1382,338,833
"Santo Domingo, Nueva Ecija, Philippines",15.61284,120.88434,Globe,196876,177892,196.88,177.89,6,1352,393,670
"Bansalan, Davao del Sur, Philippines",6.84825,125.22584,PLDT Home Fiber,109459,109749,109.46,109.75,10,1320,493,688
"Tarlac City, Tarlac, Philippines",15.48808,120.58719,PLDT Home Fiber,85601,124258,85.60,124.26,10,1308,362,528
"Balamban, Cebu, Philippines",10.48585,123.77412,Globe,153129,111266,153.13,111.27,7,1277,406,739
"Imus, Cavite, Philippines",14.42764,120.93724,Globe,282259,227212,282.26,227.21,5,1277,438,676
"New Lucena, Iloilo, Philippines",10.87841,122.59781,Converge,139016,113675,139.02,113.68,15,1275,408,697
"Urdaneta City, Pangasinan, Philippines",15.98194,120.59698,Converge,113150,114773,113.15,114.77,5,1271,414,624
"Polangui, Albay, Philippines",13.29368,123.48542,Converge,99973,98417,99.97,98.42,14,1258,303,534
"Nasugbu, Batangas, Philippines",14.09404,120.68901,Globe,170998,144071,171.00,144.07,7,1252,467,646
"Santa Ana, Pampanga, Philippines",15.09442,120.76623,Converge,154858,170512,154.86,170.51,4,1242,393,610
"Calamba, Laguna, Philippines",14.19488,121.15974,Globe,117203,106196,117.20,106.20,6,1242,425,666
"Bacoor, Cavite, Philippines",14.43122,120.96567,Converge,204458,191330,204.46,191.33,6,1242,387,617
"Laurel, Batangas, Philippines",14.05302,120.9073,Converge,119120,193118,119.12,193.12,9,1227,309,495
"Malolos, Bulacan, Philippines",14.86049,120.80916,PLDT Home Fiber,112563,106730,112.56,106.73,7,1225,394,611
"Kawit, Cavite, Philippines",14.44588,120.90871,PLDT Home Fiber,92639,94391,92.64,94.39,8,1216,381,565
"Burgos, La Union, Philippines",16.53803,120.47033,Converge,100138,108163,100.14,108.16,3,1212,437,672
"Binangonan, Rizal, Philippines",14.48441,121.1869,PLDT Home Fiber,130901,152593,130.90,152.59,3,1205,419,613
"Dolores, Quezon, Philippines",14.00193,121.41133,Converge,203508,194618,203.51,194.62,4,1201,409,678
"Bacoor, Cavite, Philippines",14.43122,120.96567,Globe,229669,198058,229.67,198.06,5,1200,414,542
"Zamboanga City, Zamboanga del Sur, Philippines",6.90437,122.07612,PLDT Home Fiber,98093,93033,98.09,93.03,12,1173,247,352
"Kawit, Cavite, Philippines",14.44588,120.90871,Globe,194195,165218,194.20,165.22,5,1169,397,591
"Baliwag, Bulacan, Philippines",14.96569,120.89431,PLDT Home Fiber,95719,101098,95.72,101.10,8,1168,288,444
"Tanauan City, Batangas, Philippines",14.08354,121.14762,PLDT,119288,125951,119.29,125.95,8,1168,417,587
"Angeles, Pampanga, Philippines",15.16061,120.60908,PLDT Home Fiber,92654,94646,92.65,94.65,9,1168,324,479
"Mandaluyong City, Metro Manila, Philippines",14.57627,121.03924,PLDT,58493,57731,58.49,57.73,10,1155,376,537
"Butuan City, Agusan Del Norte, Philippines",8.94753,125.54063,PLDT Home Fiber,86530,90062,86.53,90.06,9,1142,298,440
"Bokod, Benguet, Philippines",16.45641,120.78097,PLDT,93695,118094,93.70,118.09,7,1139,395,564
"Asturias, Cebu, Philippines",10.60209,123.77412,Globe,151259,116549,151.26,116.55,7,1106,400,678
"La Trinidad, Benguet, Philippines",16.44844,120.59047,PLDT Home Fiber,76927,94708,76.93,94.71,9,1103,267,387
"Lapu-Lapu, Cebu, Philippines",10.31838,123.96395,Globe,189089,187388,189.09,187.39,5,1102,347,422
"Valenzuela, Metro Manila, Philippines",14.69247,120.96991,PLDT,88226,88468,88.23,88.47,8,1086,372,524
"Consolacion, Cebu, Philippines",10.37581,123.95694,Globe,98109,96025,98.11,96.03,6,1066,363,581
"Compostela, Cebu, Philippines",10.45408,124.013,Globe,64474,56934,64.47,56.93,6,1064,335,653
"General Trias, Cavite, Philippines",14.38159,120.87915,Globe,179220,156022,179.22,156.02,5,1010,370,472
"Cabanatuan City, Nueva Ecija, Philippines",15.49943,121.01057,PLDT Home Fiber,47869,92982,47.87,92.98,20,1007,224,323
"Santa Barbara, Pangasinan, Philippines",15.9774,120.42424,Converge,102062,109152,102.06,109.15,5,1005,366,576
"Kitaotao, Bukidnon, Philippines",7.59444,125.10487,Globe,91985,83865,91.99,83.87,5,1002,413,630
"Meycauayan, Bulacan, Philippines",14.73772,120.96077,PLDT Home Fiber,96492,97399,96.49,97.40,10,989,258,390
"Subic, Zambales, Philippines",14.83066,120.18202,Converge,101076,106482,101.08,106.48,5,984,296,457
"San Nicolas, Pangasinan, Philippines",16.12066,120.78097,PLDT Home Fiber,93862,100905,93.86,100.91,8,982,284,446
"Lipa City, Batangas, Philippines",13.94047,121.19395,Globe,167769,161058,167.77,161.06,6,980,310,523
"Zamboanga City, Zamboanga del Sur, Philippines",6.90437,122.07612,Globe,123805,105084,123.81,105.08,14,979,244,317
"Dagupan City, Pangasinan, Philippines",16.03375,120.33202,PLDT Home Fiber,56750,109737,56.75,109.74,8,974,250,350
"Naga, Cebu, Philippines",10.20764,123.75821,Globe,215661,192120,215.66,192.12,17,960,391,598
"Cabiao, Nueva Ecija, Philippines",15.25221,120.85957,PLDT Home Fiber,86770,95063,86.77,95.06,13,955,262,389
"Angeles, Pampanga, Philippines",15.16061,120.60908,PLDT,76932,94177,76.93,94.18,12,953,277,400
"Bago, Negros Occidental, Philippines",10.53757,122.83609,PLDT Home Fiber,139847,179356,139.85,179.36,6,940,333,473
"Marikina, Metro Manila, Philippines",14.63493,121.10195,PLDT,76520,88718,76.52,88.72,10,937,342,463
"Kidapawan, Cotabato, Philippines",7.02127,125.09019,Converge,203086,203481,203.09,203.48,4,935,171,202
"Cardona, Rizal, Philippines",14.48493,121.232,PLDT,131458,153286,131.46,153.29,4,931,319,503
"Pitogo, Quezon, Philippines",13.80951,122.10647,Converge,106386,101296,106.39,101.30,9,917,253,376
"Lipa City, Batangas, Philippines",13.94047,121.19395,Converge,139533,115951,139.53,115.95,7,912,279,432
"Arayat, Pampanga, Philippines",15.15443,120.771,PLDT Home Fiber,93210,97740,93.21,97.74,11,907,280,428
"Bokod, Benguet, Philippines",16.45641,120.78097,PLDT Home Fiber,99514,136234,99.51,136.23,6,905,279,414
"Kayapa, Nueva Vizcaya, Philippines",16.49326,120.94174,PLDT Home Fiber,92583,95021,92.58,95.02,8,904,269,412
"General Santos City (Dadiangas), South Cotabato, Philippines",6.14327,125.19286,PLDT Home Fiber,98497,89711,98.50,89.71,12,903,214,281
"SJDM, Bulacan, Philippines",14.82867,121.04324,PLDT,79008,85893,79.01,85.89,10,902,242,345
"City of Tayabas, Quezon, Philippines",14.01135,121.55983,PLDT Home Fiber,147658,178174,147.66,178.17,7,900,252,398
"San Antonio, Nueva Ecija, Philippines",15.31921,120.82692,PLDT Home Fiber,89085,95198,89.09,95.20,13,883,232,351
"Cainta, Rizal, Philippines",14.58056,121.11565,PLDT,64931,63786,64.93,63.79,8,880,254,392
"Tagum, Davao del Norte, Philippines",7.44742,125.80246,Converge,151269,183267,151.27,183.27,4,877,164,196
"Silay, Negros Occidental, Philippines",10.79968,122.97605,PLDT,80731,87554,80.73,87.55,23,874,216,324
"Mandaue, Cebu, Philippines",10.3279,123.94273,Globe,209899,187122,209.90,187.12,5,871,283,340
"Surigao, Surigao del Norte, Philippines",9.79022,125.49311,Converge,46398,175040,46.40,175.04,68,841,79,101
"Mambusao, Capiz, Philippines",11.44257,122.59383,Converge,113131,104624,113.13,104.62,17,836,221,429
"Angono, Rizal, Philippines",14.52592,121.15321,PLDT,93993,98967,93.99,98.97,4,835,279,413
"San Mateo, Rizal, Philippines",14.69539,121.11767,PLDT Home Fiber,102997,133582,103.00,133.58,3,823,248,352
"Bocaue, Bulacan, Philippines",14.7943,120.93073,PLDT Home Fiber,85321,95075,85.32,95.08,11,808,237,337
"Murcia, Negros Occidental, Philippines",10.60643,123.03944,PLDT Home Fiber,99835,116152,99.84,116.15,7,797,264,397
"Cabuyao City, Laguna, Philippines",14.27433,121.11961,PLDT,93787,98337,93.79,98.34,9,792,255,404
"Las Piñas, Metro Manila, Philippines",14.44934,120.98186,Converge,182833,197838,182.83,197.84,4,790,238,348
"Bustos, Bulacan, Philippines",14.95239,120.91735,PLDT Home Fiber,128416,131388,128.42,131.39,7,781,263,364
"Rodriguez, Rizal, Philippines",14.73202,121.14516,PLDT Home Fiber,122234,139351,122.23,139.35,4,767,204,282
"Santa Maria, Bulacan, Philippines",14.82898,120.97616,PLDT Home Fiber,120577,115878,120.58,115.88,9,763,214,320
"San Marcelino, Zambales, Philippines",15.02605,120.27435,Converge,106889,110051,106.89,110.05,5,757,280,428
"Llanera, Nueva Ecija, Philippines",15.66623,121.01057,Converge,138819,134486,138.82,134.49,5,753,234,366
"City of Santa Rosa, Laguna, Philippines",14.31471,121.11232,PLDT,111226,105079,111.23,105.08,8,746,271,363
"San Pedro, Laguna, Philippines",14.36443,121.06192,PLDT,102855,97708,102.86,97.71,7,742,202,301
"Rosario, Cavite, Philippines",14.41672,120.85471,Converge,175483,156140,175.48,156.14,5,740,288,439
"Muntinlupa, Metro Manila, Philippines",14.39453,121.04483,Converge,122120,157278,122.12,157.28,5,735,228,322
"San Pedro, Laguna, Philippines",14.36443,121.06192,PLDT Home Fiber,186719,168319,186.72,168.32,4,734,255,346
"Carmona, Cavite, Philippines",14.3135,121.05712,PLDT,161606,169597,161.61,169.60,7,733,231,333
"City of Santa Rosa, Laguna, Philippines",14.31471,121.11232,PLDT Home Fiber,136153,136035,136.15,136.04,7,724,199,316
"Subic Bay Freeport Zone, Philippines",14.80319,120.30033,PLDT,79098,92025,79.10,92.03,11,722,215,303
"Dagupan City, Pangasinan, Philippines",16.03375,120.33202,PLDT,50142,70280,50.14,70.28,13,712,202,298
"Koronadal, South Cotabato, Philippines",6.50044,124.84333,PLDT Home Fiber,69540,71091,69.54,71.09,11,706,213,283
"Batangas City, Batangas, Philippines",13.75641,121.05833,PLDT Home Fiber,103758,101774,103.76,101.77,6,696,234,348
"San Pedro, Laguna, Philippines",14.36443,121.06192,Converge,161448,95213,161.45,95.21,6,691,176,312
"Cabanatuan City, Nueva Ecija, Philippines",15.49943,121.01057,PLDT,67936,71500,67.94,71.50,11,690,197,280
"Tanza, Cavite, Philippines",14.34293,120.85032,Converge,201971,199500,201.97,199.50,5,686,234,362
"Kidapawan, Cotabato, Philippines",7.02127,125.09019,PLDT Home Fiber,148073,110650,148.07,110.65,10,680,248,316
"Dagupan City, Pangasinan, Philippines",16.03375,120.33202,Converge,91171,90831,91.17,90.83,5,676,183,268
"Cadiz City, Negros Occidental, Philippines",10.86192,123.23632,PLDT Home Fiber,78995,86176,79.00,86.18,8,662,196,283
"General Santos City (Dadiangas), South Cotabato, Philippines",6.14327,125.19286,Globe,119758,129983,119.76,129.98,13,660,194,257
"Malaybalay City, Bukidnon, Philippines",8.15775,125.17087,PLDT Home Fiber,89257,94468,89.26,94.47,10,660,148,210
"Pasay City, Metro Manila, Philippines",14.53767,121.00081,Converge,195869,187545,195.87,187.55,4,660,217,321
"Candaba, Pampanga, Philippines",15.09289,120.8277,PLDT Home Fiber,97719,102450,97.72,102.45,9,659,223,344
"Digos, Davao del Sur, Philippines",6.74347,125.35515,Converge,166572,165216,166.57,165.22,3,655,143,167
"La Castellana, Negros Occidental, Philippines",10.33198,123.10141,PLDT Home Fiber,74320,94004,74.32,94.00,7,653,162,226
"Lipa City, Batangas, Philippines",13.94047,121.19395,PLDT,161339,154078,161.34,154.08,7,651,205,292
"Cabuyao City, Laguna, Philippines",14.27433,121.11961,PLDT Home Fiber,141487,147299,141.49,147.30,7,651,203,310
"Malolos, Bulacan, Philippines",14.86049,120.80916,PLDT,93588,94344,93.59,94.34,7,650,167,249
"Baguio, Benguet, Philippines",16.41297,120.5914,Globe,166198,145603,166.20,145.60,6,640,196,270
"Talisay, Cebu, Philippines",10.25859,123.82413,Converge,228150,199736,228.15,199.74,16,634,103,160
"SJDM, Bulacan, Philippines",14.82867,121.04324,PLDT Home Fiber,118006,95116,118.01,95.12,6,629,203,296
"Tuguegarao City, Cagayan, Philippines",17.60306,121.75374,PLDT,83814,87594,83.81,87.59,14,627,179,253
"Concepcion, Tarlac, Philippines",15.324,120.65596,PLDT Home Fiber,72113,84577,72.11,84.58,11,624,171,248
"Santa Fe, Nueva Vizcaya, Philippines",16.18249,120.91878,PLDT,85563,95359,85.56,95.36,7,624,172,258
"Mabalacat City, Pampanga, Philippines",15.24525,120.56567,Converge,102500,116908,102.50,116.91,3,623,252,346
"Panglao, Bohol, Philippines",9.56947,123.78721,Converge,50137,56374,50.14,56.37,30,621,43,64
"Rosario, Batangas, Philippines",13.80433,121.28552,Globe,259434,253884,259.43,253.88,6,604,199,350
"Lapu-Lapu, Cebu, Philippines",10.31838,123.96395,Converge,118105,130042,118.11,130.04,3,601,183,275
"Orani, Bataan, Philippines",14.80086,120.53616,Converge,101915,107074,101.92,107.07,5,601,190,313
"Mauban, Quezon, Philippines",14.23756,121.69674,Converge,187609,195874,187.61,195.87,11,598,172,288
"Malasiqui, Pangasinan, Philippines",15.92028,120.41443,PLDT Home Fiber,124694,140571,124.69,140.57,9,595,118,196
"Nagcarlan, Laguna, Philippines",14.14903,121.38847,PLDT Home Fiber,117594,118810,117.59,118.81,7,595,161,269
"Olongapo City, Zambales, Philippines",14.88739,120.36661,Converge,133355,132437,133.36,132.44,4,594,235,335
"General Mamerto Natividad, Nueva Ecija, Philippines",15.58788,121.04498,Converge,100396,107828,100.40,107.83,5,594,210,330
"Barili, Cebu, Philippines",10.1254,123.55041,PLDT Home Fiber,98428,152659,98.43,152.66,7,585,206,293
"Angono, Rizal, Philippines",14.52592,121.15321,Converge,274687,293926,274.69,293.93,3,581,182,278
"Santo Tomas, Batangas, Philippines",14.08754,121.17764,PLDT Home Fiber,128709,143161,128.71,143.16,9,580,181,250
"Cainta, Rizal, Philippines",14.58056,121.11565,Converge,187832,188659,187.83,188.66,3,572,218,291
"Marilao, Bulacan, Philippines",14.77237,120.96001,Converge,158689,132646,158.69,132.65,7,570,179,272
"Imus, Cavite, Philippines",14.42764,120.93724,PLDT,153235,114381,153.24,114.38,7,568,139,182
"Marilao, Bulacan, Philippines",14.77237,120.96001,Globe,247817,238198,247.82,238.20,8,565,171,217
"San Nicolas, Pangasinan, Philippines",16.12066,120.78097,PLDT,92857,104540,92.86,104.54,8,564,189,294
"President Roxas, Cotabato, Philippines",7.37928,125.06084,PLDT Home Fiber,142784,100374,142.78,100.37,9,562,211,291
"Concepcion, Tarlac, Philippines",15.324,120.65596,PLDT,49937,64504,49.94,64.50,13,555,146,219
"Kibungan, Benguet, Philippines",16.68162,120.68901,PLDT Home Fiber,82705,93793,82.71,93.79,7,553,215,318
"Diadi, Nueva Vizcaya, Philippines",16.6595,121.33129,Converge,93005,95636,93.01,95.64,12,551,180,274
"Talisay, Negros Occidental, Philippines",10.74828,122.98012,PLDT Home Fiber,85645,92032,85.65,92.03,10,550,135,198
"Candelaria, Quezon, Philippines",13.94899,121.42276,PLDT Home Fiber,94369,97420,94.37,97.42,7,545,138,200
"Kawit, Cavite, Philippines",14.44588,120.90871,PLDT,69579,82755,69.58,82.76,13,536,154,227
"Lapu-Lapu, Cebu, Philippines",10.31838,123.96395,PLDT Home Fiber,139991,155584,139.99,155.58,4,533,160,213
"Santiago, Isabela, Philippines",16.69679,121.55865,PLDT Home Fiber,49902,75772,49.90,75.77,18,531,105,160
"San Fernando, Pampanga, Philippines",15.02781,120.69349,PLDT,56985,60468,56.99,60.47,12,527,148,211
"Santa Barbara, Pangasinan, Philippines",15.9774,120.42424,PLDT Home Fiber,94627,165299,94.63,165.30,8,525,152,218
"Panabo City, Davao del Norte, Philippines",7.30822,125.68662,Converge,190175,193508,190.18,193.51,4,525,110,130
"San Pedro, Laguna, Philippines",14.36443,121.06192,Globe,233139,208452,233.14,208.45,8,524,167,226
"Daet, Camarines Norte, Philippines",14.10303,122.9325,PLDT,64872,88473,64.87,88.47,8,516,96,124
"Mandaue, Cebu, Philippines",10.3279,123.94273,PLDT Home Fiber,97891,139171,97.89,139.17,3,510,162,225
"Santa Maria, Bulacan, Philippines",14.82898,120.97616,Globe,197005,180211,197.01,180.21,8,499,151,196
"Tanza, Cavite, Philippines",14.34293,120.85032,PLDT Home Fiber,177195,202509,177.20,202.51,5,497,165,222
"Angadanan, Isabela, Philippines",16.7913,121.78792,Converge,98644,108641,98.64,108.64,8,493,186,273
"Biñan, Laguna, Philippines",14.31456,121.08316,Globe,208037,168369,208.04,168.37,6,492,145,201
"Silang, Cavite, Philippines",14.22025,120.96469,Converge,161783,204087,161.78,204.09,6,492,130,215
"Navotas, Metro Manila, Philippines",14.65819,120.94743,PLDT Home Fiber,188144,171610,188.14,171.61,4,491,154,215
"Pandi, Bulacan, Philippines",14.87572,120.95941,PLDT,75776,68735,75.78,68.74,9,489,150,234
"Lucban, Quezon, Philippines",14.1144,121.55472,PLDT Home Fiber,201089,210321,201.09,210.32,6,487,140,238
"Sariaya, Quezon, Philippines",13.96301,121.52388,PLDT Home Fiber,93911,94588,93.91,94.59,5,484,155,221
"SJDM, Bulacan, Philippines",14.82867,121.04324,Globe,242842,206255,242.84,206.26,8,478,147,203
"Candaba, Pampanga, Philippines",15.09289,120.8277,Globe,295189,257048,295.19,257.05,5,477,153,274
"Vallehermoso, Negros Oriental, Philippines",10.33905,123.29249,PLDT Home Fiber,94310,129735,94.31,129.74,5,474,151,225
"Silang, Cavite, Philippines",14.22025,120.96469,PLDT,106007,105029,106.01,105.03,9,468,128,184
"General Santos City (Dadiangas), South Cotabato, Philippines",6.14327,125.19286,PLDT,82908,87221,82.91,87.22,12,463,149,195
"Salvador Benedicto, Negros Occidental, Philippines",10.5887,123.23632,PLDT Home Fiber,107355,161452,107.36,161.45,8,457,180,257
"Lapu-Lapu, Cebu, Philippines",10.31838,123.96395,PLDT,123253,102573,123.25,102.57,3,456,168,221
"Talisay, Cebu, Philippines",10.25859,123.82413,Globe,227431,188832,227.43,188.83,9,454,172,224
"Angono, Rizal, Philippines",14.52592,121.15321,PLDT Home Fiber,170289,150725,170.29,150.73,4,446,106,155
"Trento, Agusan del Sur, Philippines",8.05257,126.21969,PLDT Home Fiber,85531,110927,85.53,110.93,18,445,123,168
"Lubao, Pampanga, Philippines",14.92678,120.58795,PLDT Home Fiber,176393,160440,176.39,160.44,8,443,143,224
"San Miguel, Bulacan, Philippines",15.14158,120.9751,PLDT Home Fiber,146741,133175,146.74,133.18,10,439,87,134
"Obando, Bulacan, Philippines",14.70986,120.93674,PLDT,94304,98390,94.30,98.39,5,438,151,255
"Mexico, Pampanga, Philippines",15.06457,120.72033,PLDT Home Fiber,92345,94190,92.35,94.19,9,438,133,201
"Cotabato City, Maguindanao, Philippines",7.20467,124.23104,PLDT,87874,85688,87.87,85.69,13,436,74,117
"Cagayan De Oro City, Misamis Oriental, Philippines",8.48029,124.64975,PLDT,61888,66964,61.89,66.96,19,434,138,189
"San Jose City, Nueva Ecija, Philippines",15.79188,120.99008,PLDT Home Fiber,78396,97231,78.40,97.23,15,433,79,104
"City of Guihulngan, Negros Oriental, Philippines",10.18323,123.21385,PLDT Home Fiber,83987,93660,83.99,93.66,7,432,143,200
"San Manuel, Pangasinan, Philippines",16.10561,120.67751,PLDT Home Fiber,93505,112771,93.51,112.77,8,432,113,176
"Dona Remedios Trinidad, Bulacan, Philippines",15.11427,121.21685,PLDT,45045,34109,45.05,34.11,12,431,97,162
"Navotas, Metro Manila, Philippines",14.65819,120.94743,PLDT,94828,94613,94.83,94.61,7,429,169,246
"Taytay, Rizal, Philippines",14.55288,121.12571,Globe,337719,305223,337.72,305.22,5,428,142,175
"Mandaue, Cebu, Philippines",10.3279,123.94273,Converge,187671,166354,187.67,166.35,2,424,137,224
"Batangas City, Batangas, Philippines",13.75641,121.05833,PLDT,98361,118421,98.36,118.42,7,422,169,237
"Talaingod, Davao del Norte, Philippines",7.68339,125.522,Globe,64475,56967,64.48,56.97,4,421,148,254
"Marilao, Bulacan, Philippines",14.77237,120.96001,PLDT,56574,57978,56.57,57.98,10,421,139,222
"Dumaguete City, Negros Oriental, Philippines",9.29841,123.29249,Globe,198144,148536,198.14,148.54,11,418,110,165
"Atok, Benguet, Philippines",16.59745,120.68901,PLDT Home Fiber,93971,94370,93.97,94.37,6,417,168,243
"San Nicolas, Batangas, Philippines",13.99452,120.99337,Globe,263956,239159,263.96,239.16,7,417,147,224
"Laurel, Batangas, Philippines",14.05302,120.9073,Globe,134062,109242,134.06,109.24,6,416,125,287
"Naga City, Camarines Sur, Philippines",13.6475,123.27003,Globe,118228,107183,118.23,107.18,12,415,123,159
"Calatrava, Negros Occidental, Philippines",10.62843,123.39349,PLDT Home Fiber,88986,93745,88.99,93.75,7,415,122,182
"Arayat, Pampanga, Philippines",15.15443,120.771,Globe,146986,124011,146.99,124.01,6,412,146,236
"Minglanilla, Cebu, Philippines",10.24543,123.79599,Globe,225579,161003,225.58,161.00,15,412,156,236
"Talisay, Cebu, Philippines",10.25859,123.82413,PLDT Home Fiber,142160,131441,142.16,131.44,3,407,111,147
"General Trias, Cavite, Philippines",14.38159,120.87915,PLDT,134876,145243,134.88,145.24,8,406,118,172
"Carmen, Cebu, Philippines",10.58876,123.96385,PLDT Home Fiber,94087,112559,94.09,112.56,5,404,150,227
"Legazpi City, Albay, Philippines",13.11288,123.76295,Converge,102096,100393,102.10,100.39,5,402,52,103
"Meycauayan, Bulacan, Philippines",14.73772,120.96077,Globe,216688,190521,216.69,190.52,8,397,152,191
"Mayoyao, Ifugao, Philippines",16.95131,121.21685,PLDT Home Fiber,112537,101944,112.54,101.94,9,396,137,210
"Malabon, Metro Manila, Philippines",14.65793,120.95118,Globe,254875,222407,254.88,222.41,5,395,135,173
"Plaridel, Bulacan, Philippines",14.88591,120.85932,PLDT Home Fiber,130545,148937,130.55,148.94,8,394,125,187
"Polomolok, South Cotabato, Philippines",6.22451,125.06084,PLDT Home Fiber,93746,93762,93.75,93.76,11,389,128,185
"Mabalacat City, Pampanga, Philippines",15.24525,120.56567,PLDT,60011,73933,60.01,73.93,17,389,99,141
"Madamba, Lanao del Sur, Philippines",7.86931,124.06971,PLDT Home Fiber,99357,100224,99.36,100.22,6,384,151,215
"Lucena City, Quezon, Philippines",13.94139,121.62345,Converge,121792,130470,121.79,130.47,9,383,128,188
"Tagum, Davao del Norte, Philippines",7.44742,125.80246,Globe,122891,123223,122.89,123.22,5,383,122,147
"Pozorrubio, Pangasinan, Philippines",16.11642,120.54316,PLDT,71704,80097,71.70,80.10,15,383,91,141
"La Carlota City, Negros Occidental, Philippines",10.41437,122.97757,PLDT Home Fiber,196708,215255,196.71,215.26,5,381,117,187
"Iligan City, Lanao del Norte, Philippines",8.22707,124.46418,Globe,124219,42293,124.22,42.29,14,378,126,167
"Tuguegarao City, Cagayan, Philippines",17.60306,121.75374,Converge,89789,88017,89.79,88.02,12,377,111,168
"Tagaytay City, Cavite, Philippines",14.11541,120.96202,PLDT,100437,139339,100.44,139.34,9,376,111,185
"Lucena City, Quezon, Philippines",13.94139,121.62345,PLDT,93472,101441,93.47,101.44,6,375,144,221
"Cabiao, Nueva Ecija, Philippines",15.25221,120.85957,Globe,211884,125884,211.88,125.88,5,374,105,206
"Angeles, Pampanga, Philippines",15.16061,120.60908,Globe,151825,123805,151.83,123.81,4,374,123,161
"Malolos, Bulacan, Philippines",14.86049,120.80916,Converge,116430,112829,116.43,112.83,6,374,105,142
"Navotas, Metro Manila, Philippines",14.65819,120.94743,Converge,203065,202520,203.07,202.52,4,371,115,167
"Capas, Tarlac, Philippines",15.34633,120.59344,Converge,106469,102738,106.47,102.74,4,369,142,209
"Pasay City, Metro Manila, Philippines",14.53767,121.00081,Globe,259503,247297,259.50,247.30,4,369,138,192
"Guiguinto, Bulacan, Philippines",14.82832,120.88429,PLDT,94233,94087,94.23,94.09,7,366,116,154
"Pagadian City, Zamboanga del Sur, Philippines",7.86265,123.37106,PLDT Home Fiber,94120,94143,94.12,94.14,6,366,97,147
"Tagum, Davao del Norte, Philippines",7.44742,125.80246,PLDT Home Fiber,112195,124253,112.20,124.25,8,366,117,154
"San Ildefonso, Bulacan, Philippines",15.07717,120.94171,Globe,217379,188404,217.38,188.40,6,362,108,190
"Capas, Tarlac, Philippines",15.34633,120.59344,PLDT,63091,74735,63.09,74.74,8,360,53,77
"Urdaneta City, Pangasinan, Philippines",15.98194,120.59698,PLDT,49729,87217,49.73,87.22,15,358,66,116
"Bulakan, Bulacan, Philippines",14.79484,120.87889,PLDT,93178,84077,93.18,84.08,7,355,124,184
"Talisay, Cebu, Philippines",10.25859,123.82413,PLDT,97652,102123,97.65,102.12,4,353,111,147
"Guagua, Pampanga, Philippines",14.96374,120.63244,Converge,47113,50613,47.11,50.61,5,352,98,179
"Sultan Kudarat (Nuling), Maguindanao, Philippines",7.26221,124.30883,PLDT Home Fiber,107711,102071,107.71,102.07,10,352,47,68
"Isabela, Basilan, Philippines",6.70387,121.9799,Globe,190080,182902,190.08,182.90,14,352,44,47
"Mexico, Pampanga, Philippines",15.06457,120.72033,PLDT,81399,93351,81.40,93.35,15,350,134,186
"City of Santa Rosa, Laguna, Philippines",14.31471,121.11232,Globe,158188,136626,158.19,136.63,7,350,141,187
"Consolacion, Cebu, Philippines",10.37581,123.95694,PLDT,94057,92287,94.06,92.29,5,347,92,124
"Calauan, Laguna, Philippines",14.14551,121.3146,PLDT Home Fiber,90927,107736,90.93,107.74,8,346,81,116
"Liloan, Cebu, Philippines",10.39926,124.00002,Globe,242509,209804,242.51,209.80,4,345,108,142
"San Ildefonso, Bulacan, Philippines",15.07717,120.94171,PLDT Home Fiber,90343,94281,90.34,94.28,8,345,109,149
"San Rafael, Bulacan, Philippines",15.00184,120.93141,Globe,206547,200808,206.55,200.81,7,343,83,152
"Legazpi City, Albay, Philippines",13.11288,123.76295,Globe,133235,106515,133.24,106.52,25,342,70,107
"Santa Rita, Pampanga, Philippines",14.99762,120.61451,PLDT Home Fiber,99715,94527,99.72,94.53,8,342,134,203
"Legazpi City, Albay, Philippines",13.11288,123.76295,PLDT,85337,54210,85.34,54.21,17,340,82,132
"Bulakan, Bulacan, Philippines",14.79484,120.87889,PLDT Home Fiber,97543,94517,97.54,94.52,6,340,95,135
"San Isidro, Nueva Ecija, Philippines",15.29656,120.9073,PLDT Home Fiber,72889,82438,72.89,82.44,11,339,108,155
"Ormoc City, Leyte, Philippines",11.03843,124.61927,Globe,125401,119073,125.40,119.07,14,337,101,135
"Santo Tomas, Batangas, Philippines",14.08754,121.17764,Globe,173463,115150,173.46,115.15,6,337,130,185
"Mandaue, Cebu, Philippines",10.3279,123.94273,PLDT,81320,79577,81.32,79.58,4,335,112,170
"San Luis, Batangas, Philippines",13.8406,120.95321,Globe,61202,53670,61.20,53.67,6,328,81,214
"Baler, Aurora, Philippines",15.73361,121.57125,PLDT,56094,67917,56.09,67.92,16,327,66,79
"City of Santa Rosa, Laguna, Philippines",14.31471,121.11232,Converge,133618,127589,133.62,127.59,6,327,67,114
"Guimba, Nueva Ecija, Philippines",15.65641,120.76767,PLDT,85670,94429,85.67,94.43,10,326,44,66
"Magalang, Pampanga, Philippines",15.21394,120.66181,PLDT,62436,74466,62.44,74.47,15,325,90,125
"Carmona, Cavite, Philippines",14.3135,121.05712,Globe,119534,118856,119.53,118.86,6,323,88,133
"Trece Martires City, Cavite, Philippines",14.28222,120.86837,PLDT Home Fiber,156039,147944,156.04,147.94,4,317,110,153
"Palayan City, Nueva Ecija, Philippines",15.53906,121.09083,Converge,96153,100320,96.15,100.32,6,317,96,154
"Cabuyao City, Laguna, Philippines",14.27433,121.11961,Converge,100161,87660,100.16,87.66,6,316,51,84
"Daraga, Albay, Philippines",13.12278,123.69588,Globe,135208,108269,135.21,108.27,28,316,68,78
"Kidapawan, Cotabato, Philippines",7.02127,125.09019,PLDT,111333,94248,111.33,94.25,9,316,123,175
"Dumaguete City, Negros Oriental, Philippines",9.29841,123.29249,PLDT,97310,132706,97.31,132.71,5,314,60,89
"San Mateo, Rizal, Philippines",14.69539,121.11767,Globe,192969,199793,192.97,199.79,4,314,80,104
"Pagadian City, Zamboanga del Sur, Philippines",7.86265,123.37106,Globe,94890,53375,94.89,53.38,7,314,82,103
"Mexico, Pampanga, Philippines",15.06457,120.72033,Globe,197073,193932,197.07,193.93,6,312,107,154
"Sarrat, Ilocos Norte, Philippines",18.11379,120.6545,Converge,97423,134354,97.42,134.35,11,310,111,161
"Obando, Bulacan, Philippines",14.70986,120.93674,PLDT Home Fiber,144174,152745,144.17,152.75,4,307,57,76
"Silang, Cavite, Philippines",14.22025,120.96469,Globe,145490,121924,145.49,121.92,6,307,109,159
"Sagay City, Negros Occidental, Philippines",10.84555,123.37106,PLDT Home Fiber,80650,66108,80.65,66.11,10,306,94,141
"Rodriguez, Rizal, Philippines",14.73202,121.14516,Globe,228898,197919,228.90,197.92,4,303,107,135
"Buguias, Benguet, Philippines",16.74318,120.82692,PLDT Home Fiber,99540,119719,99.54,119.72,6,303,110,155
"Santiago, Ilocos Sur, Philippines",17.28073,120.44729,Converge,99605,108841,99.61,108.84,8,302,74,117
"San Mateo, Rizal, Philippines",14.69539,121.11767,Converge,162785,169174,162.79,169.17,4,301,112,153
"Calapan City, Oriental Mindoro, Philippines",13.36643,121.19395,PLDT,68940,60990,68.94,60.99,12,300,132,165
"Santo Nino, Cagayan, Philippines",17.91267,121.49132,Converge,96852,98409,96.85,98.41,12,300,101,166
"San Mateo, Rizal, Philippines",14.69539,121.11767,PLDT,57912,57930,57.91,57.93,14,299,101,152
"Digos, Davao del Sur, Philippines",6.74347,125.35515,Globe,130347,121613,130.35,121.61,4,299,75,96
"Magsaysay, Davao del Sur, Philippines",6.75271,125.15221,PLDT Home Fiber,93234,94434,93.23,94.43,10,297,123,185
"Rodriguez, Rizal, Philippines",14.73202,121.14516,Converge,101014,113436,101.01,113.44,5,294,104,141
"Tacloban City, Leyte, Philippines",11.22238,124.99221,Globe,185220,180064,185.22,180.06,13,291,98,116
"City of Bayugan, Agusan del Sur, Philippines",8.71381,125.74865,Converge,31370,135565,31.37,135.57,72,289,26,30
"Alfonso, Cavite, Philippines",14.1214,120.86138,PLDT,142783,190991,142.78,190.99,8,289,93,156
"Mabalacat City, Pampanga, Philippines",15.24525,120.56567,PLDT Home Fiber,132455,99648,132.46,99.65,9,288,94,152
"Magallanes, Agusan Del Norte, Philippines",9.01943,125.53295,Converge,67880,138238,67.88,138.24,48,286,12,13
"Jaen, Nueva Ecija, Philippines",15.39558,120.87286,PLDT Home Fiber,91023,83643,91.02,83.64,12,286,77,131
"Tuburan, Cebu, Philippines",10.66879,123.86345,Globe,123798,104753,123.80,104.75,6,285,86,170
"Victorias, Negros Occidental, Philippines",10.901,123.07045,PLDT Home Fiber,123128,128520,123.13,128.52,12,285,67,97
"Apalit, Pampanga, Philippines",14.95255,120.76688,PLDT Home Fiber,138136,118470,138.14,118.47,7,284,65,87
"Tuguegarao City, Cagayan, Philippines",17.60306,121.75374,PLDT Home Fiber,71822,75319,71.82,75.32,13,283,71,88
"Quezon, Nueva Ecija, Philippines",15.56953,120.82692,Globe,193242,164046,193.24,164.05,5,283,71,128
"Indang, Cavite, Philippines",14.19204,120.87286,PLDT,156908,143691,156.91,143.69,8,279,95,140
"Biñan, Laguna, Philippines",14.31456,121.08316,Converge,211995,195208,212.00,195.21,6,278,83,136
"Santa Rosa, Nueva Ecija, Philippines",15.42502,120.93838,PLDT Home Fiber,70751,94058,70.75,94.06,13,278,80,105
"Lubao, Pampanga, Philippines",14.92678,120.58795,PLDT,52261,54121,52.26,54.12,11,278,102,135
"Dipolog City, Zamboanga del Norte, Philippines",8.58717,123.34035,PLDT Home Fiber,77522,53828,77.52,53.83,11,275,63,95
"Villasis, Pangasinan, Philippines",15.90523,120.55094,PLDT Home Fiber,72708,108349,72.71,108.35,11,275,80,121
"Bocaue, Bulacan, Philippines",14.7943,120.93073,PLDT,93050,93251,93.05,93.25,9,275,95,133
"Tacloban City, Leyte, Philippines",11.22238,124.99221,PLDT,94300,87197,94.30,87.20,17,275,88,132
"Naic, Cavite, Philippines",14.29649,120.79246,PLDT Home Fiber,102502,107091,102.50,107.09,7,275,76,101
"San Leonardo, Nueva Ecija, Philippines",15.37285,120.95321,PLDT Home Fiber,50355,88260,50.36,88.26,14,274,54,82
"Matalam, Cotabato, Philippines",7.17236,124.92861,PLDT Home Fiber,170032,148595,170.03,148.60,9,274,107,145
"Lingayen, Pangasinan, Philippines",16.00973,120.22449,PLDT Home Fiber,80847,114225,80.85,114.23,15,274,66,86
"Sindangan, Zamboanga del Norte, Philippines",8.19151,123.05639,PLDT Home Fiber,33886,37239,33.89,37.24,12,272,41,52
"Cabuyao City, Laguna, Philippines",14.27433,121.11961,Globe,228381,215644,228.38,215.64,6,272,78,133
"Tanza, Cavite, Philippines",14.34293,120.85032,Globe,119063,108107,119.06,108.11,7,272,113,140
"Ibaan, Batangas, Philippines",13.81895,121.13082,Globe,148655,106952,148.66,106.95,6,271,96,157
"Rosario, Cavite, Philippines",14.41672,120.85471,PLDT,94057,92757,94.06,92.76,8,271,72,116
"Tuguegarao City, Cagayan, Philippines",17.60306,121.75374,Globe,120972,109120,120.97,109.12,10,269,49,66
"Naga City, Camarines Sur, Philippines",13.6475,123.27003,PLDT,67389,67211,67.39,67.21,13,269,77,112
"Rosario, Batangas, Philippines",13.80433,121.28552,PLDT Home Fiber,84351,92890,84.35,92.89,7,268,82,110
"Santa Cruz, Davao del Sur, Philippines",6.83551,125.41659,PLDT Home Fiber,96793,56254,96.79,56.25,9,268,79,114
"Virac, Catanduanes, Philippines",13.61939,124.17544,PLDT Home Fiber,49656,56735,49.66,56.74,11,265,49,83
"Naic, Cavite, Philippines",14.29649,120.79246,PLDT,79427,89650,79.43,89.65,10,265,91,120
"Calumpit, Bulacan, Philippines",14.91518,120.7662,PLDT Home Fiber,137887,146008,137.89,146.01,9,264,81,112
"Plaridel, Bulacan, Philippines",14.88591,120.85932,PLDT,107389,94577,107.39,94.58,6,263,81,119
"Surigao, Surigao del Norte, Philippines",9.79022,125.49311,PLDT Home Fiber,52587,68578,52.59,68.58,11,263,67,89
"Zaragoza, Nueva Ecija, Philippines",15.46003,120.79246,PLDT Home Fiber,94499,109826,94.50,109.83,10,263,72,110
"Bauan, Batangas, Philippines",13.79627,120.97616,Globe,62181,53801,62.18,53.80,6,262,92,155
"Roxas City, Capiz, Philippines",11.55288,122.74072,PLDT Home Fiber,89290,104318,89.29,104.32,9,260,72,97
"San Juan, Batangas, Philippines",13.75044,121.37703,PLDT Home Fiber,94524,92976,94.52,92.98,9,260,80,119
"Pagadian City, Zamboanga del Sur, Philippines",7.86265,123.37106,PLDT,58420,54750,58.42,54.75,20,260,82,113
"Manaoag, Pangasinan, Philippines",16.04627,120.4876,PLDT Home Fiber,54301,87192,54.30,87.19,15,259,55,79
"Roxas City, Capiz, Philippines",11.55288,122.74072,Globe,117334,110893,117.33,110.89,12,259,77,96
"Carcar, Cebu, Philippines",10.10478,123.64147,PLDT Home Fiber,136023,165936,136.02,165.94,5,259,34,48
"Concepcion, Tarlac, Philippines",15.324,120.65596,Converge,74677,78855,74.68,78.86,5,258,93,134
"Tanauan City, Batangas, Philippines",14.08354,121.14762,Globe,274066,248637,274.07,248.64,7,257,103,143
"Muñoz, Nueva Ecija, Philippines",15.70664,120.9029,PLDT Home Fiber,49969,68081,49.97,68.08,14,257,55,76
"Cuyapo, Nueva Ecija, Philippines",15.79995,120.68901,PLDT Home Fiber,56995,133648,57.00,133.65,14,257,58,95
"Kapangan, Benguet, Philippines",16.61238,120.59698,PLDT Home Fiber,89947,94823,89.95,94.82,6,256,71,112
"Tuburan, Cebu, Philippines",10.66879,123.86345,PLDT Home Fiber,81711,94027,81.71,94.03,5,256,77,113
"Bayombong, Nueva Vizcaya, Philippines",16.48042,121.14813,Converge,98153,95375,98.15,95.38,12,254,78,122
"Meycauayan, Bulacan, Philippines",14.73772,120.96077,Converge,184598,173898,184.60,173.90,7,253,79,123
"Porac, Pampanga, Philippines",15.06974,120.55007,PLDT Home Fiber,93406,111143,93.41,111.14,9,253,69,108
"Dumanjug, Cebu, Philippines",10.02819,123.47198,PLDT Home Fiber,140103,193707,140.10,193.71,7,253,84,132
"Gapan City, Nueva Ecija, Philippines",15.29121,121.01057,PLDT Home Fiber,112153,104649,112.15,104.65,12,252,65,114
"San Jose City, Nueva Ecija, Philippines",15.79188,120.99008,Converge,163051,152125,163.05,152.13,5,252,83,118
"Malvar, Batangas, Philippines",14.04329,121.15875,PLDT Home Fiber,81671,129775,81.67,129.78,10,252,61,92
"Plaridel, Bulacan, Philippines",14.88591,120.85932,Converge,74641,72573,74.64,72.57,7,251,73,99
"Rosario, Batangas, Philippines",13.80433,121.28552,Converge,93423,147447,93.42,147.45,14,250,32,50
"Borbon, Cebu, Philippines",10.84627,123.9973,Globe,172682,156317,172.68,156.32,20,250,81,145
"Jaen, Nueva Ecija, Philippines",15.39558,120.87286,PLDT,57342,54046,57.34,54.05,17,248,58,94
"Pandi, Bulacan, Philippines",14.87572,120.95941,Globe,148436,110149,148.44,110.15,8,246,66,83
"Calabanga, Camarines Sur, Philippines",13.71633,123.28126,PLDT Home Fiber,91283,91631,91.28,91.63,9,245,46,52
"Liloan, Cebu, Philippines",10.39926,124.00002,PLDT,136400,229454,136.40,229.45,3,243,43,57
"San Andres, Catanduanes, Philippines",13.6332,124.08641,PLDT,64441,69231,64.44,69.23,10,243,22,31
"Talisay, Batangas, Philippines",14.11598,121.04498,PLDT,166074,140070,166.07,140.07,6,242,81,117
"Candaba, Pampanga, Philippines",15.09289,120.8277,Converge,135459,143261,135.46,143.26,5,242,70,103
"Santo Tomas, Davao del Norte, Philippines",7.50929,125.63142,PLDT Home Fiber,70646,51574,70.65,51.57,9,241,37,48
"Alaminos City, Pangasinan, Philippines",16.15053,119.98562,PLDT Home Fiber,57815,92009,57.82,92.01,10,240,58,81
"Puerto Princesa City, Palawan, Philippines",9.78563,118.62648,PLDT Home Fiber,89217,86240,89.22,86.24,19,240,73,119
"San Manuel, Pangasinan, Philippines",16.10561,120.67751,PLDT,106913,95812,106.91,95.81,8,237,78,115
"Baungon, Bukidnon, Philippines",8.21754,124.75198,PLDT Home Fiber,94167,94555,94.17,94.56,8,237,66,112
"Dumaguete City, Negros Oriental, Philippines",9.29841,123.29249,PLDT Home Fiber,105981,176681,105.98,176.68,5,237,52,79
"Calatrava, Negros Occidental, Philippines",10.62843,123.39349,PLDT,96567,169306,96.57,169.31,7,236,75,118
"Castillejos, Zambales, Philippines",14.94382,120.19357,Converge,114165,125994,114.17,125.99,5,236,65,114
"Cadiz City, Negros Occidental, Philippines",10.86192,123.23632,PLDT,61223,54030,61.22,54.03,15,235,72,125
"Ozamiz, Misamis Occidental, Philippines",8.15,123.85033,PLDT Home Fiber,85565,94045,85.57,94.05,6,234,40,52
"Santa Fe, Nueva Vizcaya, Philippines",16.18249,120.91878,PLDT Home Fiber,100197,94178,100.20,94.18,6,234,66,101
"City of Mati, Davao Oriental, Philippines",6.95722,126.15454,Globe,108385,97083,108.39,97.08,13,233,49,64
"Pulilan, Bulacan, Philippines",14.90243,120.8459,PLDT Home Fiber,116501,105435,116.50,105.44,5,232,91,128
"Guagua, Pampanga, Philippines",14.96374,120.63244,PLDT,59899,114932,59.90,114.93,22,231,48,55
"Alicia, Isabela, Philippines",16.80691,121.69674,PLDT,53710,65986,53.71,65.99,17,231,70,90
"Santo Domingo, Nueva Ecija, Philippines",15.61284,120.88434,PLDT Home Fiber,101219,96078,101.22,96.08,14,231,37,52
"San Ildefonso, Bulacan, Philippines",15.07717,120.94171,PLDT,70505,55173,70.51,55.17,9,230,53,68
"Lubao, Pampanga, Philippines",14.92678,120.58795,Converge,94259,94072,94.26,94.07,4,229,60,87
"Bayambang, Pangasinan, Philippines",15.80947,120.45714,PLDT Home Fiber,70321,88718,70.32,88.72,15,229,40,62
"Dasmariñas, Cavite, Philippines",14.33385,120.95423,Converge,134481,116741,134.48,116.74,5,229,76,131
"Orani, Bataan, Philippines",14.80086,120.53616,PLDT,52963,55253,52.96,55.25,19,229,68,105
"City of Batac, Ilocos Norte, Philippines",18.04961,120.59698,Converge,179936,185942,179.94,185.94,10,227,57,101
"Porac, Pampanga, Philippines",15.06974,120.55007,Converge,162649,138647,162.65,138.65,3,227,86,122
"Zamboanga City, Zamboanga del Sur, Philippines",6.90437,122.07612,Converge,93821,79524,93.82,79.52,21,227,65,85
"Puerto Princesa City, Palawan, Philippines",9.78563,118.62648,Globe,115503,103511,115.50,103.51,22,226,70,103
"Tagbilaran City, Bohol, Philippines",9.6534,123.86703,PLDT Home Fiber,95579,152010,95.58,152.01,8,226,65,102
"Meycauayan, Bulacan, Philippines",14.73772,120.96077,PLDT,86198,92666,86.20,92.67,7,225,71,114
"Baliwag, Bulacan, Philippines",14.96569,120.89431,PLDT,91024,88938,91.02,88.94,8,225,56,75
"Palayan City, Nueva Ecija, Philippines",15.53906,121.09083,PLDT,202754,174364,202.75,174.36,13,224,56,69
"Magalang, Pampanga, Philippines",15.21394,120.66181,PLDT Home Fiber,82514,92823,82.51,92.82,12,224,81,123
"Cotabato City, Maguindanao, Philippines",7.20467,124.23104,PLDT Home Fiber,108339,120289,108.34,120.29,11,224,68,96
"Polomolok, South Cotabato, Philippines",6.22451,125.06084,Converge,189288,188381,189.29,188.38,5,224,46,54
"Guagua, Pampanga, Philippines",14.96374,120.63244,PLDT Home Fiber,110181,115379,110.18,115.38,8,223,77,114
"San Fernando, Pampanga, Philippines",15.02781,120.69349,Globe,119325,104409,119.33,104.41,5,223,83,114
"Tayug, Pangasinan, Philippines",16.01085,120.74649,PLDT Home Fiber,54539,89073,54.54,89.07,13,222,44,72
"Umingan, Pangasinan, Philippines",15.90396,120.82692,Globe,104342,100809,104.34,100.81,9,222,65,117
"La Paz, Tarlac, Philippines",15.4497,120.7235,PLDT Home Fiber,81220,90332,81.22,90.33,12,222,71,103
"San Fernando, Cebu, Philippines",10.16316,123.70738,Globe,275359,238299,275.36,238.30,16,221,70,110
"Carmona, Cavite, Philippines",14.3135,121.05712,Converge,175906,188033,175.91,188.03,6,221,56,88
"Malolos, Bulacan, Philippines",14.86049,120.80916,Globe,196149,190640,196.15,190.64,7,221,79,101
"Baliwag, Bulacan, Philippines",14.96569,120.89431,Converge,132782,130710,132.78,130.71,7,220,53,64
"Arayat, Pampanga, Philippines",15.15443,120.771,Converge,170266,152489,170.27,152.49,3,220,84,117
"Iligan City, Lanao del Norte, Philippines",8.22707,124.46418,PLDT,84357,90911,84.36,90.91,21,214,95,126
"Liliw, Laguna, Philippines",14.12617,121.4399,PLDT Home Fiber,142169,173642,142.17,173.64,7,214,75,102
"Paete, Laguna, Philippines",14.37243,121.54842,Converge,95337,94007,95.34,94.01,10,213,68,108
"Guiguinto, Bulacan, Philippines",14.82832,120.88429,PLDT Home Fiber,157170,116293,157.17,116.29,9,213,78,127
"Padre Garcia, Batangas, Philippines",13.87668,121.24547,Globe,60671,53693,60.67,53.69,6,213,58,159
"Carranglan, Nueva Ecija, Philippines",15.97584,121.03351,PLDT Home Fiber,88821,90699,88.82,90.70,11,213,55,88
"San Pablo City, Laguna, Philippines",14.06422,121.32326,PLDT,77721,78488,77.72,78.49,6,213,69,109
"Muñoz, Nueva Ecija, Philippines",15.70664,120.9029,Converge,94172,97604,94.17,97.60,6,210,56,86
"Rodriguez, Rizal, Philippines",14.73202,121.14516,PLDT,53577,84478,53.58,84.48,8,209,69,91
"Tacurong City, Sultan Kudarat, Philippines",6.6866,124.66353,PLDT Home Fiber,77229,57249,77.23,57.25,12,209,54,73
"Binangonan, Rizal, Philippines",14.48441,121.1869,Globe,189311,180841,189.31,180.84,4,209,73,97
"San Luis, Pampanga, Philippines",15.03986,120.81544,PLDT Home Fiber,94400,97318,94.40,97.32,8,207,75,134
"Arakan, Cotabato, Philippines",7.35122,125.17087,Globe,319451,305597,319.45,305.60,4,207,110,145
"Cadiz City, Negros Occidental, Philippines",10.86192,123.23632,Globe,243945,220013,243.95,220.01,10,207,80,140
"Pavia, Iloilo, Philippines",10.7748,122.54261,Globe,245981,218333,245.98,218.33,4,207,66,89
"Apalit, Pampanga, Philippines",14.95255,120.76688,PLDT,23649,32315,23.65,32.32,15,206,49,61
"Taysan, Batangas, Philippines",13.76108,121.2283,Globe,121956,107507,121.96,107.51,7,205,44,62
"Salvador Benedicto, Negros Occidental, Philippines",10.5887,123.23632,Globe,141890,130864,141.89,130.86,15,205,62,125
"Pililla, Rizal, Philippines",14.44393,121.34273,PLDT,94437,94613,94.44,94.61,4,205,57,96
"Urdaneta City, Pangasinan, Philippines",15.98194,120.59698,PLDT Home Fiber,85347,181440,85.35,181.44,10,205,48,76
"Tuba, Benguet, Philippines",16.39277,120.56034,PLDT Home Fiber,82381,85041,82.38,85.04,6,204,58,90
"Tagbilaran City, Bohol, Philippines",9.6534,123.86703,Globe,176521,157760,176.52,157.76,16,202,60,79
"Oton, Iloilo, Philippines",10.69251,122.47868,PLDT Home Fiber,78727,79500,78.73,79.50,8,201,39,51
"City of Cabadbaran, Agusan Del Norte, Philippines",9.14092,125.697,PLDT Home Fiber,73373,53483,73.37,53.48,11,201,27,36
"Pavia, Iloilo, Philippines",10.7748,122.54261,PLDT,50855,57337,50.86,57.34,19,201,54,80
"Guimba, Nueva Ecija, Philippines",15.65641,120.76767,PLDT Home Fiber,52829,57010,52.83,57.01,15,201,37,52
"Bakun, Benguet, Philippines",16.80796,120.68901,PLDT Home Fiber,160678,98088,160.68,98.09,6,200,83,112
"City of Borongan, Eastern Samar, Philippines",11.61739,125.34663,Globe,127901,115798,127.90,115.80,23,200,60,79
"Talavera, Nueva Ecija, Philippines",15.58575,120.9197,PLDT Home Fiber,79263,89699,79.26,89.70,13,200,41,64
"Kalayaan, Laguna, Philippines",14.32356,121.47757,Globe,97556,92648,97.56,92.65,7,200,70,113
"Daraga, Albay, Philippines",13.12278,123.69588,Converge,182012,157222,182.01,157.22,16,200,39,63
"Trece Martires City, Cavite, Philippines",14.28222,120.86837,Globe,202033,176590,202.03,176.59,6,199,81,99
"Alilem, Ilocos Sur, Philippines",16.9074,120.59698,PLDT Home Fiber,156127,150410,156.13,150.41,6,199,35,46
"Hagonoy, Bulacan, Philippines",14.83564,120.73371,PLDT,102359,125200,102.36,125.20,11,199,64,88
"Tagbilaran City, Bohol, Philippines",9.6534,123.86703,Converge,67978,99628,67.98,99.63,30,198,63,86
"Binangonan, Rizal, Philippines",14.48441,121.1869,Converge,123026,139445,123.03,139.45,3,197,72,88
"Danao, Cebu, Philippines",10.52013,124.02712,PLDT,39713,42312,39.71,42.31,7,197,56,84
"Talisay, Negros Occidental, Philippines",10.74828,122.98012,PLDT,78083,60328,78.08,60.33,21,196,60,95
"San Luis, Pampanga, Philippines",15.03986,120.81544,Globe,184863,235669,184.86,235.67,6,196,70,107
"Laoag City, Ilocos Norte, Philippines",18.21075,120.58547,PLDT Home Fiber,104530,107741,104.53,107.74,8,195,66,92
"Baliwag, Bulacan, Philippines",14.96569,120.89431,Globe,206923,178730,206.92,178.73,8,195,75,91
"Pili, Camarines Sur, Philippines",13.55521,123.28126,PLDT,48111,30985,48.11,30.99,15,195,37,50
"Pantukan, Davao de Oro, Philippines",7.20012,126.04584,PLDT Home Fiber,62445,42144,62.45,42.14,12,194,29,40
"San Francisco, Agusan del Sur, Philippines",8.44573,125.95878,Converge,97209,93829,97.21,93.83,6,194,37,46
"Umingan, Pangasinan, Philippines",15.90396,120.82692,PLDT Home Fiber,81273,131253,81.27,131.25,13,193,57,79
"Norzagaray, Bulacan, Philippines",14.89659,121.14813,Converge,107665,104965,107.67,104.97,7,193,38,52
"Tagum, Davao del Norte, Philippines",7.44742,125.80246,PLDT,128946,127192,128.95,127.19,9,193,46,67
"Kabacan, Cotabato, Philippines",7.10719,124.84034,PLDT Home Fiber,98476,95108,98.48,95.11,12,193,33,45
"Nagcarlan, Laguna, Philippines",14.14903,121.38847,PLDT,67240,71409,67.24,71.41,16,193,68,82
"Dolores, Quezon, Philippines",14.00193,121.41133,PLDT Home Fiber,180055,181206,180.06,181.21,6,193,65,94
"Gerona, Tarlac, Philippines",15.60489,120.59698,PLDT Home Fiber,72631,116613,72.63,116.61,10,190,50,74
"Echague, Isabela, Philippines",16.66606,121.78792,PLDT Home Fiber,35720,68428,35.72,68.43,103,190,51,67
"Banayoyo, Ilocos Sur, Philippines",17.23507,120.49912,Converge,91848,94493,91.85,94.49,9,190,61,92
"Puerto Princesa City, Palawan, Philippines",9.78563,118.62648,Converge,107586,98669,107.59,98.67,15,189,42,67
"Mabalacat City, Pampanga, Philippines",15.24525,120.56567,Globe,121176,139575,121.18,139.58,4,189,71,86
"Burauen, Leyte, Philippines",10.97109,124.84034,PLDT,93413,93811,93.41,93.81,27,189,86,103
"Catarman, Northern Samar, Philippines",12.44271,124.61927,PLDT Home Fiber,167695,161207,167.70,161.21,18,189,42,62
"Mambajao, Camiguin, Philippines",9.22153,124.71882,PLDT Home Fiber,37900,51936,37.90,51.94,9,189,45,63
"City Of Bislig, Surigao del Sur, Philippines",8.21006,126.28478,PLDT Home Fiber,102973,126982,102.97,126.98,10,188,34,40
"Bayawan City, Negros Oriental, Philippines",9.53644,122.7633,PLDT,76256,94154,76.26,94.15,18,188,37,46
"San Ildefonso, Bulacan, Philippines",15.07717,120.94171,Converge,115763,100653,115.76,100.65,7,185,26,37
"Enrique B. Magalona, Negros Occidental, Philippines",10.87695,122.98281,PLDT Home Fiber,96296,127433,96.30,127.43,10,185,35,49
"Lobo, Batangas, Philippines",13.6877,121.23974,Globe,243293,211039,243.29,211.04,9,184,67,113
"Polomolok, South Cotabato, Philippines",6.22451,125.06084,Globe,115693,123776,115.69,123.78,12,184,53,70
"Candelaria, Quezon, Philippines",13.94899,121.42276,PLDT,79121,91220,79.12,91.22,12,183,52,62
"Tanjay City, Negros Oriental, Philippines",9.49579,122.9663,Globe,118767,105152,118.77,105.15,14,183,26,34
"Iriga City, Camarines Sur, Philippines",13.42095,123.41361,PLDT,102809,101029,102.81,101.03,12,182,35,49
"Santa Catalina, Negros Oriental, Philippines",9.28676,122.94377,PLDT Home Fiber,36479,40919,36.48,40.92,15,182,1,5
"San Leonardo, Nueva Ecija, Philippines",15.37285,120.95321,PLDT,64041,93933,64.04,93.93,13,182,71,92
"Bago, Negros Occidental, Philippines",10.53757,122.83609,PLDT,57050,61714,57.05,61.71,8,181,56,81
"Nasugbu, Batangas, Philippines",14.09404,120.68901,PLDT Home Fiber,94176,124760,94.18,124.76,7,181,49,67
"San Fabian, Pangasinan, Philippines",16.14188,120.44729,PLDT Home Fiber,87533,96552,87.53,96.55,6,181,17,22
"Sagay City, Negros Occidental, Philippines",10.84555,123.37106,PLDT,61837,58599,61.84,58.60,17,181,49,73
"Balanga City, Bataan, Philippines",14.67454,120.47033,PLDT Home Fiber,182812,181411,182.81,181.41,7,180,52,79
"Monkayo, Davao de Oro, Philippines",7.82426,126.0537,Converge,182715,162265,182.72,162.27,5,180,27,31
"City of Cabadbaran, Agusan Del Norte, Philippines",9.14092,125.697,Converge,34300,210936,34.30,210.94,61,179,22,29
"Antipas, Cotabato, Philippines",7.27386,125.01679,PLDT Home Fiber,93148,94639,93.15,94.64,9,179,31,46
"Cordon, Isabela, Philippines",16.67835,121.46847,PLDT Home Fiber,43966,42209,43.97,42.21,20,179,47,72
"Maddela, Quirino, Philippines",16.33255,121.78792,PLDT Home Fiber,17457,32650,17.46,32.65,20,178,8,12
"Puerto Princesa City, Palawan, Philippines",9.78563,118.62648,PLDT,108097,128138,108.10,128.14,19,178,65,94
"Tiaong, Quezon, Philippines",13.92962,121.34273,PLDT,81344,66641,81.34,66.64,18,178,20,25
"Catarman, Northern Samar, Philippines",12.44271,124.61927,Globe,85306,103157,85.31,103.16,14,178,42,55
"Argao, Cebu, Philippines",9.88114,123.60535,PLDT,54672,135143,54.67,135.14,19,178,38,46
"Malasiqui, Pangasinan, Philippines",15.92028,120.41443,PLDT,54707,179253,54.71,179.25,9,177,35,45
"Barotac Viejo, Iloilo, Philippines",11.10187,122.87613,PLDT,37031,47899,37.03,47.90,16,177,20,31
"Makilala, Cotabato, Philippines",6.92343,125.08286,Converge,164783,141497,164.78,141.50,4,175,38,51
"Panabo City, Davao del Norte, Philippines",7.30822,125.68662,PLDT,95861,74389,95.86,74.39,8,174,43,64
"Maguing, Lanao del Sur, Philippines",7.90533,124.53068,PLDT Home Fiber,88717,91224,88.72,91.22,6,174,57,82
"Kalibo, Aklan, Philippines",11.70734,122.36986,Converge,83870,76791,83.87,76.79,14,174,54,80
"Pinamalayan, Oriental Mindoro, Philippines",13.01533,121.37703,PLDT Home Fiber,49168,55157,49.17,55.16,7,174,26,36
"Dalaguete, Cebu, Philippines",9.78366,123.5056,PLDT Home Fiber,90355,140907,90.36,140.91,22,174,21,28
"Balanga City, Bataan, Philippines",14.67454,120.47033,Converge,127234,129572,127.23,129.57,4,173,53,75
"Escalante City, Negros Occidental, Philippines",10.84117,123.49908,PLDT Home Fiber,54718,54820,54.72,54.82,11,173,49,75
"San Fernando City, La Union, Philippines",16.61592,120.32102,PLDT Home Fiber,175589,174438,175.59,174.44,3,172,55,78
"Daet, Camarines Norte, Philippines",14.10303,122.9325,Converge,95140,110069,95.14,110.07,5,171,42,65
"Sibalom, Antique, Philippines",10.76502,122.06102,PLDT Home Fiber,59487,45785,59.49,45.79,17,171,10,18
"Valencia City, Bukidnon, Philippines",7.86319,125.17087,Converge,100053,92404,100.05,92.40,25,170,48,60
"Talugtug, Nueva Ecija, Philippines",15.7698,120.81544,PLDT Home Fiber,93133,121347,93.13,121.35,13,170,38,60
"Panabo City, Davao del Norte, Philippines",7.30822,125.68662,PLDT Home Fiber,91790,108837,91.79,108.84,9,170,51,67
"Bocaue, Bulacan, Philippines",14.7943,120.93073,Converge,142356,180587,142.36,180.59,7,170,39,65
"Toledo, Cebu, Philippines",10.38705,123.65017,PLDT,38166,31343,38.17,31.34,7,170,43,58
"Balayan, Batangas, Philippines",13.94995,120.72973,Converge,77998,78675,78.00,78.68,7,169,17,32
"Alaminos, Laguna, Philippines",14.0454,121.25119,PLDT Home Fiber,190639,173633,190.64,173.63,7,169,24,38
"Pagbilao, Quezon, Philippines",13.99683,121.73095,PLDT Home Fiber,122999,183555,123.00,183.56,6,169,55,80
"Binmaley, Pangasinan, Philippines",16.02892,120.26882,PLDT Home Fiber,82422,93315,82.42,93.32,14,169,39,61
"Ilagan City, Isabela, Philippines",17.12845,122.12918,PLDT,34705,46008,34.71,46.01,15,167,15,20
"San Jose, Batangas, Philippines",13.87868,121.09942,PLDT Home Fiber,153223,132944,153.22,132.94,6,166,33,55
"Consolacion, Cebu, Philippines",10.37581,123.95694,Converge,142505,201525,142.51,201.53,3,166,54,81
"Panabo City, Davao del Norte, Philippines",7.30822,125.68662,Globe,126576,138729,126.58,138.73,9,166,48,61
"San Manuel, Tarlac, Philippines",15.82906,120.60273,PLDT Home Fiber,107155,170201,107.16,170.20,12,165,60,95
"San Francisco, Agusan del Sur, Philippines",8.44573,125.95878,PLDT Home Fiber,54991,50247,54.99,50.25,5,165,27,36
"Toboso, Negros Occidental, Philippines",10.71769,123.46077,PLDT Home Fiber,62790,57598,62.79,57.60,8,165,42,65
"San Miguel, Bulacan, Philippines",15.14158,120.9751,Globe,241746,154654,241.75,154.65,6,165,59,99
"Maco, Davao de Oro, Philippines",7.40845,125.937,Globe,312004,266044,312.00,266.04,10,165,69,92
"Olongapo City, Zambales, Philippines",14.88739,120.36661,PLDT Home Fiber,149451,96579,149.45,96.58,8,164,55,69
"Balagtas, Bulacan, Philippines",14.81784,120.90646,Globe,130511,105644,130.51,105.64,8,164,41,48
"Santa Ana, Pampanga, Philippines",15.09442,120.76623,PLDT Home Fiber,98060,99986,98.06,99.99,9,164,51,73
"Liloan, Cebu, Philippines",10.39926,124.00002,Converge,103258,114570,103.26,114.57,3,164,54,69
"Badian, Cebu, Philippines",9.83209,123.41593,PLDT Home Fiber,121573,219219,121.57,219.22,17,163,20,32
"Baras, Rizal, Philippines",14.53656,121.27408,PLDT Home Fiber,94566,94382,94.57,94.38,4,163,40,68
"Gandara, Samar, Philippines",12.06444,124.79617,PLDT Home Fiber,19597,18089,19.60,18.09,15,162,11,15
"Guimba, Nueva Ecija, Philippines",15.65641,120.76767,Converge,189717,227729,189.72,227.73,5,162,32,46
"Valencia City, Bukidnon, Philippines",7.86319,125.17087,PLDT Home Fiber,92265,94003,92.27,94.00,7,162,63,90
"Passi City, Iloilo, Philippines",11.1688,122.65035,PLDT,47962,48201,47.96,48.20,23,162,68,93
"Norzagaray, Bulacan, Philippines",14.89659,121.14813,PLDT Home Fiber,147030,109864,147.03,109.86,6,162,28,37
"Batangas City, Batangas, Philippines",13.75641,121.05833,Converge,105688,169243,105.69,169.24,7,161,47,74
"Leganes, Iloilo, Philippines",10.78605,122.5888,PLDT Home Fiber,118021,122915,118.02,122.92,7,160,9,11
"Hinigaran, Negros Occidental, Philippines",10.27479,122.92123,PLDT Home Fiber,78013,86974,78.01,86.97,15,159,26,33
"Gapan City, Nueva Ecija, Philippines",15.29121,121.01057,Globe,218141,152098,218.14,152.10,4,159,49,89
"Cotabato City, Maguindanao, Philippines",7.20467,124.23104,Globe,118480,48893,118.48,48.89,11,158,45,60
"Penablanca, Cagayan, Philippines",17.66268,121.94731,PLDT,55163,73682,55.16,73.68,13,158,64,81
"Urdaneta City, Pangasinan, Philippines",15.98194,120.59698,Globe,115934,102406,115.93,102.41,4,158,28,37
"Pateros, Metro Manila, Philippines",14.54838,121.07077,Globe,238148,170082,238.15,170.08,5,157,43,56
"Dipolog City, Zamboanga del Norte, Philippines",8.58717,123.34035,Globe,119648,42675,119.65,42.68,11,157,39,51
"Carcar, Cebu, Philippines",10.10478,123.64147,Globe,255210,157406,255.21,157.41,8,156,38,52
"Oton, Iloilo, Philippines",10.69251,122.47868,Globe,175860,152229,175.86,152.23,8,156,51,62
"Minglanilla, Cebu, Philippines",10.24543,123.79599,PLDT,100488,93481,100.49,93.48,3,156,53,72
"Santa Fe, Cebu, Philippines",11.16913,123.79088,Globe,118667,118222,118.67,118.22,8,155,14,22
"Calasiao, Pangasinan, Philippines",16.00949,120.35759,PLDT Home Fiber,18940,97740,18.94,97.74,20,154,34,43
"Tanza, Cavite, Philippines",14.34293,120.85032,PLDT,91035,91628,91.04,91.63,8,154,39,56
"San Rafael, Iloilo, Philippines",11.17902,122.82752,PLDT,47625,42802,47.63,42.80,25,154,35,40
"Compostela, Cebu, Philippines",10.45408,124.013,PLDT Home Fiber,93752,178339,93.75,178.34,4,154,57,92
"Daraga, Albay, Philippines",13.12278,123.69588,PLDT,78020,63836,78.02,63.84,17,154,54,71
"Kabankalan City, Negros Occidental, Philippines",9.91341,122.85358,PLDT,45111,41289,45.11,41.29,8,153,41,53
"San Pascual, Batangas, Philippines",13.81044,121.02204,Globe,280433,207934,280.43,207.93,5,152,44,47
"City of Catbalogan, Samar, Philippines",11.85683,124.88449,Globe,92319,92126,92.32,92.13,13,151,56,75
"Cavite, Philippines",14.48151,120.90833,PLDT Home Fiber,85412,132593,85.41,132.59,7,151,47,68
"Bustos, Bulacan, Philippines",14.95239,120.91735,PLDT,65961,83163,65.96,83.16,11,151,55,74
"Tanauan City, Batangas, Philippines",14.08354,121.14762,Converge,177997,184793,178.00,184.79,7,151,40,67
"Paniqui, Tarlac, Philippines",15.66603,120.53942,PLDT Home Fiber,137414,107241,137.41,107.24,11,151,42,66
"Alcala, Pangasinan, Philippines",15.8546,120.53942,PLDT Home Fiber,100492,168389,100.49,168.39,13,151,32,55
"Bay, Laguna, Philippines",14.14064,121.26836,PLDT Home Fiber,192357,230870,192.36,230.87,6,151,44,58
"Calasiao, Pangasinan, Philippines",16.00949,120.35759,PLDT,93893,102201,93.89,102.20,11,151,30,43
"Bugallon, Pangasinan, Philippines",15.92022,120.18202,PLDT Home Fiber,60477,113537,60.48,113.54,9,150,26,33
"Santo Tomas, Batangas, Philippines",14.08754,121.17764,PLDT,50147,55462,50.15,55.46,12,150,39,50
"Pikit, Cotabato, Philippines",7.05314,124.61927,PLDT Home Fiber,77288,84089,77.29,84.09,12,149,51,80
"Marawi City, Lanao del Sur, Philippines",8.0292,124.29772,PLDT,48851,79102,48.85,79.10,25,148,59,85
"Kalibo, Aklan, Philippines",11.70734,122.36986,Globe,144838,131408,144.84,131.41,15,148,55,73
"Bangued, Abra, Philippines",17.58818,120.63149,PLDT Home Fiber,42095,71921,42.10,71.92,113,148,40,55
"Baao, Camarines Sur, Philippines",13.49319,123.35984,PLDT,42060,52566,42.06,52.57,13,147,35,43
"Guimba, Nueva Ecija, Philippines",15.65641,120.76767,Globe,290742,240282,290.74,240.28,5,146,41,68
"Ligao City, Albay, Philippines",13.17242,123.4944,Converge,94694,93764,94.69,93.76,17,146,47,76
"Paracale, Camarines Norte, Philippines",14.23721,122.78588,PLDT Home Fiber,47082,66468,47.08,66.47,8,145,20,27
"Balamban, Cebu, Philippines",10.48585,123.77412,PLDT,62895,72324,62.90,72.32,4,144,36,54
"Toledo, Cebu, Philippines",10.38705,123.65017,Globe,166044,186568,166.04,186.57,9,144,60,101
"Libmanan, Camarines Sur, Philippines",13.69376,123.05982,PLDT Home Fiber,51220,46152,51.22,46.15,14,143,25,40
"Maramag, Bukidnon, Philippines",7.82687,124.97271,Globe,71248,22388,71.25,22.39,24,143,43,78
"Tacloban City, Leyte, Philippines",11.22238,124.99221,PLDT Home Fiber,172308,135141,172.31,135.14,11,142,28,45
"Angat, Bulacan, Philippines",14.92586,121.02204,PLDT Home Fiber,158122,175690,158.12,175.69,6,142,55,89
"Palo, Leyte, Philippines",11.15847,124.99191,PLDT,56216,49122,56.22,49.12,24,142,50,72
"Tinambac, Camarines Sur, Philippines",13.90428,123.37106,PLDT Home Fiber,83039,87633,83.04,87.63,34,142,3,3
"Sagbayan, Bohol, Philippines",9.91005,124.08641,PLDT,68527,79431,68.53,79.43,16,142,46,60
"Moises Padilla, Negros Occidental, Philippines",10.26269,123.11266,PLDT Home Fiber,84020,85533,84.02,85.53,6,142,38,50
"San Simon, Pampanga, Philippines",14.98432,120.75127,PLDT Home Fiber,86750,89065,86.75,89.07,8,141,47,74
"Pandi, Bulacan, Philippines",14.87572,120.95941,PLDT Home Fiber,101585,96673,101.59,96.67,8,141,28,47
"Sorsogon City, Sorsogon, Philippines",12.97888,123.98477,PLDT,132053,142177,132.05,142.18,18,141,46,66
"Echague, Isabela, Philippines",16.66606,121.78792,PLDT,71822,64044,71.82,64.04,19,141,25,28
"Basey, Samar, Philippines",11.40967,125.17087,PLDT,38732,37038,38.73,37.04,35,140,27,35
"Santiago, Isabela, Philippines",16.69679,121.55865,Globe,165813,125826,165.81,125.83,7,140,37,46
"Kabayan, Benguet, Philippines",16.61702,120.82692,PLDT Home Fiber,92430,94485,92.43,94.49,4,140,41,69
"Malvar, Batangas, Philippines",14.04329,121.15875,PLDT,88714,90384,88.71,90.38,22,139,59,81
"Lagawe, Ifugao, Philippines",16.80825,121.19395,PLDT Home Fiber,91762,107441,91.76,107.44,6,138,47,75
"Dapitan City, Zamboanga del Norte, Philippines",8.58118,123.42714,PLDT Home Fiber,61451,49177,61.45,49.18,9,138,29,38
"Floridablanca, Pampanga, Philippines",14.9619,120.49471,PLDT Home Fiber,115471,104745,115.47,104.75,10,138,38,55
"Maribojoc, Bohol, Philippines",9.75462,123.85229,PLDT,96895,102778,96.90,102.78,14,138,42,60
"Butuan City, Agusan Del Norte, Philippines",8.94753,125.54063,PLDT,91989,74214,91.99,74.21,21,138,44,69
"Santo Tomas, Batangas, Philippines",14.08754,121.17764,Converge,188541,150089,188.54,150.09,7,138,39,59
"Ormoc City, Leyte, Philippines",11.03843,124.61927,PLDT,32971,27343,32.97,27.34,15,137,34,61
"Binmaley, Pangasinan, Philippines",16.02892,120.26882,PLDT,64161,90144,64.16,90.14,12,137,55,68
"General Mariano Alvarez, Cavite, Philippines",14.29525,121.0071,PLDT,179681,183761,179.68,183.76,6,137,42,54
"New Corella, Davao del Norte, Philippines",7.59777,125.84981,Globe,284536,308598,284.54,308.60,12,136,55,85
"City of Mati, Davao Oriental, Philippines",6.95722,126.15454,PLDT Home Fiber,178104,155586,178.10,155.59,12,136,37,48
"Kasibu, Nueva Vizcaya, Philippines",16.36659,121.33129,Converge,273815,215105,273.82,215.11,26,136,2,2
"Dumanjug, Cebu, Philippines",10.02819,123.47198,PLDT,86604,44196,86.60,44.20,14,136,24,30
"Floridablanca, Pampanga, Philippines",14.9619,120.49471,Converge,84463,91599,84.46,91.60,4,136,43,57
"M'lang, Cotabato, Philippines",6.93822,124.90655,PLDT Home Fiber,110098,107756,110.10,107.76,11,136,53,78
"Sariaya, Quezon, Philippines",13.96301,121.52388,PLDT,89854,94997,89.85,95.00,8,135,41,61
"San Carlos City, Pangasinan, Philippines",15.92589,120.34827,PLDT Home Fiber,81899,113088,81.90,113.09,10,135,37,47
"Noveleta, Cavite, Philippines",14.42785,120.88009,Globe,154691,109928,154.69,109.93,6,134,22,26
"General Mamerto Natividad, Nueva Ecija, Philippines",15.58788,121.04498,PLDT Home Fiber,66897,96584,66.90,96.58,11,134,35,55
"Siaton, Negros Oriental, Philippines",9.12425,123.03388,PLDT Home Fiber,61991,79601,61.99,79.60,8,134,12,22
"Valencia, Negros Oriental, Philippines",9.28494,123.1464,PLDT Home Fiber,108458,108251,108.46,108.25,5,133,30,42
"Surallah, South Cotabato, Philippines",6.3195,124.75198,PLDT Home Fiber,84181,92270,84.18,92.27,12,132,41,62
"Solana, Cagayan, Philippines",17.65284,121.65113,Converge,92734,87273,92.73,87.27,14,132,45,79
"Marawi City, Lanao del Sur, Philippines",8.0292,124.29772,Globe,55527,37677,55.53,37.68,10,132,36,67
"Santa Maria, Bulacan, Philippines",14.82898,120.97616,PLDT,79740,79545,79.74,79.55,8,132,53,72
"San Carlos City, Pangasinan, Philippines",15.92589,120.34827,PLDT,65828,188317,65.83,188.32,8,132,35,47
"Mangatarem, Pangasinan, Philippines",15.73801,120.27435,PLDT,38658,100633,38.66,100.63,17,132,28,34
"San Fabian, Pangasinan, Philippines",16.14188,120.44729,PLDT,56799,102569,56.80,102.57,9,131,30,38
"Nasipit, Agusan Del Norte, Philippines",8.93971,125.32468,Converge,40512,134986,40.51,134.99,67,131,18,20
"Tampakan, South Cotabato, Philippines",6.49121,125.08286,PLDT Home Fiber,94012,54263,94.01,54.26,11,131,34,50
"Malaybalay City, Bukidnon, Philippines",8.15775,125.17087,Converge,123756,53995,123.76,54.00,18,131,32,46
"Buug, Zamboanga Sibugay, Philippines",7.74072,123.05639,PLDT Home Fiber,96805,78279,96.81,78.28,11,131,7,11
"San Jose, Batangas, Philippines",13.87868,121.09942,Globe,61526,54399,61.53,54.40,5,131,47,88
"Naujan, Oriental Mindoro, Philippines",13.24381,121.19395,PLDT Home Fiber,174365,209426,174.37,209.43,7,131,21,28
"Salvador Benedicto, Negros Occidental, Philippines",10.5887,123.23632,PLDT,127875,206840,127.88,206.84,6,130,57,70
"Victoria, Tarlac, Philippines",15.59077,120.68901,PLDT Home Fiber,71430,87627,71.43,87.63,13,130,31,53
"General Mariano Alvarez, Cavite, Philippines",14.29525,121.0071,Converge,139457,176508,139.46,176.51,6,130,46,69
"Sibulan, Negros Oriental, Philippines",9.35972,123.28476,Globe,115511,121188,115.51,121.19,11,130,51,67
"Toledo, Cebu, Philippines",10.38705,123.65017,PLDT Home Fiber,95088,89859,95.09,89.86,5,130,33,49
"Malvar, Batangas, Philippines",14.04329,121.15875,Globe,258152,237706,258.15,237.71,7,130,27,41
"Lopez, Quezon, Philippines",13.80005,122.31075,PLDT Home Fiber,94064,98911,94.06,98.91,8,130,36,64
"Bansalan, Davao del Sur, Philippines",6.84825,125.22584,Converge,200867,204557,200.87,204.56,3,129,27,30
"Rosario, Cavite, Philippines",14.41672,120.85471,PLDT Home Fiber,88642,94292,88.64,94.29,5,129,45,69
"Amadeo, Cavite, Philippines",14.18985,120.92452,PLDT,157818,167875,157.82,167.88,8,129,41,54
"Oras, Eastern Samar, Philippines",12.17696,125.36857,PLDT Home Fiber,113150,129474,113.15,129.47,18,129,11,13
"Bayombong, Nueva Vizcaya, Philippines",16.48042,121.14813,PLDT Home Fiber,74458,77099,74.46,77.10,7,128,46,66
"Kidapawan, Cotabato, Philippines",7.02127,125.09019,Globe,202810,148173,202.81,148.17,14,128,24,36
"Aritao, Nueva Vizcaya, Philippines",16.2515,121.01057,PLDT Home Fiber,63334,83058,63.33,83.06,8,128,15,28
"Bacolor, Pampanga, Philippines",14.99692,120.65235,Converge,93605,101802,93.61,101.80,3,128,44,64
"Dinalupihan, Bataan, Philippines",14.88605,120.44729,PLDT Home Fiber,185492,121094,185.49,121.09,8,128,45,56
"Goa, Camarines Sur, Philippines",13.73619,123.41593,PLDT Home Fiber,47483,63250,47.48,63.25,9,128,32,45
"Pateros, Metro Manila, Philippines",14.54838,121.07077,PLDT Home Fiber,194953,206761,194.95,206.76,3,128,40,55
"Balagtas, Bulacan, Philippines",14.81784,120.90646,PLDT Home Fiber,163955,118423,163.96,118.42,9,128,41,59
"San Carlos City, Negros Occidental, Philippines",10.48344,123.30371,Globe,223405,212231,223.41,212.23,11,126,36,49
"Lucena City, Quezon, Philippines",13.94139,121.62345,Globe,168905,117328,168.91,117.33,8,126,38,49
"Carmen, Davao del Norte, Philippines",7.35492,125.704,PLDT,95100,53957,95.10,53.96,10,126,14,18
"Gerona, Tarlac, Philippines",15.60489,120.59698,Converge,93987,93822,93.99,93.82,4,126,60,85
"Pigkawayan, Cotabato, Philippines",7.27922,124.43092,PLDT Home Fiber,63119,86451,63.12,86.45,12,125,35,49
"Santa Ana, Pampanga, Philippines",15.09442,120.76623,Globe,277235,239499,277.24,239.50,6,125,54,91
"Tanauan, Leyte, Philippines",11.07765,124.98373,PLDT,84796,73312,84.80,73.31,35,125,36,48
"Talisay, Negros Occidental, Philippines",10.74828,122.98012,Globe,192639,192057,192.64,192.06,4,125,35,45
"Digos, Davao del Sur, Philippines",6.74347,125.35515,PLDT,59242,56814,59.24,56.81,12,124,40,66
"Hagonoy, Bulacan, Philippines",14.83564,120.73371,PLDT Home Fiber,68109,94552,68.11,94.55,9,124,42,59
"San Fernando City, La Union, Philippines",16.61592,120.32102,Converge,92124,70753,92.12,70.75,4,124,41,59
"Plaridel, Bulacan, Philippines",14.88591,120.85932,Globe,116303,96056,116.30,96.06,7,124,41,56
"Santa Barbara, Iloilo, Philippines",10.82707,122.53265,PLDT,54609,76430,54.61,76.43,20,124,51,66
"Lupao, Nueva Ecija, Philippines",15.84768,120.91878,Globe,267173,218106,267.17,218.11,6,124,44,87
"Jasaan, Misamis Oriental, Philippines",8.65161,124.78513,PLDT Home Fiber,96478,128875,96.48,128.88,4,124,11,22
"Santo Domingo, Ilocos Sur, Philippines",17.64462,120.42424,PLDT Home Fiber,34749,40044,34.75,40.04,15,124,22,28
"Jaen, Nueva Ecija, Philippines",15.39558,120.87286,Globe,259284,225087,259.28,225.09,4,124,36,58
"Sogod, Cebu, Philippines",10.77419,123.9527,Globe,182536,198546,182.54,198.55,19,123,51,74
"Dagupan City, Pangasinan, Philippines",16.03375,120.33202,Globe,121409,114823,121.41,114.82,5,123,32,40
"Roxas City, Capiz, Philippines",11.55288,122.74072,Converge,198201,142760,198.20,142.76,12,123,33,58
"Amadeo, Cavite, Philippines",14.18985,120.92452,Converge,211822,233354,211.82,233.35,6,123,19,35
"Sagay City, Negros Occidental, Philippines",10.84555,123.37106,Globe,84589,52143,84.59,52.14,15,123,21,28
"Rizal, Laguna, Philippines",14.08408,121.41133,PLDT Home Fiber,211769,199028,211.77,199.03,8,123,45,73
"Rosario, Agusan del Sur, Philippines",8.34247,126.0676,Converge,38363,96902,38.36,96.90,57,123,14,18
"Ipil, Zamboanga Sibugay, Philippines",7.77318,122.57121,PLDT,110554,97447,110.55,97.45,20,123,30,45
"Cordova, Cebu, Philippines",10.25278,123.9494,Globe,230100,255559,230.10,255.56,4,123,37,48
"Camiling, Tarlac, Philippines",15.67495,120.41272,PLDT Home Fiber,69463,106599,69.46,106.60,14,122,29,40
"Malay, Aklan, Philippines",11.93033,121.95191,Converge,84420,46810,84.42,46.81,12,122,31,51
"Olongapo City, Zambales, Philippines",14.88739,120.36661,PLDT,105022,74740,105.02,74.74,7,122,45,67
"Tigaon, Camarines Sur, Philippines",13.61703,123.47198,PLDT Home Fiber,50197,47803,50.20,47.80,8,122,16,23
"Balanga City, Bataan, Philippines",14.67454,120.47033,PLDT,91286,92606,91.29,92.61,9,121,44,68
"San Rafael, Bulacan, Philippines",15.00184,120.93141,PLDT,88268,60619,88.27,60.62,11,121,23,30
"Magalang, Pampanga, Philippines",15.21394,120.66181,Globe,212272,202233,212.27,202.23,5,121,49,74
"Carmen, Davao del Norte, Philippines",7.35492,125.704,Converge,193646,179229,193.65,179.23,4,121,33,39
"San Jose, Occidental Mindoro, Philippines",12.40119,121.10229,Converge,52279,57108,52.28,57.11,10,120,32,49
"Valencia City, Bukidnon, Philippines",7.86319,125.17087,Globe,121018,64076,121.02,64.08,6,120,34,40
"San Pablo City, Laguna, Philippines",14.06422,121.32326,Globe,184939,139626,184.94,139.63,8,120,35,45
"Tanjay City, Negros Oriental, Philippines",9.49579,122.9663,PLDT Home Fiber,58246,82172,58.25,82.17,10,119,37,48
"Dumangas, Iloilo, Philippines",10.82109,122.71167,PLDT Home Fiber,61545,79919,61.55,79.92,8,118,18,24
"Paombong, Bulacan, Philippines",14.83781,120.78406,PLDT,131288,141067,131.29,141.07,5,118,27,38
"Bagumbayan, Sultan Kudarat, Philippines",6.4606,124.55284,PLDT Home Fiber,54439,32428,54.44,32.43,14,117,10,13
"San Carlos City, Negros Occidental, Philippines",10.48344,123.30371,Converge,48485,61730,48.49,61.73,12,117,20,25
"Tanay, Rizal, Philippines",14.61419,121.37703,PLDT Home Fiber,76191,94440,76.19,94.44,4,117,42,53
"Canaman, Camarines Sur, Philippines",13.64758,123.13515,Converge,68510,57476,68.51,57.48,4,117,22,28
"City of Tayabas, Quezon, Philippines",14.01135,121.55983,PLDT,93698,109899,93.70,109.90,10,117,47,68
"Mabini, Batangas, Philippines",13.72355,120.9073,Converge,93446,126051,93.45,126.05,7,117,20,32
"General Tinio (Papaya), Nueva Ecija, Philippines",15.36345,121.21685,PLDT,51552,37283,51.55,37.28,12,117,38,57
"Subic, Zambales, Philippines",14.83066,120.18202,PLDT,46541,48410,46.54,48.41,19,116,38,54
"Kiamba, Sarangani, Philippines",6.00076,124.70777,PLDT,18431,20325,18.43,20.33,22,116,19,31
"Norzagaray, Bulacan, Philippines",14.89659,121.14813,PLDT,75185,82412,75.19,82.41,7,116,39,52
"San Miguel, Bulacan, Philippines",15.14158,120.9751,Converge,144292,161924,144.29,161.92,6,116,41,49
"Naval, Biliran, Philippines",11.56681,124.44201,Globe,113926,105868,113.93,105.87,15,116,35,45
"Tublay, Benguet, Philippines",16.52924,120.62073,PLDT Home Fiber,168937,145076,168.94,145.08,6,116,44,61
"Mariveles, Bataan, Philippines",14.4354,120.49003,Converge,89264,94015,89.26,94.02,9,116,37,57
"Gapan City, Nueva Ecija, Philippines",15.29121,121.01057,Converge,110300,141174,110.30,141.17,6,115,28,44
"Mariveles, Bataan, Philippines",14.4354,120.49003,PLDT Home Fiber,70184,68683,70.18,68.68,9,115,39,64
"Naic, Cavite, Philippines",14.29649,120.79246,Converge,168350,160939,168.35,160.94,4,115,53,67
"Asingan, Pangasinan, Philippines",16.00318,120.67063,PLDT Home Fiber,85230,185884,85.23,185.88,13,115,23,30
"Navotas, Metro Manila, Philippines",14.65819,120.94743,Globe,169844,134255,169.84,134.26,5,115,41,51
"Los Baños, Laguna, Philippines",14.17731,121.22161,Globe,272823,221913,272.82,221.91,6,114,47,63
"Pilar, Sorsogon, Philippines",12.97477,123.6847,PLDT Home Fiber,29538,88599,29.54,88.60,43,114,2,3
"Bulalacao (San Pedro), Oriental Mindoro, Philippines",12.39526,121.30841,PLDT Home Fiber,5357,26398,5.36,26.40,128,114,13,14
"Guiguinto, Bulacan, Philippines",14.82832,120.88429,Globe,121490,107170,121.49,107.17,7,114,35,47
"Malungon, Sarangani, Philippines",6.3343,125.2588,PLDT Home Fiber,41770,35648,41.77,35.65,22,114,12,16
"Isulan, Sultan Kudarat, Philippines",6.6318,124.44201,PLDT,33676,41729,33.68,41.73,12,114,29,37
"Toledo, Cebu, Philippines",10.38705,123.65017,Converge,95697,82605,95.70,82.61,15,113,32,48
"Banate, Iloilo, Philippines",11.06503,122.77459,PLDT,43243,47588,43.24,47.59,14,113,16,22
"Trece Martires City, Cavite, Philippines",14.28222,120.86837,Converge,199145,167806,199.15,167.81,5,113,48,62
"San Antonio, Quezon, Philippines",13.89506,121.29697,Globe,318219,327713,318.22,327.71,6,113,41,70
"President Roxas, Cotabato, Philippines",7.37928,125.06084,Globe,307416,255932,307.42,255.93,3,113,49,66
"Guinobatan, Albay, Philippines",13.15419,123.55041,Converge,69945,78413,69.95,78.41,16,113,19,25
"Panglao, Bohol, Philippines",9.56947,123.78721,PLDT Home Fiber,140343,125064,140.34,125.06,8,112,32,45
"Mangaldan, Pangasinan, Philippines",16.06513,120.40474,PLDT Home Fiber,84253,89876,84.25,89.88,8,112,25,38
"Santa Cruz, Laguna, Philippines",14.26911,121.41133,PLDT,192195,242278,192.20,242.28,10,112,38,59
"Dumaguete City, Negros Oriental, Philippines",9.29841,123.29249,Converge,156696,144983,156.70,144.98,18,112,36,52
"Mariveles, Bataan, Philippines",14.4354,120.49003,Globe,68575,66363,68.58,66.36,12,112,31,42
"Rosales, Pangasinan, Philippines",15.86126,120.63149,PLDT Home Fiber,50408,109572,50.41,109.57,14,112,41,54
"San Jose de Buenavista, Antique, Philippines",10.74901,121.94128,PLDT Home Fiber,145442,130213,145.44,130.21,11,111,27,39
"Roxas, Oriental Mindoro, Philippines",12.62617,121.47989,PLDT Home Fiber,36494,29354,36.49,29.35,8,111,20,29
"Binalonan, Pangasinan, Philippines",16.05355,120.60848,PLDT Home Fiber,35629,89861,35.63,89.86,11,111,33,47
"San Narciso, Zambales, Philippines",15.01114,120.08963,Converge,179469,96871,179.47,96.87,5,111,14,16
"Santo Domingo, Nueva Ecija, Philippines",15.61284,120.88434,PLDT,26563,27840,26.56,27.84,23,111,25,40
"Bais City, Negros Oriental, Philippines",9.56801,123.01136,PLDT Home Fiber,96884,112445,96.88,112.45,9,110,33,54
"Isulan, Sultan Kudarat, Philippines",6.6318,124.44201,PLDT Home Fiber,81080,54190,81.08,54.19,11,110,26,33
"Pitogo, Quezon, Philippines",13.80951,122.10647,PLDT,10560,10025,10.56,10.03,16,110,1,1
"Pangil, Laguna, Philippines",14.41772,121.48561,Globe,186033,134158,186.03,134.16,8,110,3,4
"San Rafael, Bulacan, Philippines",15.00184,120.93141,Converge,91995,84374,92.00,84.37,7,109,34,46
"Hagonoy, Davao del Sur, Philippines",6.69701,125.3137,Converge,194590,187424,194.59,187.42,3,109,27,29
"Maasin, Southern Leyte, Philippines",10.13272,124.84081,Globe,82773,91145,82.77,91.15,23,109,40,58
"Molave, Zamboanga del Sur, Philippines",8.10419,123.4944,PLDT Home Fiber,54969,49940,54.97,49.94,11,109,32,43
"Zamboanga City, Zamboanga del Sur, Philippines",6.90437,122.07612,PLDT,33529,33576,33.53,33.58,17,109,30,67
"Mawab, Davao de Oro, Philippines",7.51701,125.937,PLDT,143899,114759,143.90,114.76,9,109,20,24
"Guimbal, Iloilo, Philippines",10.66341,122.32057,PLDT,88098,93722,88.10,93.72,10,109,17,25
"Agoo, La Union, Philippines",16.3247,120.35508,PLDT,222447,182127,222.45,182.13,2,109,30,41
"Narvacan, Ilocos Sur, Philippines",17.44229,120.49336,PLDT Home Fiber,50388,78643,50.39,78.64,16,108,29,34
"General Mariano Alvarez, Cavite, Philippines",14.29525,121.0071,PLDT Home Fiber,205901,203051,205.90,203.05,6,108,31,45
"Calauan, Laguna, Philippines",14.14551,121.3146,Globe,232997,193015,233.00,193.02,5,108,34,76
"Labason, Zamboanga del Norte, Philippines",8.01373,122.51464,PLDT Home Fiber,50861,49757,50.86,49.76,12,108,10,16
"Alicia, Isabela, Philippines",16.80691,121.69674,PLDT Home Fiber,53075,39221,53.08,39.22,12,108,31,41
"Cauayan City, Isabela, Philippines",16.91662,121.78792,Globe,120103,108547,120.10,108.55,7,108,26,35
"Pavia, Iloilo, Philippines",10.7748,122.54261,PLDT Home Fiber,216680,245315,216.68,245.32,8,107,41,52
"Cabatuan, Isabela, Philippines",16.92776,121.66253,Globe,189937,190444,189.94,190.44,7,107,12,16
"Capas, Tarlac, Philippines",15.34633,120.59344,Globe,122938,109266,122.94,109.27,4,107,32,38
"Tuburan, Cebu, Philippines",10.66879,123.86345,PLDT,45871,52119,45.87,52.12,9,107,19,25
"Guiguinto, Bulacan, Philippines",14.82832,120.88429,Converge,149658,118447,149.66,118.45,6,106,36,50
"Quezon, Nueva Ecija, Philippines",15.56953,120.82692,PLDT Home Fiber,62539,93390,62.54,93.39,16,106,22,34
"Moalboal, Cebu, Philippines",9.93681,123.42714,Globe,134755,84742,134.76,84.74,10,106,32,57
"Tigaon, Camarines Sur, Philippines",13.61703,123.47198,Converge,109284,126857,109.28,126.86,13,106,10,16
"Infanta, Quezon, Philippines",14.74071,121.6451,PLDT,47793,54705,47.79,54.71,13,105,39,60
"Ozamiz, Misamis Occidental, Philippines",8.15,123.85033,PLDT,61829,58664,61.83,58.66,30,105,31,39
"Binalonan, Pangasinan, Philippines",16.05355,120.60848,PLDT,64927,71906,64.93,71.91,12,105,27,39
"Ormoc City, Leyte, Philippines",11.03843,124.61927,PLDT Home Fiber,95992,82614,95.99,82.61,5,105,34,45
"Candelaria, Quezon, Philippines",13.94899,121.42276,Converge,169053,157545,169.05,157.55,6,105,27,49
"Bayambang, Pangasinan, Philippines",15.80947,120.45714,PLDT,81206,94130,81.21,94.13,14,105,33,44
"Carcar, Cebu, Philippines",10.10478,123.64147,Converge,94542,90452,94.54,90.45,20,105,8,15
"Carles, Iloilo, Philippines",11.55216,123.13515,PLDT Home Fiber,56534,78949,56.53,78.95,11,105,15,23
"Kapatagan, Lanao del Norte, Philippines",7.86776,123.72942,PLDT Home Fiber,75190,80430,75.19,80.43,8,105,30,41
"New Corella, Davao del Norte, Philippines",7.59777,125.84981,PLDT Home Fiber,52152,59446,52.15,59.45,10,105,22,28
"Santiago, Isabela, Philippines",16.69679,121.55865,PLDT,23630,24339,23.63,24.34,20,105,27,34
"Nabua, Camarines Sur, Philippines",13.4069,123.37324,PLDT Home Fiber,66750,64971,66.75,64.97,9,105,33,52
"Calapan City, Oriental Mindoro, Philippines",13.36643,121.19395,PLDT Home Fiber,90498,104615,90.50,104.62,8,105,46,55
"Pilar, Bataan, Philippines",14.60553,120.51639,Converge,199531,188752,199.53,188.75,5,104,13,19
"Trece Martires City, Cavite, Philippines",14.28222,120.86837,PLDT,74745,70979,74.75,70.98,10,104,45,55
"Limay, Bataan, Philippines",14.53661,120.56245,PLDT Home Fiber,144805,103130,144.81,103.13,9,104,23,34
"Surigao, Surigao del Norte, Philippines",9.79022,125.49311,Globe,90164,58731,90.16,58.73,16,104,31,44
"La Carlota City, Negros Occidental, Philippines",10.41437,122.97757,PLDT,77514,69200,77.51,69.20,7,104,33,46
"Nabua, Camarines Sur, Philippines",13.4069,123.37324,Converge,84897,90234,84.90,90.23,5,104,18,38
"Limay, Bataan, Philippines",14.53661,120.56245,Converge,98984,150962,98.98,150.96,9,103,31,47
"Samal, Davao del Norte, Philippines",7.08352,125.70578,PLDT Home Fiber,102954,93899,102.95,93.90,9,103,34,46
"Minalin, Pampanga, Philippines",14.97052,120.68518,Converge,77208,76363,77.21,76.36,6,103,23,28
"Panglao, Bohol, Philippines",9.56947,123.78721,PLDT,77193,74011,77.19,74.01,6,103,30,48
"San Quintin, Pangasinan, Philippines",15.9754,120.83841,PLDT,79955,87853,79.96,87.85,8,102,33,52
"Dauis, Bohol, Philippines",9.60401,123.82996,PLDT Home Fiber,187739,176332,187.74,176.33,7,101,24,34
"Ozamiz, Misamis Occidental, Philippines",8.15,123.85033,Globe,118318,45469,118.32,45.47,12,101,39,49
"Bacong, Negros Oriental, Philippines",9.24338,123.27003,PLDT Home Fiber,103607,169924,103.61,169.92,6,101,24,29
"San Isidro, Isabela, Philippines",16.74736,121.6169,PLDT Home Fiber,34671,69061,34.67,69.06,169,101,15,20
"Bongabong, Oriental Mindoro, Philippines",12.71953,121.30841,PLDT,140392,104039,140.39,104.04,8,101,16,19
"Pulilan, Bulacan, Philippines",14.90243,120.8459,Globe,165807,139102,165.81,139.10,7,100,31,38
"Digos, Davao del Sur, Philippines",6.74347,125.35515,PLDT Home Fiber,90300,126819,90.30,126.82,10,100,35,55
"New Washington, Aklan, Philippines",11.6466,122.39009,Converge,61218,51885,61.22,51.89,14,100,14,20
"Balungao, Pangasinan, Philippines",15.88371,120.68901,PLDT Home Fiber,68898,117424,68.90,117.42,13,100,12,22
"Pili, Camarines Sur, Philippines",13.55521,123.28126,PLDT Home Fiber,45338,49095,45.34,49.10,10,99,36,50
"Odiongan, Romblon, Philippines",12.36445,122.01555,PLDT,91318,96117,91.32,96.12,9,99,25,39
"Los Baños, Laguna, Philippines",14.17731,121.22161,PLDT,107605,128485,107.61,128.49,7,99,34,51
"Garcia Hernandez, Bohol, Philippines",9.66884,124.2755,Globe,71126,88320,71.13,88.32,4,98,2,4
"Pilar, Bataan, Philippines",14.60553,120.51639,PLDT Home Fiber,118319,107469,118.32,107.47,7,98,22,25
"Tanay, Rizal, Philippines",14.61419,121.37703,PLDT,40731,23799,40.73,23.80,10,98,35,45
"Liloan, Cebu, Philippines",10.39926,124.00002,PLDT Home Fiber,181108,211473,181.11,211.47,4,98,42,66
"Bambang, Nueva Vizcaya, Philippines",16.40415,121.10229,PLDT Home Fiber,98327,106874,98.33,106.87,6,98,30,55
"San Quintin, Pangasinan, Philippines",15.9754,120.83841,PLDT Home Fiber,77775,166103,77.78,166.10,14,98,23,37
"Ormoc City, Leyte, Philippines",11.03843,124.61927,Converge,91875,93443,91.88,93.44,5,97,27,44
"Arayat, Pampanga, Philippines",15.15443,120.771,PLDT,82496,109195,82.50,109.20,17,97,19,24
"Banga, South Cotabato, Philippines",6.38791,124.79617,PLDT Home Fiber,66779,47178,66.78,47.18,16,97,23,34
"Calbayog, Samar, Philippines",12.0685,124.59081,Globe,117428,108383,117.43,108.38,11,97,49,59
"Arakan, Cotabato, Philippines",7.35122,125.17087,PLDT Home Fiber,112050,136179,112.05,136.18,8,97,42,52
"Balagtas, Bulacan, Philippines",14.81784,120.90646,PLDT,104098,95699,104.10,95.70,3,97,25,45
"Vigan City, Ilocos Sur, Philippines",17.56485,120.38781,PLDT,91201,93702,91.20,93.70,10,97,21,31
"City of Borongan, Eastern Samar, Philippines",11.61739,125.34663,PLDT,38946,27595,38.95,27.60,21,96,26,50
"San Jose de Buenavista, Antique, Philippines",10.74901,121.94128,Globe,117964,105934,117.96,105.93,9,96,39,50
"Noveleta, Cavite, Philippines",14.42785,120.88009,PLDT Home Fiber,219605,209151,219.61,209.15,6,96,19,38
"Alaminos City, Pangasinan, Philippines",16.15053,119.98562,Converge,109827,128972,109.83,128.97,6,96,24,40
"Jaen, Nueva Ecija, Philippines",15.39558,120.87286,Converge,75175,67048,75.18,67.05,6,96,16,25
"Tangub City, Misamis Occidental, Philippines",8.09592,123.6847,PLDT,53576,48140,53.58,48.14,28,96,21,36
"Talavera, Nueva Ecija, Philippines",15.58575,120.9197,PLDT,54842,54216,54.84,54.22,10,95,15,27
"City of Batac, Ilocos Norte, Philippines",18.04961,120.59698,PLDT Home Fiber,77422,81181,77.42,81.18,6,95,28,42
"Floridablanca, Pampanga, Philippines",14.9619,120.49471,PLDT,70948,56919,70.95,56.92,19,94,44,60
"Apalit, Pampanga, Philippines",14.95255,120.76688,Converge,94711,100103,94.71,100.10,6,94,39,56
"Balingasag, Misamis Oriental, Philippines",8.72993,124.84034,PLDT Home Fiber,86462,82815,86.46,82.82,4,94,8,12
"Gingoog City, Misamis Oriental, Philippines",8.81446,125.10406,PLDT Home Fiber,68352,58732,68.35,58.73,7,94,20,25
"Datu Montawal (Pagagawan), Maguindanao, Philippines",7.10469,124.76303,PLDT Home Fiber,71187,79139,71.19,79.14,12,94,36,56
"Malay, Aklan, Philippines",11.93033,121.95191,PLDT Home Fiber,180325,184816,180.33,184.82,19,94,9,15
"Bangued, Abra, Philippines",17.58818,120.63149,Converge,70823,115936,70.82,115.94,9,94,3,7
"Natividad, Pangasinan, Philippines",16.03821,120.83841,PLDT,57775,127352,57.78,127.35,7,94,28,42
"Talisay, Negros Occidental, Philippines",10.74828,122.98012,Converge,129702,128412,129.70,128.41,10,94,29,43
"Malvar, Batangas, Philippines",14.04329,121.15875,Converge,109831,186646,109.83,186.65,7,94,21,37
"Himamaylan, Negros Occidental, Philippines",10.10162,122.86995,PLDT Home Fiber,154244,38304,154.24,38.30,14,94,15,20
"Titay, Zamboanga Sibugay, Philippines",7.84847,122.57121,PLDT Home Fiber,154833,104729,154.83,104.73,11,93,17,24
"Trento, Agusan del Sur, Philippines",8.05257,126.21969,PLDT,71399,86914,71.40,86.91,24,93,35,49
"Pototan, Iloilo, Philippines",10.94194,122.63874,Globe,138767,126682,138.77,126.68,5,93,22,34
"Padre Garcia, Batangas, Philippines",13.87668,121.24547,Converge,193875,246873,193.88,246.87,7,93,12,17
"Lingayen, Pangasinan, Philippines",16.00973,120.22449,PLDT,86626,142673,86.63,142.67,12,93,11,19
"Mercedes, Camarines Norte, Philippines",13.90012,123.06765,PLDT,45358,63063,45.36,63.06,7,93,11,15
"Banisilan, Cotabato, Philippines",7.53701,124.72988,PLDT Home Fiber,17332,19164,17.33,19.16,64,93,5,8
"Abucay, Bataan, Philippines",14.73361,120.49336,PLDT Home Fiber,115930,93542,115.93,93.54,8,93,19,25
"Nueva Valencia, Guimaras, Philippines",10.46356,122.54859,PLDT Home Fiber,58129,82206,58.13,82.21,9,93,15,19
"Naic, Cavite, Philippines",14.29649,120.79246,Globe,109893,112893,109.89,112.89,6,92,32,40
"Pagalungan, Maguindanao, Philippines",6.93298,124.75198,PLDT Home Fiber,79142,75732,79.14,75.73,11,92,35,47
"Cantilan, Surigao del Sur, Philippines",9.27827,125.88251,PLDT Home Fiber,57301,94556,57.30,94.56,11,92,11,14
"Alaminos, Laguna, Philippines",14.0454,121.25119,Globe,219686,185381,219.69,185.38,4,92,40,51
"Maitum, Sarangani, Philippines",6.12408,124.48636,PLDT,16772,16827,16.77,16.83,16,92,21,31
