Location Name,Latitude,Longitude,Provider,Download Speed,Upload Speed,Download Speed Mbps,Upload Speed Mbps,Minimum Latency,Test Count,Sample Count,User Count
"Quezon City, Metro Manila, Philippines",14.64879,121.05094,PLDT Home Fiber,147961,155975,147.96,155.98,3,261324,55265,82742
"Quezon City, Metro Manila, Philippines",14.64879,121.05094,Converge,179203,174797,179.20,174.80,4,157122,34669,57256
"Quezon City, Metro Manila, Philippines",14.64879,121.05094,Globe,171643,149913,171.64,149.91,5,132615,32324,49960
"Davao City, Davao del Sur, Philippines",7.06475,125.60884,PLDT Home Fiber,109034,95063,109.03,95.06,9,121628,26997,38948
"Manila, Metro Manila, Philippines",14.59951,120.98423,Converge,197054,165827,197.05,165.83,4,101019,21309,37269
"Cebu City, Cebu, Philippines",10.29261,123.90219,PLDT Home Fiber,105016,114813,105.02,114.81,6,94114,17917,25167
"Manila, Metro Manila, Philippines",14.59951,120.98423,PLDT Home Fiber,101470,101643,101.47,101.64,5,83713,18640,29110
"Quezon City, Metro Manila, Philippines",14.64879,121.05094,PLDT,74452,72637,74.45,72.64,8,73907,18515,26462
"Davao City, Davao del Sur, Philippines",7.06475,125.60884,Globe,123334,111837,123.33,111.84,4,72813,17671,23803
"Cebu City, Cebu, Philippines",10.29261,123.90219,PLDT,79545,86298,79.55,86.30,9,65975,13668,19810
"Cebu City, Cebu, Philippines",10.29261,123.90219,Globe,122644,109576,122.64,109.58,6,65184,15643,22690
"Parañaque, Metro Manila, Philippines",14.47929,121.01985,Converge,193563,194743,193.56,194.74,4,62465,13473,21938
"Pasig, Metro Manila, Philippines",14.56082,121.0776,PLDT Home Fiber,151332,151853,151.33,151.85,3,58218,13979,21173
"Valenzuela, Metro Manila, Philippines",14.69247,120.96991,Converge,185994,186832,185.99,186.83,4,56604,11711,20878
"Biñan, Laguna, Philippines",14.31456,121.08316,PLDT,97551,106683,97.55,106.68,9,52485,12123,19003
"Manila, Metro Manila, Philippines",14.59951,120.98423,PLDT,89693,91970,89.69,91.97,5,52125,11867,16817
"Parañaque, Metro Manila, Philippines",14.47929,121.01985,PLDT Home Fiber,136569,122089,136.57,122.09,4,50791,11764,17123
"Calamba, Laguna, Philippines",14.19488,121.15974,Converge,154914,127577,154.91,127.58,6,50457,11431,18713
"Taguig, Metro Manila, Philippines",14.53063,121.05755,Converge,198264,195370,198.26,195.37,4,49561,10772,17206
"Pasig, Metro Manila, Philippines",14.56082,121.0776,Converge,106485,110795,106.49,110.80,4,49483,11817,16307
"Antipolo City, 1870 Rizal, Philippines",14.58584,121.17569,PLDT Home Fiber,128651,137425,128.65,137.43,3,49392,10196,15278
"Cagayan De Oro City, Misamis Oriental, Philippines",8.48029,124.64975,Globe,110000,86613,110.00,86.61,8,49293,10149,15024
"Davao City, Davao del Sur, Philippines",7.06475,125.60884,Converge,107898,106071,107.90,106.07,3,49258,11281,16670
"Parañaque, Metro Manila, Philippines",14.47929,121.01985,PLDT,101523,97275,101.52,97.28,5,48130,12460,19369
"Makati City, Metro Manila, Philippines",14.55474,121.02444,PLDT,69607,68439,69.61,68.44,12,44665,11517,17110
"Baguio, Benguet, Philippines",16.41297,120.5914,PLDT Home Fiber,94166,94640,94.17,94.64,6,43913,11076,16337
"Iligan City, Lanao del Norte, Philippines",8.22707,124.46418,PLDT Home Fiber,93805,93910,93.81,93.91,6,42882,8541,12299
"Cebu City, Cebu, Philippines",10.29261,123.90219,Converge,192967,189403,192.97,189.40,6,42703,9623,14380
"Caloocan, Metro Manila, Philippines",14.65136,120.99022,PLDT Home Fiber,138592,153900,138.59,153.90,3,41189,8937,12705
"Cagayan De Oro City, Misamis Oriental, Philippines",8.48029,124.64975,PLDT Home Fiber,96852,94456,96.85,94.46,8,39858,9088,13362
"Taguig, Metro Manila, Philippines",14.53063,121.05755,Globe,181106,154323,181.11,154.32,4,39237,10395,16317
"Marikina, Metro Manila, Philippines",14.63493,121.10195,Converge,182901,173822,182.90,173.82,3,39042,9221,14280
"Pandi, Bulacan, Philippines",14.87572,120.95941,Converge,187628,104212,187.63,104.21,7,38659,8980,14663
"San Pablo City, Laguna, Philippines",14.06422,121.32326,Converge,133728,147216,133.73,147.22,7,38571,7624,13527
"Angeles, Pampanga, Philippines",15.16061,120.60908,Converge,114768,114807,114.77,114.81,3,35402,8264,11906
"Imus, Cavite, Philippines",14.42764,120.93724,PLDT Home Fiber,157538,160166,157.54,160.17,4,35249,7826,11975
"Cainta, Rizal, Philippines",14.58056,121.11565,PLDT Home Fiber,155451,167123,155.45,167.12,3,34717,8061,11482
"Davao City, Davao del Sur, Philippines",7.06475,125.60884,PLDT,94587,94403,94.59,94.40,12,34644,8960,12893
"Makati City, Metro Manila, Philippines",14.55474,121.02444,PLDT Home Fiber,160070,148101,160.07,148.10,4,34247,7966,11761
"Tanauan City, Batangas, Philippines",14.08354,121.14762,PLDT Home Fiber,119618,111820,119.62,111.82,7,33003,8179,12857
"Capas, Tarlac, Philippines",15.34633,120.59344,Converge,136933,140121,136.93,140.12,3,32052,8189,13058
"Pasay City, Metro Manila, Philippines",14.53767,121.00081,PLDT Home Fiber,149580,117405,149.58,117.41,4,31858,8269,12581
"Bacoor, Cavite, Philippines",14.43122,120.96567,PLDT Home Fiber,118122,126234,118.12,126.23,6,31408,6297,8688
"Las Piñas, Metro Manila, Philippines",14.44934,120.98186,PLDT Home Fiber,171730,149009,171.73,149.01,4,30270,5862,7685
"Batangas City, Batangas, Philippines",13.75641,121.05833,Globe,114036,103147,114.04,103.15,10,29534,6497,10453
"Taguig, Metro Manila, Philippines",14.53063,121.05755,PLDT Home Fiber,175718,167585,175.72,167.59,4,28039,5580,7455
"Antipolo City, 1870 Rizal, Philippines",14.58584,121.17569,Converge,171630,171189,171.63,171.19,3,27485,6143,9865
"Mexico, Pampanga, Philippines",15.06457,120.72033,Converge,151269,155103,151.27,155.10,3,27447,7173,10984
"Muntinlupa, Metro Manila, Philippines",14.39453,121.04483,PLDT,96864,94746,96.86,94.75,5,27026,6039,8617
"Valenzuela, Metro Manila, Philippines",14.69247,120.96991,PLDT Home Fiber,135841,142420,135.84,142.42,3,26568,6083,8823
"Iloilo City, Iloilo, Philippines",10.73019,122.55911,Globe,103552,94692,103.55,94.69,9,25620,5497,8548
"Magpet, Cotabato, Philippines",7.1332,125.17087,PLDT Home Fiber,137305,97379,137.31,97.38,8,24847,7561,11007
"Pasig, Metro Manila, Philippines",14.56082,121.0776,Globe,221177,192457,221.18,192.46,5,24735,5688,8070
"La Trinidad, Benguet, Philippines",16.44844,120.59047,Converge,103414,108361,103.41,108.36,3,24266,6020,8856
"Dasmariñas, Cavite, Philippines",14.33385,120.95423,PLDT Home Fiber,132873,140320,132.87,140.32,5,24012,5249,7883
"Tarlac City, Tarlac, Philippines",15.48808,120.58719,Converge,107818,105161,107.82,105.16,4,23795,5672,8914
"Malabon, Metro Manila, Philippines",14.65793,120.95118,PLDT Home Fiber,115876,130929,115.88,130.93,3,22301,5026,7872
"San Fernando, Pampanga, Philippines",15.02781,120.69349,PLDT Home Fiber,135038,99313,135.04,99.31,8,22064,5198,7578
"Taguig, Metro Manila, Philippines",14.53063,121.05755,PLDT,79859,86144,79.86,86.14,8,21944,5684,7945
"Caloocan, Metro Manila, Philippines",14.65136,120.99022,Converge,183427,188996,183.43,189.00,4,21531,3496,5661
"General Trias, Cavite, Philippines",14.38159,120.87915,Converge,174526,187440,174.53,187.44,5,21134,4813,7586
"Bacolod, Negros Occidental, Philippines",10.66764,122.94556,PLDT Home Fiber,93654,95878,93.65,95.88,10,21099,4284,6014
"Makati City, Metro Manila, Philippines",14.55474,121.02444,Converge,169647,163588,169.65,163.59,5,20994,4774,7130
"Bago, Negros Occidental, Philippines",10.53757,122.83609,Converge,157882,147276,157.88,147.28,13,20731,4713,8059
"Caloocan, Metro Manila, Philippines",14.65136,120.99022,Globe,179048,158787,179.05,158.79,5,20724,4585,6555
"Iriga City, Camarines Sur, Philippines",13.42095,123.41361,Converge,104486,105159,104.49,105.16,4,20063,4177,7618
"Pasig, Metro Manila, Philippines",14.56082,121.0776,PLDT,73383,72343,73.38,72.34,8,19744,5365,7931
"Dasmariñas, Cavite, Philippines",14.33385,120.95423,Globe,184596,157891,184.60,157.89,5,19563,5129,7876
"Concepcion, Tarlac, Philippines",15.324,120.65596,Converge,100019,109251,100.02,109.25,3,19483,5118,8213
"San Juan City, Metro Manila, Philippines",14.60196,121.0355,PLDT,67276,60531,67.28,60.53,12,19328,5303,7726
"Tanza, Cavite, Philippines",14.34293,120.85032,Converge,194659,202751,194.66,202.75,5,18986,4076,6136
"Los Baños, Laguna, Philippines",14.17731,121.22161,PLDT Home Fiber,102139,138285,102.14,138.29,8,18912,4136,6357
"Taytay, Rizal, Philippines",14.55288,121.12571,PLDT Home Fiber,155957,161280,155.96,161.28,4,18723,4489,6637
"San Fernando, Pampanga, Philippines",15.02781,120.69349,Converge,96725,100536,96.73,100.54,4,18700,4680,6264
"Makati City, Metro Manila, Philippines",14.55474,121.02444,Globe,167014,133420,167.01,133.42,4,17921,4345,6232
"Minglanilla, Cebu, Philippines",10.24543,123.79599,Converge,251931,242879,251.93,242.88,6,17779,4288,6574
"Polangui, Albay, Philippines",13.29368,123.48542,Converge,103707,77088,103.71,77.09,13,17694,3209,6416
"SJDM, Bulacan, Philippines",14.82867,121.04324,Converge,142505,122174,142.51,122.17,7,17564,3577,5133
"Murcia, Negros Occidental, Philippines",10.60643,123.03944,Globe,119545,105886,119.55,105.89,8,17285,4593,6923
"Arayat, Pampanga, Philippines",15.15443,120.771,Converge,131025,146592,131.03,146.59,4,17204,4343,7218
"Naga City, Camarines Sur, Philippines",13.6475,123.27003,Converge,92261,88316,92.26,88.32,10,17165,2611,4203
"Canlaon City, Negros Oriental, Philippines",10.36048,123.19137,PLDT Home Fiber,124562,156094,124.56,156.09,7,17082,4974,7424
"Lipa City, Batangas, Philippines",13.94047,121.19395,PLDT Home Fiber,118821,123483,118.82,123.48,7,17045,4038,5970
"Dasmariñas, Cavite, Philippines",14.33385,120.95423,PLDT,94181,99751,94.18,99.75,9,16988,4415,6876
"Calamba, Laguna, Philippines",14.19488,121.15974,PLDT Home Fiber,112453,111874,112.45,111.87,8,16905,4082,6013
"Muntinlupa, Metro Manila, Philippines",14.39453,121.04483,PLDT Home Fiber,142505,102042,142.51,102.04,4,16890,3658,5142
"Anao, Tarlac, Philippines",15.7435,120.61424,Globe,173964,141889,173.96,141.89,6,16604,3879,5780
"Butuan City, Agusan Del Norte, Philippines",8.94753,125.54063,PLDT Home Fiber,89985,93705,89.99,93.71,9,16313,2829,4056
"Bacolor, Pampanga, Philippines",14.99692,120.65235,PLDT Home Fiber,155856,114111,155.86,114.11,7,16295,4491,7171
"Calamba, Laguna, Philippines",14.19488,121.15974,PLDT,94182,97506,94.18,97.51,9,15821,3867,5947
"Itogon, Benguet, Philippines",16.36116,120.6787,PLDT,94366,96414,94.37,96.41,6,15816,4608,7198
"Bacolod, Negros Occidental, Philippines",10.66764,122.94556,Globe,114657,103438,114.66,103.44,9,15775,3284,4538
"Caloocan, Metro Manila, Philippines",14.65136,120.99022,PLDT,89796,93051,89.80,93.05,4,15736,3658,5292
"Bustos, Bulacan, Philippines",14.95239,120.91735,PLDT Home Fiber,121059,118433,121.06,118.43,8,15569,3730,5752
"Las Piñas, Metro Manila, Philippines",14.44934,120.98186,PLDT,93033,93868,93.03,93.87,6,15516,3769,5616
"San Carlos City, Negros Occidental, Philippines",10.48344,123.30371,PLDT,147543,156145,147.54,156.15,5,15511,4997,7172
"Pasay City, Metro Manila, Philippines",14.53767,121.00081,PLDT,87944,90131,87.94,90.13,7,15503,3809,6021
"Mandaluyong City, Metro Manila, Philippines",14.57627,121.03924,Converge,172775,167473,172.78,167.47,4,15318,3897,6159
"Mandaluyong City, Metro Manila, Philippines",14.57627,121.03924,Globe,184135,160901,184.14,160.90,5,15252,3840,5967
"Bulakan, Bulacan, Philippines",14.79484,120.87889,PLDT Home Fiber,115617,113369,115.62,113.37,7,15205,3793,5884
"Candelaria, Quezon, Philippines",13.94899,121.42276,Converge,190513,193621,190.51,193.62,4,14860,3844,6632
"Imus, Cavite, Philippines",14.42764,120.93724,Converge,201699,181276,201.70,181.28,6,14685,3814,5998
"Claveria, Misamis Oriental, Philippines",8.62972,124.90655,Converge,129094,121764,129.09,121.76,10,14632,3765,6093
"Itogon, Benguet, Philippines",16.36116,120.6787,PLDT Home Fiber,96361,97320,96.36,97.32,6,14511,4134,6684
"La Paz, Tarlac, Philippines",15.4497,120.7235,Globe,111591,102634,111.59,102.63,5,14249,3554,6624
"Bacoor, Cavite, Philippines",14.43122,120.96567,PLDT,94475,94180,94.48,94.18,8,13884,3648,5378
"Butuan City, Agusan Del Norte, Philippines",8.94753,125.54063,Globe,113704,57685,113.70,57.69,13,13884,3322,4725
"General Trias, Cavite, Philippines",14.38159,120.87915,PLDT Home Fiber,151959,128943,151.96,128.94,5,13773,2850,4139
"Binangonan, Rizal, Philippines",14.48441,121.1869,PLDT,132779,144966,132.78,144.97,3,13739,3959,6255
"Cabanatuan City, Nueva Ecija, Philippines",15.49943,121.01057,Globe,119240,106134,119.24,106.13,6,13587,2955,4351
"Silang, Cavite, Philippines",14.22025,120.96469,PLDT Home Fiber,146810,133753,146.81,133.75,5,13497,3425,5280
"Baguio, Benguet, Philippines",16.41297,120.5914,Converge,95748,100876,95.75,100.88,4,13475,3403,4780
"Baguio, Benguet, Philippines",16.41297,120.5914,PLDT,92633,94053,92.63,94.05,6,13459,3186,4708
"San Pablo City, Laguna, Philippines",14.06422,121.32326,PLDT Home Fiber,126254,160652,126.25,160.65,6,12943,2798,4294
"Parañaque, Metro Manila, Philippines",14.47929,121.01985,Globe,157345,130522,157.35,130.52,4,12880,3262,4558
"Subic Bay Freeport Zone, Philippines",14.80319,120.30033,Converge,116681,114219,116.68,114.22,5,12844,2975,4506
"Talakag, Bukidnon, Philippines",8.05293,124.72988,PLDT Home Fiber,94198,94677,94.20,94.68,6,12837,3585,5571
"Marikina, Metro Manila, Philippines",14.63493,121.10195,PLDT Home Fiber,184870,168719,184.87,168.72,3,12757,3106,4417
"Dasmariñas, Cavite, Philippines",14.33385,120.95423,Converge,202245,187420,202.25,187.42,5,12600,3052,4986
"Santa Maria, Bulacan, Philippines",14.82898,120.97616,Converge,180450,122990,180.45,122.99,7,12253,2998,4797
"Biñan, Laguna, Philippines",14.31456,121.08316,PLDT Home Fiber,115713,125678,115.71,125.68,8,12251,2932,4382
"Burgos, La Union, Philippines",16.53803,120.47033,Converge,98058,105115,98.06,105.12,4,12169,3093,4884
"San Juan City, Metro Manila, Philippines",14.60196,121.0355,PLDT Home Fiber,167155,157612,167.16,157.61,3,11709,2764,3988
"San Carlos City, Negros Occidental, Philippines",10.48344,123.30371,PLDT Home Fiber,144308,165393,144.31,165.39,7,11252,3495,5063
"Iligan City, Lanao del Norte, Philippines",8.22707,124.46418,Converge,147474,138098,147.47,138.10,9,11146,2986,4587
"Cagayan De Oro City, Misamis Oriental, Philippines",8.48029,124.64975,Converge,108651,110104,108.65,110.10,9,11126,2418,3318
"Tarlac City, Tarlac, Philippines",15.48808,120.58719,PLDT,89388,92768,89.39,92.77,9,11023,2648,3869
"Taytay, Rizal, Philippines",14.55288,121.12571,Converge,205828,205396,205.83,205.40,3,10944,2468,4011
"Tanauan City, Batangas, Philippines",14.08354,121.14762,PLDT,96328,98249,96.33,98.25,7,10867,2722,4213
"San Antonio, Nueva Ecija, Philippines",15.31921,120.82692,Globe,203298,194026,203.30,194.03,5,10832,2914,4514
"Iloilo City, Iloilo, Philippines",10.73019,122.55911,PLDT Home Fiber,94286,99127,94.29,99.13,10,10781,2141,3273
"Malabon, Metro Manila, Philippines",14.65793,120.95118,Converge,184454,184189,184.45,184.19,4,10652,2025,3343
"Muntinlupa, Metro Manila, Philippines",14.39453,121.04483,Converge,173460,178213,173.46,178.21,5,10371,2249,3188
"Tarlac City, Tarlac, Philippines",15.48808,120.58719,Globe,116936,104829,116.94,104.83,5,10344,2381,3734
"Santo Domingo, Nueva Ecija, Philippines",15.61284,120.88434,Globe,155482,153017,155.48,153.02,6,10329,2606,3877
"San Juan City, Metro Manila, Philippines",14.60196,121.0355,Converge,151532,145227,151.53,145.23,4,10201,2597,4186
"Calapan City, Oriental Mindoro, Philippines",13.36643,121.19395,Converge,94508,94448,94.51,94.45,11,10057,1757,3249
"Bacolod, Negros Occidental, Philippines",10.66764,122.94556,PLDT,73755,79850,73.76,79.85,9,10028,2039,2825
"Mandaluyong City, Metro Manila, Philippines",14.57627,121.03924,PLDT Home Fiber,196557,182410,196.56,182.41,3,9854,2137,2707
"Bago, Negros Occidental, Philippines",10.53757,122.83609,PLDT Home Fiber,126035,143724,126.04,143.72,8,9813,3048,4499
"Malolos, Bulacan, Philippines",14.86049,120.80916,PLDT Home Fiber,98458,114858,98.46,114.86,7,9773,2163,3164
"Olongapo City, Zambales, Philippines",14.88739,120.36661,Converge,106494,108456,106.49,108.46,5,9766,2473,3978
"Tagaytay City, Cavite, Philippines",14.11541,120.96202,Converge,138511,123353,138.51,123.35,6,9669,2118,3597
"Magpet, Cotabato, Philippines",7.1332,125.17087,PLDT,126225,97085,126.23,97.09,12,9568,2964,4320
"Marikina, Metro Manila, Philippines",14.63493,121.10195,Globe,179383,151683,179.38,151.68,5,9441,2369,3609
"Iloilo City, Iloilo, Philippines",10.73019,122.55911,Converge,101121,98137,101.12,98.14,13,9406,1809,2782
"Bacolod, Negros Occidental, Philippines",10.66764,122.94556,Converge,122093,114227,122.09,114.23,13,9390,1889,2780
"Antipolo City, 1870 Rizal, Philippines",14.58584,121.17569,PLDT,65850,68598,65.85,68.60,8,9365,2160,3155
"New Lucena, Iloilo, Philippines",10.87841,122.59781,Converge,142559,127256,142.56,127.26,12,9257,2137,4038
"Cabuyao City, Laguna, Philippines",14.27433,121.11961,PLDT Home Fiber,141813,141460,141.81,141.46,6,9056,2137,3153
"Murcia, Negros Occidental, Philippines",10.60643,123.03944,PLDT Home Fiber,131431,131559,131.43,131.56,8,8994,2553,3748
"Kawit, Cavite, Philippines",14.44588,120.90871,PLDT Home Fiber,95964,100097,95.96,100.10,8,8876,2244,3366
"San Rafael, Bulacan, Philippines",15.00184,120.93141,PLDT Home Fiber,114353,108933,114.35,108.93,7,8565,2295,3616
"Magpet, Cotabato, Philippines",7.1332,125.17087,Globe,63095,92679,63.10,92.68,5,8538,2510,3835
"Subic, Zambales, Philippines",14.83066,120.18202,Converge,106176,108353,106.18,108.35,5,8445,2241,3621
"Danao, Cebu, Philippines",10.52013,124.02712,Globe,119414,104589,119.41,104.59,7,8397,2591,3852
"Bacoor, Cavite, Philippines",14.43122,120.96567,Converge,167517,151486,167.52,151.49,6,8365,1865,2908
"San Nicolas, Pangasinan, Philippines",16.12066,120.78097,PLDT,94085,94867,94.09,94.87,6,8309,2384,3840
"Urdaneta City, Pangasinan, Philippines",15.98194,120.59698,Converge,98712,108447,98.71,108.45,5,8262,2078,3256
"Manila, Metro Manila, Philippines",14.59951,120.98423,Globe,177454,138492,177.45,138.49,5,8092,1733,2348
"Cainta, Rizal, Philippines",14.58056,121.11565,PLDT,88004,91642,88.00,91.64,6,8049,1995,2799
"Angeles, Pampanga, Philippines",15.16061,120.60908,PLDT Home Fiber,111975,99788,111.98,99.79,8,8015,1763,2602
"Iloilo City, Iloilo, Philippines",10.73019,122.55911,PLDT,82433,85242,82.43,85.24,8,7938,1792,2533
"Mandaluyong City, Metro Manila, Philippines",14.57627,121.03924,PLDT,59381,48141,59.38,48.14,10,7935,2046,3078
"Cainta, Rizal, Philippines",14.58056,121.11565,Globe,186039,155606,186.04,155.61,5,7859,1757,2302
"Naga City, Camarines Sur, Philippines",13.6475,123.27003,PLDT Home Fiber,108230,107207,108.23,107.21,7,7845,1645,2476
"Valenzuela, Metro Manila, Philippines",14.69247,120.96991,PLDT,68369,77353,68.37,77.35,7,7697,1791,2557
"City of Santa Rosa, Laguna, Philippines",14.31471,121.11232,PLDT Home Fiber,112083,118450,112.08,118.45,8,7682,1273,1790
"General Santos City (Dadiangas), South Cotabato, Philippines",6.14327,125.19286,PLDT Home Fiber,107928,94289,107.93,94.29,11,7650,1234,1507
"Santa Barbara, Pangasinan, Philippines",15.9774,120.42424,Converge,110378,109357,110.38,109.36,5,7608,1920,3078
"Nasugbu, Batangas, Philippines",14.09404,120.68901,Globe,116542,105545,116.54,105.55,7,7591,1687,2467
"Dagupan City, Pangasinan, Philippines",16.03375,120.33202,PLDT Home Fiber,94535,94718,94.54,94.72,7,7361,1789,2734
"Mexico, Pampanga, Philippines",15.06457,120.72033,PLDT Home Fiber,99518,99565,99.52,99.57,8,7333,1849,2932
"Zamboanga City, Zamboanga del Sur, Philippines",6.90437,122.07612,PLDT Home Fiber,111508,93445,111.51,93.45,11,7286,1208,1549
"Kawit, Cavite, Philippines",14.44588,120.90871,PLDT,92828,94478,92.83,94.48,10,7170,1814,2847
"San Mateo, Rizal, Philippines",14.69539,121.11767,PLDT Home Fiber,163785,162285,163.79,162.29,3,7165,1488,2108
"Candaba, Pampanga, Philippines",15.09289,120.8277,PLDT Home Fiber,98592,99798,98.59,99.80,7,7093,2066,3264
"General Trias, Cavite, Philippines",14.38159,120.87915,Globe,218640,191388,218.64,191.39,6,7048,1528,2161
"Marilao, Bulacan, Philippines",14.77237,120.96001,Converge,166348,126867,166.35,126.87,7,6920,1212,1771
"Victoria, Tarlac, Philippines",15.59077,120.68901,Globe,61402,53565,61.40,53.57,5,6900,1376,3198
"Cardona, Rizal, Philippines",14.48493,121.232,PLDT,161365,169075,161.37,169.08,3,6814,2097,3260
"Santa Cruz, Davao del Sur, Philippines",6.83551,125.41659,Converge,136753,128454,136.75,128.45,4,6735,1891,2877
"Baliwag, Bulacan, Philippines",14.96569,120.89431,PLDT Home Fiber,106977,111643,106.98,111.64,8,6680,1605,2274
"Kawit, Cavite, Philippines",14.44588,120.90871,Globe,178339,144505,178.34,144.51,6,6554,1482,2095
"Bacoor, Cavite, Philippines",14.43122,120.96567,Globe,192381,160834,192.38,160.83,6,6548,1373,1753
"Batangas City, Batangas, Philippines",13.75641,121.05833,PLDT Home Fiber,117090,121934,117.09,121.93,8,6479,1714,2456
"Taytay, Rizal, Philippines",14.55288,121.12571,PLDT,81807,88741,81.81,88.74,6,6344,1820,2694
"SJDM, Bulacan, Philippines",14.82867,121.04324,PLDT,72672,71491,72.67,71.49,9,6264,1355,1914
"Valenzuela, Metro Manila, Philippines",14.69247,120.96991,Globe,188599,157843,188.60,157.84,4,6196,1118,1460
"City of Santa Rosa, Laguna, Philippines",14.31471,121.11232,PLDT,90428,90735,90.43,90.74,8,6179,1531,2188
"Antipolo City, 1870 Rizal, Philippines",14.58584,121.17569,Globe,161248,149484,161.25,149.48,5,6144,1200,1517
"Las Piñas, Metro Manila, Philippines",14.44934,120.98186,Converge,173360,166885,173.36,166.89,4,6132,1175,1671
"Banga, South Cotabato, Philippines",6.38791,124.79617,PLDT Home Fiber,75410,72182,75.41,72.18,11,6028,1130,1702
"San Pedro, Laguna, Philippines",14.36443,121.06192,PLDT Home Fiber,145726,137398,145.73,137.40,5,5966,1201,1500
"Santa Maria, Bulacan, Philippines",14.82898,120.97616,PLDT Home Fiber,131185,112451,131.19,112.45,8,5957,1355,1881
"Danao, Cebu, Philippines",10.52013,124.02712,PLDT Home Fiber,147111,174206,147.11,174.21,5,5952,1694,2587
"Arayat, Pampanga, Philippines",15.15443,120.771,PLDT Home Fiber,95609,94621,95.61,94.62,9,5911,1604,2557
"Marilao, Bulacan, Philippines",14.77237,120.96001,PLDT Home Fiber,103120,98349,103.12,98.35,9,5867,1197,1678
"Santo Tomas, Batangas, Philippines",14.08754,121.17764,PLDT Home Fiber,108552,138538,108.55,138.54,9,5862,1241,1767
"Meycauayan, Bulacan, Philippines",14.73772,120.96077,PLDT Home Fiber,103935,97839,103.94,97.84,10,5755,1314,1855
"Rodriguez, Rizal, Philippines",14.73202,121.14516,PLDT Home Fiber,127843,151877,127.84,151.88,4,5753,1031,1280
"Cabanatuan City, Nueva Ecija, Philippines",15.49943,121.01057,PLDT Home Fiber,83693,93668,83.69,93.67,11,5749,1165,1607
"Umingan, Pangasinan, Philippines",15.90396,120.82692,Globe,61081,53536,61.08,53.54,6,5682,1225,2591
"Calamba, Laguna, Philippines",14.19488,121.15974,Globe,142971,135503,142.97,135.50,6,5656,1463,2098
"Bansalan, Davao del Sur, Philippines",6.84825,125.22584,PLDT Home Fiber,110898,103210,110.90,103.21,9,5487,1618,2357
"Lucena City, Quezon, Philippines",13.94139,121.62345,PLDT Home Fiber,98460,113693,98.46,113.69,5,5474,1316,1951
"Bago, Negros Occidental, Philippines",10.53757,122.83609,Globe,115670,105414,115.67,105.41,4,5465,1507,2258
"Mabalacat City, Pampanga, Philippines",15.24525,120.56567,Converge,115475,119775,115.48,119.78,3,5419,1098,1451
"Cainta, Rizal, Philippines",14.58056,121.11565,Converge,162311,153824,162.31,153.82,3,5345,1212,1571
"Bamban, Tarlac, Philippines",15.2885,120.57044,Converge,155327,156993,155.33,156.99,3,5319,1430,2159
"Silang, Cavite, Philippines",14.22025,120.96469,PLDT,99910,106944,99.91,106.94,7,5256,1478,2174
"Lipa City, Batangas, Philippines",13.94047,121.19395,Globe,135585,134054,135.59,134.05,7,5238,1367,2019
"Pasay City, Metro Manila, Philippines",14.53767,121.00081,Converge,187188,185032,187.19,185.03,4,5198,1184,1605
"Las Piñas, Metro Manila, Philippines",14.44934,120.98186,Globe,213825,159679,213.83,159.68,5,5122,1019,1281
"Lapu-Lapu, Cebu, Philippines",10.31838,123.96395,Converge,125196,153909,125.20,153.91,3,5096,907,1304
"Marikina, Metro Manila, Philippines",14.63493,121.10195,PLDT,67720,75499,67.72,75.50,10,5046,1269,1807
"Tarlac City, Tarlac, Philippines",15.48808,120.58719,PLDT Home Fiber,100060,98155,100.06,98.16,10,5027,1193,1721
"Cadiz City, Negros Occidental, Philippines",10.86192,123.23632,PLDT Home Fiber,89327,92786,89.33,92.79,8,4869,1068,1698
"Matalam, Cotabato, Philippines",7.17236,124.92861,PLDT Home Fiber,109175,94919,109.18,94.92,9,4853,1617,2281
"Toledo, Cebu, Philippines",10.38705,123.65017,Globe,115151,102579,115.15,102.58,17,4821,1570,2164
"General Mamerto Natividad, Nueva Ecija, Philippines",15.58788,121.04498,Converge,99483,108706,99.48,108.71,6,4778,1039,1858
"Silay, Negros Occidental, Philippines",10.79968,122.97605,PLDT,80131,78635,80.13,78.64,23,4669,967,1554
"Nagcarlan, Laguna, Philippines",14.14903,121.38847,PLDT Home Fiber,150411,173179,150.41,173.18,8,4515,1050,1686
"Mauban, Quezon, Philippines",14.23756,121.69674,Converge,104959,106148,104.96,106.15,11,4498,890,1526
"Candaba, Pampanga, Philippines",15.09289,120.8277,Converge,157674,173770,157.67,173.77,4,4412,1188,1798
"Talavera, Nueva Ecija, Philippines",15.58575,120.9197,Converge,99613,109369,99.61,109.37,5,4409,1012,1841
"Lipa City, Batangas, Philippines",13.94047,121.19395,Converge,129780,125510,129.78,125.51,7,4390,857,1358
"Bokod, Benguet, Philippines",16.45641,120.78097,PLDT Home Fiber,116652,99736,116.65,99.74,5,4364,1314,1983
"Lipa City, Batangas, Philippines",13.94047,121.19395,PLDT,93958,96743,93.96,96.74,8,4347,1253,1689
"Pitogo, Quezon, Philippines",13.80951,122.10647,Converge,103283,97142,103.28,97.14,10,4288,915,1500
"Calatrava, Negros Occidental, Philippines",10.62843,123.39349,PLDT,100138,106786,100.14,106.79,6,4286,1257,1830
"SJDM, Bulacan, Philippines",14.82867,121.04324,PLDT Home Fiber,116661,109030,116.66,109.03,5,4281,947,1286
"Zamboanga City, Zamboanga del Sur, Philippines",6.90437,122.07612,Globe,116064,103194,116.06,103.19,14,4232,520,664
"Polomolok, South Cotabato, Philippines",6.22451,125.06084,PLDT Home Fiber,96591,94775,96.59,94.78,11,4184,948,1386
"Manaoag, Pangasinan, Philippines",16.04627,120.4876,Converge,98400,106398,98.40,106.40,5,4179,1193,1938
"Malolos, Bulacan, Philippines",14.86049,120.80916,PLDT,71946,90707,71.95,90.71,8,4160,943,1319
"Compostela, Cebu, Philippines",10.45408,124.013,Globe,64734,57111,64.73,57.11,6,4157,1284,2100
"City of Tayabas, Quezon, Philippines",14.01135,121.55983,PLDT Home Fiber,152187,165618,152.19,165.62,8,4120,1152,1777
"San Nicolas, Pangasinan, Philippines",16.12066,120.78097,PLDT Home Fiber,94358,94844,94.36,94.84,6,4116,1198,1866
"Lucena City, Quezon, Philippines",13.94139,121.62345,PLDT,111078,107165,111.08,107.17,5,4116,1171,1702
"Lapu-Lapu, Cebu, Philippines",10.31838,123.96395,PLDT Home Fiber,162736,196129,162.74,196.13,3,4115,760,946
"Silang, Cavite, Philippines",14.22025,120.96469,Globe,94477,94306,94.48,94.31,6,4109,1030,1677
"San Pedro, Laguna, Philippines",14.36443,121.06192,Converge,183030,142608,183.03,142.61,6,4037,644,1021
"Lapu-Lapu, Cebu, Philippines",10.31838,123.96395,Globe,133738,132915,133.74,132.92,5,4033,687,853
"Imus, Cavite, Philippines",14.42764,120.93724,Globe,202563,175619,202.56,175.62,5,4026,1003,1407
"Pasay City, Metro Manila, Philippines",14.53767,121.00081,Globe,212727,196862,212.73,196.86,5,4025,956,1509
"Magsaysay, Davao del Sur, Philippines",6.75271,125.15221,PLDT Home Fiber,112346,97367,112.35,97.37,9,4019,1237,1753
"Alicia, Isabela, Philippines",16.80691,121.69674,Converge,99231,108634,99.23,108.63,8,3991,847,1447
"San Manuel, Pangasinan, Philippines",16.10561,120.67751,PLDT Home Fiber,99710,106120,99.71,106.12,6,3988,1159,1741
"City of Guihulngan, Negros Oriental, Philippines",10.18323,123.21385,PLDT Home Fiber,93595,99178,93.60,99.18,7,3975,1122,1607
"Angono, Rizal, Philippines",14.52592,121.15321,PLDT,94803,97082,94.80,97.08,4,3913,1319,1949
"General Santos City (Dadiangas), South Cotabato, Philippines",6.14327,125.19286,Globe,100189,104464,100.19,104.46,15,3868,481,595
"Santa Fe, Nueva Vizcaya, Philippines",16.18249,120.91878,PLDT Home Fiber,100974,101046,100.97,101.05,6,3842,1057,1660
"Mandaue, Cebu, Philippines",10.3279,123.94273,Globe,154406,133872,154.41,133.87,5,3794,621,794
"San Fernando, Pampanga, Philippines",15.02781,120.69349,PLDT,71432,68918,71.43,68.92,12,3778,1065,1538
"Diadi, Nueva Vizcaya, Philippines",16.6595,121.33129,Converge,97680,108072,97.68,108.07,9,3775,823,1579
"Panglao, Bohol, Philippines",9.56947,123.78721,Converge,63731,61617,63.73,61.62,26,3764,216,343
"Bulakan, Bulacan, Philippines",14.79484,120.87889,PLDT,88298,93187,88.30,93.19,5,3752,1056,1583
"Tacurong City, Sultan Kudarat, Philippines",6.6866,124.66353,PLDT Home Fiber,92891,92794,92.89,92.79,11,3745,746,1055
"Candelaria, Quezon, Philippines",13.94899,121.42276,PLDT Home Fiber,100526,109553,100.53,109.55,6,3731,986,1458
"Arakan, Cotabato, Philippines",7.35122,125.17087,PLDT,98328,95381,98.33,95.38,12,3684,1128,1590
"Concepcion, Tarlac, Philippines",15.324,120.65596,PLDT Home Fiber,98666,94729,98.67,94.73,10,3640,788,1169
"Candaba, Pampanga, Philippines",15.09289,120.8277,Globe,188774,158119,188.77,158.12,6,3633,831,1353
"Compostela, Cebu, Philippines",10.45408,124.013,Converge,143652,177802,143.65,177.80,2,3631,1068,1599
"Santa Ana, Pampanga, Philippines",15.09442,120.76623,Converge,153511,160360,153.51,160.36,4,3625,1104,1692
"Bocaue, Bulacan, Philippines",14.7943,120.93073,PLDT Home Fiber,94886,95240,94.89,95.24,9,3587,822,1160
"Bocaue, Bulacan, Philippines",14.7943,120.93073,Converge,150888,120835,150.89,120.84,7,3581,802,1198
"Kidapawan, Cotabato, Philippines",7.02127,125.09019,PLDT Home Fiber,94596,99038,94.60,99.04,10,3574,901,1259
"Consolacion, Cebu, Philippines",10.37581,123.95694,Globe,74882,73121,74.88,73.12,6,3564,884,1369
"San Miguel, Bulacan, Philippines",15.14158,120.9751,PLDT Home Fiber,95884,98215,95.88,98.22,8,3549,859,1306
"Binangonan, Rizal, Philippines",14.48441,121.1869,PLDT Home Fiber,140157,139734,140.16,139.73,3,3514,873,1296
"Lapu-Lapu, Cebu, Philippines",10.31838,123.96395,PLDT,89000,95458,89.00,95.46,3,3492,675,955
"Tagum, Davao del Norte, Philippines",7.44742,125.80246,PLDT Home Fiber,94156,94648,94.16,94.65,8,3490,750,965
"Subic Bay Freeport Zone, Philippines",14.80319,120.30033,PLDT,56122,66095,56.12,66.10,13,3458,890,1329
"Dolores, Quezon, Philippines",14.00193,121.41133,Converge,110375,183037,110.38,183.04,5,3440,801,1369
"Mandaue, Cebu, Philippines",10.3279,123.94273,PLDT Home Fiber,146007,149428,146.01,149.43,3,3395,755,948
"Obando, Bulacan, Philippines",14.70986,120.93674,PLDT,84833,92694,84.83,92.69,6,3393,924,1412
"Mandaue, Cebu, Philippines",10.3279,123.94273,Converge,147126,147923,147.13,147.92,3,3393,677,977
"Koronadal, South Cotabato, Philippines",6.50044,124.84333,PLDT Home Fiber,95192,91404,95.19,91.40,11,3338,504,634
"La Castellana, Negros Occidental, Philippines",10.33198,123.10141,PLDT Home Fiber,94313,110020,94.31,110.02,7,3296,782,1129
"Tanza, Cavite, Philippines",14.34293,120.85032,PLDT Home Fiber,168403,164926,168.40,164.93,4,3263,664,862
"San Pedro, Laguna, Philippines",14.36443,121.06192,PLDT,105854,97718,105.85,97.72,7,3244,774,1069
"Balanga City, Bataan, Philippines",14.67454,120.47033,PLDT Home Fiber,81094,132868,81.09,132.87,9,3234,499,643
"Malabon, Metro Manila, Philippines",14.65793,120.95118,PLDT,93005,96236,93.01,96.24,4,3221,613,873
"Sariaya, Quezon, Philippines",13.96301,121.52388,Converge,170377,188440,170.38,188.44,5,3221,839,1417
"Malvar, Batangas, Philippines",14.04329,121.15875,Converge,123970,151258,123.97,151.26,6,3204,670,1149
"Jamindan, Capiz, Philippines",11.39423,122.42407,Converge,132528,120074,132.53,120.07,13,3189,747,1434
"San Juan City, Metro Manila, Philippines",14.60196,121.0355,Globe,161737,154227,161.74,154.23,5,3145,872,1265
"San Antonio, Nueva Ecija, Philippines",15.31921,120.82692,PLDT Home Fiber,94472,94762,94.47,94.76,10,3145,929,1443
"Cabiao, Nueva Ecija, Philippines",15.25221,120.85957,Converge,121357,150961,121.36,150.96,4,3144,878,1389
"Balamban, Cebu, Philippines",10.48585,123.77412,Globe,140182,107279,140.18,107.28,7,3136,845,1310
"Liloan, Cebu, Philippines",10.39926,124.00002,Converge,144911,190584,144.91,190.58,3,3133,808,1237
"Kayapa, Nueva Vizcaya, Philippines",16.49326,120.94174,PLDT,94530,94855,94.53,94.86,6,3129,902,1396
"Calauan, Laguna, Philippines",14.14551,121.3146,PLDT Home Fiber,115975,138147,115.98,138.15,8,3119,785,1284
"City of Santa Rosa, Laguna, Philippines",14.31471,121.11232,Converge,124921,116444,124.92,116.44,6,3116,577,895
"Navotas, Metro Manila, Philippines",14.65819,120.94743,PLDT Home Fiber,154929,169651,154.93,169.65,4,3108,687,903
"Rosario, Batangas, Philippines",13.80433,121.28552,Globe,124937,117616,124.94,117.62,7,3098,957,1457
"Baguio, Benguet, Philippines",16.41297,120.5914,Globe,114645,106706,114.65,106.71,6,3096,566,783
"Angeles, Pampanga, Philippines",15.16061,120.60908,PLDT,69010,74255,69.01,74.26,9,3095,960,1441
"Dagupan City, Pangasinan, Philippines",16.03375,120.33202,PLDT,80165,84466,80.17,84.47,6,3087,692,1097
"Malasiqui, Pangasinan, Philippines",15.92028,120.41443,PLDT Home Fiber,104879,115502,104.88,115.50,8,3084,737,1197
"Angat, Bulacan, Philippines",14.92586,121.02204,PLDT Home Fiber,132019,134226,132.02,134.23,8,3053,669,975
"Lucban, Quezon, Philippines",14.1144,121.55472,PLDT Home Fiber,143900,147981,143.90,147.98,8,3041,830,1344
"Dagupan City, Pangasinan, Philippines",16.03375,120.33202,Converge,92740,94416,92.74,94.42,6,3027,626,894
"Batangas City, Batangas, Philippines",13.75641,121.05833,PLDT,94176,94615,94.18,94.62,9,3023,816,1228
"Arakan, Cotabato, Philippines",7.35122,125.17087,PLDT Home Fiber,97802,94760,97.80,94.76,9,3017,1002,1437
"President Roxas, Cotabato, Philippines",7.37928,125.06084,PLDT,104276,97005,104.28,97.01,11,3007,1042,1467
"Angono, Rizal, Philippines",14.52592,121.15321,PLDT Home Fiber,118280,129217,118.28,129.22,4,3003,575,776
"San Ildefonso, Bulacan, Philippines",15.07717,120.94171,PLDT Home Fiber,97456,96532,97.46,96.53,7,2946,835,1297
"President Roxas, Cotabato, Philippines",7.37928,125.06084,PLDT Home Fiber,146166,97196,146.17,97.20,9,2930,890,1258
"Mandaue, Cebu, Philippines",10.3279,123.94273,PLDT,73523,75126,73.52,75.13,4,2899,565,806
"General Santos City (Dadiangas), South Cotabato, Philippines",6.14327,125.19286,PLDT,74729,64408,74.73,64.41,17,2862,614,844
"Tagaytay City, Cavite, Philippines",14.11541,120.96202,PLDT,96376,95451,96.38,95.45,9,2856,787,1282
"Lucena City, Quezon, Philippines",13.94139,121.62345,Converge,103510,105844,103.51,105.84,10,2853,497,762
"Naic, Cavite, Philippines",14.29649,120.79246,PLDT,83178,89884,83.18,89.88,8,2848,626,895
"Tuguegarao City, Cagayan, Philippines",17.60306,121.75374,PLDT,85186,87292,85.19,87.29,13,2846,689,962
"Rosario, Cavite, Philippines",14.41672,120.85471,Converge,173724,186761,173.72,186.76,6,2827,613,958
"Kibungan, Benguet, Philippines",16.68162,120.68901,PLDT Home Fiber,94981,94742,94.98,94.74,5,2820,922,1404
"Cabiao, Nueva Ecija, Philippines",15.25221,120.85957,Globe,152361,129194,152.36,129.19,6,2801,654,1001
"General Trias, Cavite, Philippines",14.38159,120.87915,PLDT,127745,127250,127.75,127.25,8,2791,579,756
"Carmen, Cebu, Philippines",10.58876,123.96385,PLDT Home Fiber,141305,194608,141.31,194.61,5,2788,940,1362
"Malaybalay City, Bukidnon, Philippines",8.15775,125.17087,PLDT Home Fiber,100628,104471,100.63,104.47,9,2787,612,863
"Kabacan, Cotabato, Philippines",7.10719,124.84034,PLDT Home Fiber,101353,94644,101.35,94.64,9,2787,804,1137
"Sagay City, Negros Occidental, Philippines",10.84555,123.37106,PLDT Home Fiber,89092,94195,89.09,94.20,8,2778,649,968
"Cabuyao City, Laguna, Philippines",14.27433,121.11961,PLDT,93856,94600,93.86,94.60,9,2775,619,909
"Pandi, Bulacan, Philippines",14.87572,120.95941,PLDT Home Fiber,104034,94790,104.03,94.79,8,2760,835,1231
"City of Santa Rosa, Laguna, Philippines",14.31471,121.11232,Globe,190147,166875,190.15,166.88,6,2748,703,1015
"Muntinlupa, Metro Manila, Philippines",14.39453,121.04483,Globe,189077,175191,189.08,175.19,6,2734,547,695
"Santa Fe, Nueva Vizcaya, Philippines",16.18249,120.91878,PLDT,94174,94717,94.17,94.72,6,2710,716,1139
"Obando, Bulacan, Philippines",14.70986,120.93674,PLDT Home Fiber,135013,133598,135.01,133.60,5,2696,708,995
"Isabela, Basilan, Philippines",6.70387,121.9799,Globe,100737,90832,100.74,90.83,15,2679,67,86
"Cabanatuan City, Nueva Ecija, Philippines",15.49943,121.01057,PLDT,71450,75292,71.45,75.29,12,2666,626,919
"Cagayan De Oro City, Misamis Oriental, Philippines",8.48029,124.64975,PLDT,68776,64571,68.78,64.57,16,2646,679,965
"Puerto Princesa City, Palawan, Philippines",9.78563,118.62648,PLDT Home Fiber,75241,93262,75.24,93.26,19,2603,462,609
"Zaragoza, Nueva Ecija, Philippines",15.46003,120.79246,Globe,252730,226424,252.73,226.42,5,2589,686,1169
"Talisay, Cebu, Philippines",10.25859,123.82413,PLDT,138949,138348,138.95,138.35,3,2587,484,616
"Daet, Camarines Norte, Philippines",14.10303,122.9325,PLDT,89160,86330,89.16,86.33,10,2585,499,658
"Cabiao, Nueva Ecija, Philippines",15.25221,120.85957,PLDT Home Fiber,136060,112520,136.06,112.52,9,2559,825,1259
"Tuguegarao City, Cagayan, Philippines",17.60306,121.75374,Converge,74379,72488,74.38,72.49,12,2551,527,765
"Digos, Davao del Sur, Philippines",6.74347,125.35515,PLDT Home Fiber,104837,101503,104.84,101.50,9,2532,743,1018
"Bay, Laguna, Philippines",14.14064,121.26836,PLDT Home Fiber,130409,143573,130.41,143.57,4,2526,622,988
"Laoag City, Ilocos Norte, Philippines",18.21075,120.58547,Converge,95727,105526,95.73,105.53,11,2517,679,1090
"Carmen, Cebu, Philippines",10.58876,123.96385,Globe,126021,105007,126.02,105.01,8,2516,763,1164
"Carmona, Cavite, Philippines",14.3135,121.05712,PLDT,146015,141559,146.02,141.56,7,2501,558,741
"Talisay, Cebu, Philippines",10.25859,123.82413,PLDT Home Fiber,149142,144555,149.14,144.56,4,2484,422,532
"San Mateo, Rizal, Philippines",14.69539,121.11767,Converge,157670,150150,157.67,150.15,4,2465,544,720
"Roxas City, Capiz, Philippines",11.55288,122.74072,PLDT Home Fiber,98702,106140,98.70,106.14,10,2453,366,526
"Malvar, Batangas, Philippines",14.04329,121.15875,PLDT Home Fiber,99904,102095,99.90,102.10,9,2451,626,908
"Marilao, Bulacan, Philippines",14.77237,120.96001,PLDT,74586,76430,74.59,76.43,11,2440,624,884
"Santa Rita, Pampanga, Philippines",14.99762,120.61451,PLDT Home Fiber,130872,122625,130.87,122.63,8,2428,675,1047
"Matanao, Davao del Sur, Philippines",6.70421,125.22584,PLDT Home Fiber,110255,109827,110.26,109.83,9,2372,727,1011
"Imus, Cavite, Philippines",14.42764,120.93724,PLDT,119318,119741,119.32,119.74,7,2363,593,759
"Dipolog City, Zamboanga del Norte, Philippines",8.58717,123.34035,PLDT Home Fiber,96387,96544,96.39,96.54,11,2351,376,485
"Tacloban City, Leyte, Philippines",11.22238,124.99221,PLDT,86023,91604,86.02,91.60,6,2346,515,695
"Orani, Bataan, Philippines",14.80086,120.53616,Converge,99803,95409,99.80,95.41,6,2342,660,899
"Consolacion, Cebu, Philippines",10.37581,123.95694,PLDT Home Fiber,164050,208931,164.05,208.93,5,2336,537,764
"San Simon, Pampanga, Philippines",14.98432,120.75127,PLDT Home Fiber,93285,94067,93.29,94.07,8,2334,490,800
"Sariaya, Quezon, Philippines",13.96301,121.52388,PLDT Home Fiber,99917,112458,99.92,112.46,5,2328,618,936
"Santo Tomas, Davao del Norte, Philippines",7.50929,125.63142,PLDT Home Fiber,93884,92958,93.88,92.96,9,2327,392,573
"Tagum, Davao del Norte, Philippines",7.44742,125.80246,Globe,120985,110363,120.99,110.36,5,2323,285,363
"Malolos, Bulacan, Philippines",14.86049,120.80916,Converge,106268,106619,106.27,106.62,6,2317,434,607
"Baliwag, Bulacan, Philippines",14.96569,120.89431,PLDT,73537,74734,73.54,74.73,8,2283,470,638
"San Juan, Batangas, Philippines",13.75044,121.37703,PLDT Home Fiber,93367,94667,93.37,94.67,8,2272,584,906
"Navotas, Metro Manila, Philippines",14.65819,120.94743,Converge,199644,185479,199.64,185.48,4,2270,377,552
"Danao, Cebu, Philippines",10.52013,124.02712,PLDT,50821,62245,50.82,62.25,7,2261,295,376
"Talisay, Negros Occidental, Philippines",10.74828,122.98012,PLDT,71337,66398,71.34,66.40,19,2233,432,663
"Porac, Pampanga, Philippines",15.06974,120.55007,PLDT Home Fiber,131847,133985,131.85,133.99,7,2231,553,795
"Taytay, Rizal, Philippines",14.55288,121.12571,Globe,218383,184803,218.38,184.80,5,2228,383,470
"Angono, Rizal, Philippines",14.52592,121.15321,Converge,222456,201047,222.46,201.05,3,2226,580,857
"Silay, Negros Occidental, Philippines",10.79968,122.97605,PLDT Home Fiber,96138,107524,96.14,107.52,12,2222,585,914
"Santo Nino, Cagayan, Philippines",17.91267,121.49132,Converge,94718,94397,94.72,94.40,13,2219,526,987
"La Trinidad, Benguet, Philippines",16.44844,120.59047,PLDT Home Fiber,91938,93206,91.94,93.21,9,2218,558,789
"Cotabato City, Maguindanao, Philippines",7.20467,124.23104,PLDT Home Fiber,127563,113629,127.56,113.63,12,2209,413,513
"Marilao, Bulacan, Philippines",14.77237,120.96001,Globe,172490,161957,172.49,161.96,8,2207,371,480
"Biñan, Laguna, Philippines",14.31456,121.08316,Converge,105684,117746,105.68,117.75,6,2188,394,615
"San Fernando City, La Union, Philippines",16.61592,120.32102,PLDT Home Fiber,104275,94515,104.28,94.52,3,2188,330,434
"Malabon, Metro Manila, Philippines",14.65793,120.95118,Globe,161666,159246,161.67,159.25,5,2165,467,602
"Calumpit, Bulacan, Philippines",14.91518,120.7662,PLDT Home Fiber,116108,106663,116.11,106.66,7,2165,508,677
"Santa Maria, Bulacan, Philippines",14.82898,120.97616,Globe,161130,148827,161.13,148.83,8,2155,337,452
"Dumaguete City, Negros Oriental, Philippines",9.29841,123.29249,PLDT,88900,93731,88.90,93.73,9,2138,295,432
"San Jose City, Nueva Ecija, Philippines",15.79188,120.99008,Converge,101316,109124,101.32,109.12,5,2133,399,579
"Mambusao, Capiz, Philippines",11.44257,122.59383,Converge,102307,104654,102.31,104.65,13,2131,532,1046
"Mexico, Pampanga, Philippines",15.06457,120.72033,PLDT,57128,78597,57.13,78.60,16,2120,599,827
"San Jose City, Nueva Ecija, Philippines",15.79188,120.99008,PLDT,49800,57343,49.80,57.34,16,2101,323,458
"Bago, Negros Occidental, Philippines",10.53757,122.83609,PLDT,72184,73444,72.18,73.44,7,2094,259,344
"Talisay, Negros Occidental, Philippines",10.74828,122.98012,PLDT Home Fiber,97538,113358,97.54,113.36,10,2092,478,703
"Lagawe, Ifugao, Philippines",16.80825,121.19395,PLDT Home Fiber,98086,97304,98.09,97.30,8,2083,523,933
"Dolores, Quezon, Philippines",14.00193,121.41133,PLDT Home Fiber,135488,125041,135.49,125.04,5,2082,610,905
"Apalit, Pampanga, Philippines",14.95255,120.76688,PLDT Home Fiber,110051,116753,110.05,116.75,6,2050,458,714
"Kayapa, Nueva Vizcaya, Philippines",16.49326,120.94174,PLDT Home Fiber,94585,96640,94.59,96.64,6,2046,561,878
"Mariveles, Bataan, Philippines",14.4354,120.49003,PLDT Home Fiber,72367,83263,72.37,83.26,9,2041,243,313
"Mariveles, Bataan, Philippines",14.4354,120.49003,Converge,107587,107612,107.59,107.61,9,2033,264,363
"General Mariano Alvarez, Cavite, Philippines",14.29525,121.0071,PLDT,105190,106712,105.19,106.71,7,2007,514,682
"San Jose City, Nueva Ecija, Philippines",15.79188,120.99008,PLDT Home Fiber,85202,86151,85.20,86.15,13,1992,255,340
"Santa Maria, Bulacan, Philippines",14.82898,120.97616,PLDT,73995,69631,74.00,69.63,13,1990,514,710
"Baras, Rizal, Philippines",14.53656,121.27408,PLDT Home Fiber,50131,123972,50.13,123.97,23,1984,178,226
"Antipas, Cotabato, Philippines",7.27386,125.01679,PLDT Home Fiber,102038,95399,102.04,95.40,8,1983,654,905
"Guagua, Pampanga, Philippines",14.96374,120.63244,Converge,47000,44425,47.00,44.43,5,1981,415,631
"Tagbilaran City, Bohol, Philippines",9.6534,123.86703,PLDT Home Fiber,97376,111800,97.38,111.80,10,1977,336,442
"Magalang, Pampanga, Philippines",15.21394,120.66181,PLDT Home Fiber,94404,94636,94.40,94.64,10,1969,490,816
"Santa Ana, Pampanga, Philippines",15.09442,120.76623,PLDT Home Fiber,93862,93837,93.86,93.84,9,1968,580,925
"Catmon, Cebu, Philippines",10.65242,123.9973,PLDT Home Fiber,125604,167970,125.60,167.97,6,1961,564,868
"Mabalacat City, Pampanga, Philippines",15.24525,120.56567,PLDT Home Fiber,146366,129589,146.37,129.59,7,1960,404,528
"Tuburan, Cebu, Philippines",10.66879,123.86345,Globe,150745,114691,150.75,114.69,9,1958,534,830
"SJDM, Bulacan, Philippines",14.82867,121.04324,Globe,172809,148344,172.81,148.34,8,1954,338,445
"Antipas, Cotabato, Philippines",7.27386,125.01679,PLDT,161269,125613,161.27,125.61,11,1954,606,841
"Morong, Rizal, Philippines",14.51286,121.23855,PLDT Home Fiber,152639,151618,152.64,151.62,3,1947,538,889
"Pagadian City, Zamboanga del Sur, Philippines",7.86265,123.37106,PLDT Home Fiber,111498,113229,111.50,113.23,6,1934,354,469
"Rodriguez, Rizal, Philippines",14.73202,121.14516,Converge,168399,164300,168.40,164.30,4,1928,497,611
"Liloan, Cebu, Philippines",10.39926,124.00002,Globe,174825,158734,174.83,158.73,5,1926,375,517
"Surallah, South Cotabato, Philippines",6.3195,124.75198,PLDT Home Fiber,71969,55190,71.97,55.19,12,1905,299,408
"Naga City, Camarines Sur, Philippines",13.6475,123.27003,Globe,116320,107572,116.32,107.57,12,1901,342,448
"Concepcion, Tarlac, Philippines",15.324,120.65596,PLDT,54248,53354,54.25,53.35,9,1892,376,486
"Lobo, Batangas, Philippines",13.6877,121.23974,Globe,154579,123643,154.58,123.64,8,1891,636,939
"Meycauayan, Bulacan, Philippines",14.73772,120.96077,Converge,163964,135170,163.96,135.17,7,1889,399,565
"Naga City, Camarines Sur, Philippines",13.6475,123.27003,PLDT,67737,65037,67.74,65.04,13,1865,427,615
"Alfonso, Cavite, Philippines",14.1214,120.86138,PLDT Home Fiber,102067,109319,102.07,109.32,6,1853,301,430
"San Miguel, Bulacan, Philippines",15.14158,120.9751,Globe,119105,108776,119.11,108.78,6,1848,423,586
"Arayat, Pampanga, Philippines",15.15443,120.771,Globe,139135,121141,139.14,121.14,5,1843,514,744
"Pulilan, Bulacan, Philippines",14.90243,120.8459,PLDT Home Fiber,101109,102813,101.11,102.81,6,1835,520,742
"Talisay, Cebu, Philippines",10.25859,123.82413,Globe,145880,138582,145.88,138.58,8,1829,383,501
"Magalang, Pampanga, Philippines",15.21394,120.66181,Converge,100532,95808,100.53,95.81,3,1820,393,529
"Guiguinto, Bulacan, Philippines",14.82832,120.88429,PLDT Home Fiber,146921,128334,146.92,128.33,8,1809,460,628
"Kapangan, Benguet, Philippines",16.61238,120.59698,PLDT Home Fiber,94008,94674,94.01,94.67,6,1807,622,903
"Consolacion, Cebu, Philippines",10.37581,123.95694,PLDT,110543,117139,110.54,117.14,4,1807,394,501
"Palo, Leyte, Philippines",11.15847,124.99191,PLDT,69715,61805,69.72,61.81,18,1790,354,506
"San Pedro, Laguna, Philippines",14.36443,121.06192,Globe,143743,132491,143.74,132.49,9,1783,340,423
"Silang, Cavite, Philippines",14.22025,120.96469,Converge,159065,148293,159.07,148.29,6,1778,352,517
"San Rafael, Bulacan, Philippines",15.00184,120.93141,Globe,192233,175538,192.23,175.54,7,1771,525,751
"Palayan City, Nueva Ecija, Philippines",15.53906,121.09083,Converge,97707,108859,97.71,108.86,7,1770,389,578
"Talisay, Cebu, Philippines",10.25859,123.82413,Converge,234374,217435,234.37,217.44,7,1767,303,454
"Legazpi City, Albay, Philippines",13.11288,123.76295,PLDT,101479,112251,101.48,112.25,7,1763,355,501
"Atok, Benguet, Philippines",16.59745,120.68901,PLDT Home Fiber,94473,94682,94.47,94.68,5,1760,640,930
"Ormoc City, Leyte, Philippines",11.03843,124.61927,Globe,113521,100536,113.52,100.54,19,1753,235,323
"Tuguegarao City, Cagayan, Philippines",17.60306,121.75374,PLDT Home Fiber,80360,85263,80.36,85.26,12,1746,406,556
"Gapan City, Nueva Ecija, Philippines",15.29121,121.01057,PLDT Home Fiber,94083,94647,94.08,94.65,11,1740,356,525
"Talaingod, Davao del Norte, Philippines",7.68339,125.522,Globe,63927,56141,63.93,56.14,5,1736,537,881
"Balagtas, Bulacan, Philippines",14.81784,120.90646,PLDT Home Fiber,140648,114994,140.65,114.99,8,1732,513,723
"San Pablo City, Laguna, Philippines",14.06422,121.32326,PLDT,94215,98734,94.22,98.73,8,1725,411,577
"Infanta, Quezon, Philippines",14.74071,121.6451,PLDT,50602,50873,50.60,50.87,13,1718,408,569
"Guagua, Pampanga, Philippines",14.96374,120.63244,PLDT Home Fiber,153172,110502,153.17,110.50,8,1716,477,727
"Puerto Princesa City, Palawan, Philippines",9.78563,118.62648,PLDT,63106,91473,63.11,91.47,20,1716,369,518
"Legazpi City, Albay, Philippines",13.11288,123.76295,Converge,109225,103061,109.23,103.06,5,1715,292,436
"Taal, Batangas, Philippines",13.87826,120.92508,Globe,234581,211673,234.58,211.67,6,1714,478,739
"Unisan, Quezon, Philippines",13.86351,122.01555,Converge,94529,94460,94.53,94.46,10,1714,386,603
"Sorsogon City, Sorsogon, Philippines",12.97888,123.98477,PLDT,114096,124755,114.10,124.76,13,1710,205,265
"Pinamungahan, Cebu, Philippines",10.26958,123.63996,Globe,158306,131572,158.31,131.57,18,1707,633,867
"Sindangan, Zamboanga del Norte, Philippines",8.19151,123.05639,PLDT Home Fiber,48159,53022,48.16,53.02,13,1703,122,164
"Daet, Camarines Norte, Philippines",14.10303,122.9325,Converge,112847,109562,112.85,109.56,7,1701,210,319
"Goa, Camarines Sur, Philippines",13.73619,123.41593,PLDT Home Fiber,73788,82036,73.79,82.04,9,1698,232,318
"Naic, Cavite, Philippines",14.29649,120.79246,PLDT Home Fiber,107235,108658,107.24,108.66,7,1688,251,324
"Santa Rosa, Nueva Ecija, Philippines",15.42502,120.93838,PLDT Home Fiber,95578,97092,95.58,97.09,10,1688,349,569
"San Isidro, Nueva Ecija, Philippines",15.29656,120.9073,PLDT Home Fiber,94303,89251,94.30,89.25,10,1672,429,709
"Kidapawan, Cotabato, Philippines",7.02127,125.09019,Globe,61623,94126,61.62,94.13,6,1667,505,772
"Dumaguete City, Negros Oriental, Philippines",9.29841,123.29249,Globe,110061,106289,110.06,106.29,12,1664,323,431
"Liliw, Laguna, Philippines",14.12617,121.4399,PLDT Home Fiber,152107,162153,152.11,162.15,9,1663,406,678
"Lubao, Pampanga, Philippines",14.92678,120.58795,Converge,66198,67914,66.20,67.91,4,1661,359,532
"Surigao, Surigao del Norte, Philippines",9.79022,125.49311,PLDT Home Fiber,85948,93055,85.95,93.06,11,1660,298,373
"Meycauayan, Bulacan, Philippines",14.73772,120.96077,PLDT,77054,80350,77.05,80.35,8,1659,392,566
"Magalang, Pampanga, Philippines",15.21394,120.66181,PLDT,49498,51079,49.50,51.08,12,1658,354,542
"Panabo City, Davao del Norte, Philippines",7.30822,125.68662,PLDT Home Fiber,108579,95329,108.58,95.33,8,1649,368,485
"Virac, Catanduanes, Philippines",13.61939,124.17544,PLDT Home Fiber,61462,64105,61.46,64.11,10,1641,248,311
"Dinalupihan, Bataan, Philippines",14.88605,120.44729,PLDT Home Fiber,103576,129062,103.58,129.06,9,1628,241,293
"Malvar, Batangas, Philippines",14.04329,121.15875,PLDT,106921,107302,106.92,107.30,9,1626,471,695
"San Ildefonso, Bulacan, Philippines",15.07717,120.94171,Converge,121274,117852,121.27,117.85,7,1622,147,223
"Calapan City, Oriental Mindoro, Philippines",13.36643,121.19395,PLDT,65004,69820,65.00,69.82,13,1619,399,585
"Salvador Benedicto, Negros Occidental, Philippines",10.5887,123.23632,PLDT Home Fiber,135794,139312,135.79,139.31,7,1614,546,813
"Plaridel, Bulacan, Philippines",14.88591,120.85932,PLDT Home Fiber,111228,114955,111.23,114.96,8,1609,390,574
"Digos, Davao del Sur, Philippines",6.74347,125.35515,Globe,117936,121509,117.94,121.51,4,1602,155,196
"San Ildefonso, Bulacan, Philippines",15.07717,120.94171,PLDT,57925,57409,57.93,57.41,11,1599,300,408
"Taysan, Batangas, Philippines",13.76108,121.2283,Globe,116855,106643,116.86,106.64,8,1598,483,720
"Navotas, Metro Manila, Philippines",14.65819,120.94743,PLDT,90365,89277,90.37,89.28,7,1555,441,632
"San Miguel, Bulacan, Philippines",15.14158,120.9751,Converge,116561,110682,116.56,110.68,7,1554,273,365
"Santiago, Ilocos Sur, Philippines",17.28073,120.44729,Converge,94535,102703,94.54,102.70,9,1549,358,599
"Catarman, Northern Samar, Philippines",12.44271,124.61927,Globe,58593,81116,58.59,81.12,15,1549,139,183
"Meycauayan, Bulacan, Philippines",14.73772,120.96077,Globe,168375,146175,168.38,146.18,8,1547,386,487
"Plaridel, Bulacan, Philippines",14.88591,120.85932,Converge,100834,95348,100.83,95.35,7,1540,270,379
"M'lang, Cotabato, Philippines",6.93822,124.90655,PLDT Home Fiber,95556,97813,95.56,97.81,10,1536,457,681
"San Quintin, Pangasinan, Philippines",15.9754,120.83841,PLDT Home Fiber,93231,94693,93.23,94.69,7,1531,489,772
"Dumanjug, Cebu, Philippines",10.02819,123.47198,PLDT Home Fiber,100420,111688,100.42,111.69,7,1526,457,620
"Iligan City, Lanao del Norte, Philippines",8.22707,124.46418,Globe,120576,57971,120.58,57.97,14,1525,289,371
"Orion, Bataan, Philippines",14.61604,120.56431,PLDT Home Fiber,91884,117500,91.88,117.50,9,1523,140,166
"Porac, Pampanga, Philippines",15.06974,120.55007,Converge,104649,120093,104.65,120.09,3,1518,381,528
"Leyte, Philippines",11.32728,124.48636,PLDT,101575,102226,101.58,102.23,16,1515,291,489
"Cabuyao City, Laguna, Philippines",14.27433,121.11961,Converge,121915,119121,121.92,119.12,6,1513,219,352
"Malasiqui, Pangasinan, Philippines",15.92028,120.41443,Converge,94441,97663,94.44,97.66,5,1507,379,537
"Butuan City, Agusan Del Norte, Philippines",8.94753,125.54063,PLDT,57902,61069,57.90,61.07,17,1500,424,631
"Rosario, Batangas, Philippines",13.80433,121.28552,PLDT Home Fiber,113859,106716,113.86,106.72,6,1487,277,399
"Los Baños, Laguna, Philippines",14.17731,121.22161,PLDT,93941,94909,93.94,94.91,7,1485,466,604
"Ormoc City, Leyte, Philippines",11.03843,124.61927,Converge,122708,144813,122.71,144.81,5,1471,197,293
"Ozamiz, Misamis Occidental, Philippines",8.15,123.85033,Globe,57276,50309,57.28,50.31,23,1470,140,184
"Carmen, Cotabato, Philippines",7.38261,124.81826,PLDT Home Fiber,133559,101271,133.56,101.27,9,1459,501,708
"Bokod, Benguet, Philippines",16.45641,120.78097,PLDT,94335,94648,94.34,94.65,6,1453,486,734
"Ligao City, Albay, Philippines",13.17242,123.4944,Converge,76563,84131,76.56,84.13,16,1453,256,390
"Pozorrubio, Pangasinan, Philippines",16.11642,120.54316,PLDT,78491,77658,78.49,77.66,10,1450,338,481
"Toledo, Cebu, Philippines",10.38705,123.65017,PLDT,31110,37890,31.11,37.89,6,1450,138,179
"Pililla, Rizal, Philippines",14.44393,121.34273,PLDT,100114,109175,100.11,109.18,3,1448,487,809
"Daraga, Albay, Philippines",13.12278,123.69588,Converge,101502,85226,101.50,85.23,13,1439,161,269
"Iligan City, Lanao del Norte, Philippines",8.22707,124.46418,PLDT,71738,73438,71.74,73.44,20,1438,405,555
"Santiago, Isabela, Philippines",16.69679,121.55865,PLDT Home Fiber,93265,89223,93.27,89.22,15,1438,293,408
"Dipolog City, Zamboanga del Norte, Philippines",8.58717,123.34035,Globe,77484,45729,77.48,45.73,19,1433,109,151
"Minglanilla, Cebu, Philippines",10.24543,123.79599,PLDT,109554,119903,109.55,119.90,4,1431,357,459
"Calatrava, Negros Occidental, Philippines",10.62843,123.39349,PLDT Home Fiber,91972,94377,91.97,94.38,8,1430,373,579
"Plaridel, Bulacan, Philippines",14.88591,120.85932,PLDT,80260,90061,80.26,90.06,5,1428,328,463
"Angeles, Pampanga, Philippines",15.16061,120.60908,Globe,119819,111920,119.82,111.92,5,1423,335,442
"Pili, Camarines Sur, Philippines",13.55521,123.28126,PLDT Home Fiber,73495,77853,73.50,77.85,8,1422,225,308
"San Manuel, Pangasinan, Philippines",16.10561,120.67751,PLDT,95000,94977,95.00,94.98,6,1417,416,650
"Compostela, Cebu, Philippines",10.45408,124.013,PLDT Home Fiber,136921,169147,136.92,169.15,5,1399,481,690
"Sogod, Southern Leyte, Philippines",10.44929,125.01679,PLDT Home Fiber,51611,112548,51.61,112.55,14,1397,83,98
"Escalante City, Negros Occidental, Philippines",10.84117,123.49908,PLDT Home Fiber,87238,92520,87.24,92.52,9,1391,321,483
"Guiguinto, Bulacan, Philippines",14.82832,120.88429,Converge,110690,99217,110.69,99.22,7,1390,234,348
"Tanay, Rizal, Philippines",14.61419,121.37703,PLDT,66039,62522,66.04,62.52,8,1387,359,511
"Roxas City, Capiz, Philippines",11.55288,122.74072,Globe,83287,76107,83.29,76.11,13,1377,188,261
"Balamban, Cebu, Philippines",10.48585,123.77412,PLDT,67574,72014,67.57,72.01,8,1371,266,365
"Limay, Bataan, Philippines",14.53661,120.56245,PLDT Home Fiber,69048,115716,69.05,115.72,9,1366,176,217
"Hagonoy, Bulacan, Philippines",14.83564,120.73371,PLDT,72969,84535,72.97,84.54,8,1360,256,345
"Zamboanga City, Zamboanga del Sur, Philippines",6.90437,122.07612,Converge,89914,91665,89.91,91.67,20,1356,257,344
"Trece Martires City, Cavite, Philippines",14.28222,120.86837,PLDT Home Fiber,162093,166509,162.09,166.51,4,1352,357,449
"Cadiz City, Negros Occidental, Philippines",10.86192,123.23632,PLDT,65891,68326,65.89,68.33,12,1344,339,508
"Calapan City, Oriental Mindoro, Philippines",13.36643,121.19395,PLDT Home Fiber,105447,102528,105.45,102.53,8,1344,340,488
"Capas, Tarlac, Philippines",15.34633,120.59344,PLDT,72281,77774,72.28,77.77,7,1342,177,256
"Sagay City, Negros Occidental, Philippines",10.84555,123.37106,Globe,58431,58801,58.43,58.80,14,1338,51,67
"Bakun, Benguet, Philippines",16.80796,120.68901,PLDT Home Fiber,94020,95560,94.02,95.56,5,1338,417,657
"Jaen, Nueva Ecija, Philippines",15.39558,120.87286,PLDT,56974,55079,56.97,55.08,16,1337,334,505
"Butuan City, Agusan Del Norte, Philippines",8.94753,125.54063,Converge,113666,113118,113.67,113.12,11,1334,175,233
"Legazpi City, Albay, Philippines",13.11288,123.76295,Globe,119626,96236,119.63,96.24,21,1330,216,276
"Rosario, Cavite, Philippines",14.41672,120.85471,PLDT,80260,88702,80.26,88.70,7,1328,281,384
"Pili, Camarines Sur, Philippines",13.55521,123.28126,Globe,87399,100259,87.40,100.26,12,1326,61,76
"Biñan, Laguna, Philippines",14.31456,121.08316,Globe,128265,113956,128.27,113.96,7,1324,281,376
"Hinunangan, Southern Leyte, Philippines",10.39458,125.14888,PLDT,42116,73893,42.12,73.89,15,1322,95,115
"Santo Domingo, Nueva Ecija, Philippines",15.61284,120.88434,PLDT,79084,71896,79.08,71.90,19,1321,258,366
"Mayoyao, Ifugao, Philippines",16.95131,121.21685,PLDT Home Fiber,119690,98482,119.69,98.48,11,1321,390,629
"Dumaguete City, Negros Oriental, Philippines",9.29841,123.29249,PLDT Home Fiber,166976,182869,166.98,182.87,8,1320,269,347
"Ormoc City, Leyte, Philippines",11.03843,124.61927,PLDT Home Fiber,92242,93030,92.24,93.03,5,1317,212,261
"Escalante City, Negros Occidental, Philippines",10.84117,123.49908,PLDT,87253,92426,87.25,92.43,10,1314,253,386
"Cauayan City, Isabela, Philippines",16.91662,121.78792,Converge,94787,99410,94.79,99.41,10,1301,302,450
"Olongapo City, Zambales, Philippines",14.88739,120.36661,PLDT Home Fiber,127185,89534,127.19,89.53,8,1301,329,418
"Binangonan, Rizal, Philippines",14.48441,121.1869,Globe,180582,156717,180.58,156.72,4,1288,217,269
"Cotabato City, Maguindanao, Philippines",7.20467,124.23104,Globe,97041,46014,97.04,46.01,12,1287,91,116
"General Santos City (Dadiangas), South Cotabato, Philippines",6.14327,125.19286,Converge,114497,116013,114.50,116.01,5,1285,289,362
"San Leonardo, Nueva Ecija, Philippines",15.37285,120.95321,PLDT Home Fiber,92390,94588,92.39,94.59,11,1279,281,471
"Libmanan, Camarines Sur, Philippines",13.69376,123.05982,PLDT Home Fiber,43840,47856,43.84,47.86,13,1278,131,179
"Mambusao, Capiz, Philippines",11.44257,122.59383,PLDT,92373,94295,92.37,94.30,9,1278,324,434
"Quezon, Nueva Ecija, Philippines",15.56953,120.82692,Globe,269188,239058,269.19,239.06,5,1276,353,587
"Catmon, Cebu, Philippines",10.65242,123.9973,Globe,122689,107047,122.69,107.05,16,1265,392,538
"Calabanga, Camarines Sur, Philippines",13.71633,123.28126,PLDT Home Fiber,109967,110567,109.97,110.57,7,1260,122,147
"San Luis, Aurora, Philippines",15.63572,121.46847,PLDT,61760,31529,61.76,31.53,13,1259,115,155
"Gerona, Tarlac, Philippines",15.60489,120.59698,PLDT Home Fiber,93227,108955,93.23,108.96,9,1256,228,314
"Sogod, Cebu, Philippines",10.77419,123.9527,Globe,109699,100100,109.70,100.10,20,1255,382,531
"Muñoz, Nueva Ecija, Philippines",15.70664,120.9029,PLDT Home Fiber,83903,92976,83.90,92.98,13,1255,263,363
"Carmona, Cavite, Philippines",14.3135,121.05712,Converge,138811,140963,138.81,140.96,7,1253,270,408
"Dona Remedios Trinidad, Bulacan, Philippines",15.11427,121.21685,PLDT,50988,26235,50.99,26.24,12,1252,391,580
"Vallehermoso, Negros Oriental, Philippines",10.33905,123.29249,PLDT Home Fiber,92677,94603,92.68,94.60,8,1246,403,560
"Guiguinto, Bulacan, Philippines",14.82832,120.88429,PLDT,89668,95047,89.67,95.05,6,1242,318,489
"Pagadian City, Zamboanga del Sur, Philippines",7.86265,123.37106,Globe,91589,64818,91.59,64.82,7,1241,193,264
"Tanauan City, Batangas, Philippines",14.08354,121.14762,Globe,161489,143907,161.49,143.91,6,1238,369,533
"Mabitac, Laguna, Philippines",14.43383,121.41133,Converge,94608,93892,94.61,93.89,11,1236,216,339
"San Fernando, Pampanga, Philippines",15.02781,120.69349,Globe,114253,104990,114.25,104.99,6,1234,245,339
"Sagay City, Negros Occidental, Philippines",10.84555,123.37106,PLDT,54560,58442,54.56,58.44,9,1232,290,427
"Indang, Cavite, Philippines",14.19204,120.87286,PLDT,111838,116630,111.84,116.63,8,1231,267,339
"Sultan Kudarat (Nuling), Maguindanao, Philippines",7.26221,124.30883,PLDT Home Fiber,90007,94948,90.01,94.95,12,1226,129,184
"Concepcion, Tarlac, Philippines",15.324,120.65596,Globe,147172,132513,147.17,132.51,5,1221,400,594
"Cotabato City, Maguindanao, Philippines",7.20467,124.23104,PLDT,64785,64934,64.79,64.93,14,1220,278,372
"Bocaue, Bulacan, Philippines",14.7943,120.93073,PLDT,92972,93574,92.97,93.57,6,1218,341,523
"Balanga City, Bataan, Philippines",14.67454,120.47033,PLDT,76920,93241,76.92,93.24,10,1215,333,461
"San Carlos City, Negros Occidental, Philippines",10.48344,123.30371,Converge,47083,55549,47.08,55.55,15,1214,55,83
"Pandi, Bulacan, Philippines",14.87572,120.95941,PLDT,85730,83648,85.73,83.65,8,1207,283,407
"Pantukan, Davao de Oro, Philippines",7.20012,126.04584,PLDT Home Fiber,88592,82397,88.59,82.40,12,1206,98,143
"City of Cabadbaran, Agusan Del Norte, Philippines",9.14092,125.697,PLDT Home Fiber,68027,58681,68.03,58.68,11,1194,177,236
"Tanauan City, Batangas, Philippines",14.08354,121.14762,Converge,94831,150202,94.83,150.20,8,1189,210,312
"Kabankalan City, Negros Occidental, Philippines",9.91341,122.85358,PLDT,59560,64172,59.56,64.17,9,1187,155,211
"San Simon, Pampanga, Philippines",14.98432,120.75127,PLDT,97050,94227,97.05,94.23,12,1187,295,437
"Consolacion, Cebu, Philippines",10.37581,123.95694,Converge,168896,189553,168.90,189.55,3,1184,221,301
"Alangalang, Leyte, Philippines",11.23565,124.88449,PLDT,41652,35941,41.65,35.94,23,1180,275,440
"La Paz, Tarlac, Philippines",15.4497,120.7235,PLDT Home Fiber,94401,94416,94.40,94.42,9,1178,301,456
"Vintar, Ilocos Norte, Philippines",18.31413,120.78097,Converge,94573,104247,94.57,104.25,10,1177,326,533
"Tacloban City, Leyte, Philippines",11.22238,124.99221,Globe,103851,86021,103.85,86.02,16,1165,204,259
"San Mateo, Rizal, Philippines",14.69539,121.11767,PLDT,72328,74714,72.33,74.71,9,1162,277,436
"Naga, Cebu, Philippines",10.20764,123.75821,Globe,121927,119195,121.93,119.20,17,1151,403,553
"Ozamiz, Misamis Occidental, Philippines",8.15,123.85033,PLDT Home Fiber,105112,96362,105.11,96.36,6,1147,146,209
"Baliwag, Bulacan, Philippines",14.96569,120.89431,Converge,124442,115759,124.44,115.76,7,1143,243,330
"General Tinio (Papaya), Nueva Ecija, Philippines",15.36345,121.21685,PLDT,66876,34175,66.88,34.18,11,1142,329,508
"Mabalacat City, Pampanga, Philippines",15.24525,120.56567,PLDT,69885,78483,69.89,78.48,10,1141,280,392
"San Jose, Batangas, Philippines",13.87868,121.09942,PLDT Home Fiber,102761,103732,102.76,103.73,7,1137,307,487
"Bay, Laguna, Philippines",14.14064,121.26836,Converge,226843,238254,226.84,238.25,5,1135,302,571
"Odiongan, Romblon, Philippines",12.36445,122.01555,PLDT,63688,66724,63.69,66.72,9,1132,136,184
"Liloan, Cebu, Philippines",10.39926,124.00002,PLDT Home Fiber,159642,196961,159.64,196.96,4,1131,323,489
"Bayombong, Nueva Vizcaya, Philippines",16.48042,121.14813,PLDT Home Fiber,93349,93250,93.35,93.25,7,1127,202,298
"Cavite, Philippines",14.48151,120.90833,PLDT Home Fiber,149774,150684,149.77,150.68,4,1127,251,322
"Talavera, Nueva Ecija, Philippines",15.58575,120.9197,PLDT Home Fiber,89263,94253,89.26,94.25,11,1122,163,241
"Malasiqui, Pangasinan, Philippines",15.92028,120.41443,PLDT,94565,95899,94.57,95.90,5,1122,261,366
"Olongapo City, Zambales, Philippines",14.88739,120.36661,PLDT,107843,86380,107.84,86.38,7,1121,283,381
"Santo Tomas, Batangas, Philippines",14.08754,121.17764,PLDT,87665,90642,87.67,90.64,8,1120,318,465
"Mambajao, Camiguin, Philippines",9.22153,124.71882,PLDT Home Fiber,100428,103605,100.43,103.61,8,1120,235,332
"Lubao, Pampanga, Philippines",14.92678,120.58795,PLDT Home Fiber,145580,139621,145.58,139.62,10,1117,177,244
"Naic, Cavite, Philippines",14.29649,120.79246,Converge,136872,131993,136.87,131.99,5,1117,205,280
"Binmaley, Pangasinan, Philippines",16.02892,120.26882,PLDT,82524,92686,82.52,92.69,9,1117,270,356
"Tanza, Cavite, Philippines",14.34293,120.85032,Globe,168111,141858,168.11,141.86,7,1109,279,367
"Trece Martires City, Cavite, Philippines",14.28222,120.86837,Globe,127620,118335,127.62,118.34,6,1107,236,296
"Calasiao, Pangasinan, Philippines",16.00949,120.35759,PLDT Home Fiber,106945,111191,106.95,111.19,6,1098,318,457
"Trece Martires City, Cavite, Philippines",14.28222,120.86837,Converge,127113,132978,127.11,132.98,6,1097,306,374
"Majayjay, Laguna, Philippines",14.14491,121.46983,PLDT Home Fiber,116845,158017,116.85,158.02,8,1096,276,441
"Jaen, Nueva Ecija, Philippines",15.39558,120.87286,PLDT Home Fiber,96076,92645,96.08,92.65,10,1094,306,469
"Laoag City, Ilocos Norte, Philippines",18.21075,120.58547,PLDT Home Fiber,122032,114491,122.03,114.49,9,1094,222,313
"Liloan, Cebu, Philippines",10.39926,124.00002,PLDT,146813,199029,146.81,199.03,4,1092,231,286
"Cabuyao City, Laguna, Philippines",14.27433,121.11961,Globe,118899,106349,118.90,106.35,5,1090,258,388
"Paombong, Bulacan, Philippines",14.83781,120.78406,PLDT Home Fiber,93967,103454,93.97,103.45,7,1088,304,457
"Lobo, Batangas, Philippines",13.6877,121.23974,PLDT Home Fiber,171635,167111,171.64,167.11,6,1087,287,460
"Aringay, La Union, Philippines",16.40163,120.40119,PLDT,52439,57973,52.44,57.97,9,1084,282,393
"Anao, Tarlac, Philippines",15.7435,120.61424,PLDT,51270,49092,51.27,49.09,18,1079,247,412
"Valencia City, Bukidnon, Philippines",7.86319,125.17087,PLDT Home Fiber,99747,93787,99.75,93.79,6,1078,170,233
"Balanga City, Bataan, Philippines",14.67454,120.47033,Converge,153172,140436,153.17,140.44,5,1076,252,353
"Mexico, Pampanga, Philippines",15.06457,120.72033,Globe,117476,114408,117.48,114.41,7,1071,208,261
"Urdaneta City, Pangasinan, Philippines",15.98194,120.59698,PLDT Home Fiber,98051,96925,98.05,96.93,7,1063,267,393
"Bacolor, Pampanga, Philippines",14.99692,120.65235,Converge,107514,115173,107.51,115.17,4,1062,332,430
"Moalboal, Cebu, Philippines",9.93681,123.42714,Globe,75185,70331,75.19,70.33,13,1060,186,279
"City of Mati, Davao Oriental, Philippines",6.95722,126.15454,Globe,86524,62912,86.52,62.91,15,1057,114,147
"San Rafael, Bulacan, Philippines",15.00184,120.93141,Converge,112672,107665,112.67,107.67,8,1055,175,248
"Alcala, Pangasinan, Philippines",15.8546,120.53942,PLDT Home Fiber,134936,151887,134.94,151.89,11,1053,261,399
"Pili, Camarines Sur, Philippines",13.55521,123.28126,PLDT,32049,33006,32.05,33.01,15,1053,125,177
"Sorsogon City, Sorsogon, Philippines",12.97888,123.98477,Converge,87841,74566,87.84,74.57,17,1053,100,171
"Puerto Princesa City, Palawan, Philippines",9.78563,118.62648,Globe,93982,93161,93.98,93.16,15,1053,224,321
"Carmen, Cebu, Philippines",10.58876,123.96385,PLDT,78279,90583,78.28,90.58,13,1045,217,301
"Tagbilaran City, Bohol, Philippines",9.6534,123.86703,Globe,125690,109786,125.69,109.79,11,1045,167,223
"Candon City, Ilocos Sur, Philippines",17.19612,120.44729,Converge,90113,94358,90.11,94.36,9,1040,224,359
"San Ildefonso, Bulacan, Philippines",15.07717,120.94171,Globe,243938,221563,243.94,221.56,6,1036,320,488
"Rodriguez, Rizal, Philippines",14.73202,121.14516,PLDT,67320,58276,67.32,58.28,5,1036,177,241
"Gapan City, Nueva Ecija, Philippines",15.29121,121.01057,Converge,99066,115119,99.07,115.12,6,1036,189,256
"Paniqui, Tarlac, Philippines",15.66603,120.53942,PLDT Home Fiber,119041,102421,119.04,102.42,11,1035,222,285
"Alcala, Cagayan, Philippines",17.90497,121.65113,Converge,94035,94317,94.04,94.32,13,1035,240,438
"Dapitan City, Zamboanga del Norte, Philippines",8.58118,123.42714,PLDT Home Fiber,104460,82369,104.46,82.37,9,1034,128,166
"Norzagaray, Bulacan, Philippines",14.89659,121.14813,Converge,126395,114187,126.40,114.19,7,1033,142,214
"Midsayap, Cotabato, Philippines",7.19181,124.53474,PLDT Home Fiber,93633,97022,93.63,97.02,13,1032,201,265
"Baungon, Bukidnon, Philippines",8.21754,124.75198,PLDT Home Fiber,94315,94704,94.32,94.70,6,1032,334,503
"Cauayan City, Isabela, Philippines",16.91662,121.78792,PLDT Home Fiber,94426,94295,94.43,94.30,13,1030,205,284
"Calasiao, Pangasinan, Philippines",16.00949,120.35759,PLDT,74902,63732,74.90,63.73,7,1021,154,231
"Talugtug, Nueva Ecija, Philippines",15.7698,120.81544,PLDT,59560,54715,59.56,54.72,18,1019,239,334
"Maramag, Bukidnon, Philippines",7.82687,124.97271,Globe,53158,17585,53.16,17.59,24,1018,180,287
"Guimba, Nueva Ecija, Philippines",15.65641,120.76767,Globe,177680,216138,177.68,216.14,6,1013,304,471
"San Mateo, Rizal, Philippines",14.69539,121.11767,Globe,147793,114894,147.79,114.89,5,1012,226,282
"Guimba, Nueva Ecija, Philippines",15.65641,120.76767,PLDT Home Fiber,86945,94407,86.95,94.41,11,1012,246,358
"Rodriguez, Rizal, Philippines",14.73202,121.14516,Globe,150738,135041,150.74,135.04,4,1011,191,258
"Tanay, Rizal, Philippines",14.61419,121.37703,PLDT Home Fiber,129245,135896,129.25,135.90,4,1008,140,205
"Minalin, Pampanga, Philippines",14.97052,120.68518,PLDT Home Fiber,98867,94905,98.87,94.91,7,1004,317,490
"Nabua, Camarines Sur, Philippines",13.4069,123.37324,PLDT Home Fiber,93953,94531,93.95,94.53,8,1001,172,240
"Daraga, Albay, Philippines",13.12278,123.69588,PLDT,119506,134507,119.51,134.51,8,997,189,234
"La Carlota City, Negros Occidental, Philippines",10.41437,122.97757,PLDT,61692,71283,61.69,71.28,9,996,114,138
"Matalam, Cotabato, Philippines",7.17236,124.92861,PLDT,180340,128880,180.34,128.88,12,989,358,490
"Nagcarlan, Laguna, Philippines",14.14903,121.38847,PLDT,86787,88271,86.79,88.27,12,974,253,346
"Valencia City, Bukidnon, Philippines",7.86319,125.17087,Converge,100295,107317,100.30,107.32,11,972,179,242
"Puerto Princesa City, Palawan, Philippines",9.78563,118.62648,Converge,86713,87872,86.71,87.87,14,971,213,285
"Marawi City, Lanao del Sur, Philippines",8.0292,124.29772,Globe,54504,46606,54.50,46.61,9,968,118,161
"Oton, Iloilo, Philippines",10.69251,122.47868,PLDT Home Fiber,88909,100369,88.91,100.37,9,968,133,165
"Toboso, Negros Occidental, Philippines",10.71769,123.46077,Globe,20703,6195,20.70,6.20,40,965,291,620
"Tagum, Davao del Norte, Philippines",7.44742,125.80246,PLDT,89973,93809,89.97,93.81,12,965,228,307
"Aliaga, Nueva Ecija, Philippines",15.51204,120.86138,PLDT Home Fiber,86386,92103,86.39,92.10,11,965,241,359
"Daraga, Albay, Philippines",13.12278,123.69588,Globe,119389,110313,119.39,110.31,22,961,118,159
"Dumangas, Iloilo, Philippines",10.82109,122.71167,PLDT Home Fiber,86007,96663,86.01,96.66,9,960,100,129
"Escalante City, Negros Occidental, Philippines",10.84117,123.49908,Globe,22686,9753,22.69,9.75,38,959,211,483
"Minglanilla, Cebu, Philippines",10.24543,123.79599,Globe,208645,184787,208.65,184.79,11,958,224,274
"Boac, Marinduque, Philippines",13.39413,121.87903,PLDT Home Fiber,91057,94423,91.06,94.42,9,957,122,159
"Tacloban City, Leyte, Philippines",11.22238,124.99221,PLDT Home Fiber,115996,118859,116.00,118.86,6,953,171,225
"Pateros, Metro Manila, Philippines",14.54838,121.07077,Globe,105525,96365,105.53,96.37,4,953,311,501
"Alabel, Sarangani, Philippines",6.10416,125.28792,PLDT Home Fiber,76344,86466,76.34,86.47,11,952,188,258
"Rosario, Cavite, Philippines",14.41672,120.85471,PLDT Home Fiber,78649,82853,78.65,82.85,5,951,192,266
"Kidapawan, Cotabato, Philippines",7.02127,125.09019,Converge,106547,114974,106.55,114.97,4,949,172,213
"Santo Tomas, Batangas, Philippines",14.08754,121.17764,Converge,109818,135725,109.82,135.73,7,948,150,204
"Mangaldan, Pangasinan, Philippines",16.06513,120.40474,PLDT Home Fiber,118897,99597,118.90,99.60,8,941,208,305
"Tayug, Pangasinan, Philippines",16.01085,120.74649,PLDT Home Fiber,78282,85322,78.28,85.32,10,932,232,373
"Tiaong, Quezon, Philippines",13.92962,121.34273,PLDT Home Fiber,110148,126021,110.15,126.02,5,932,211,316
"San Mateo, Isabela, Philippines",16.87673,121.59408,PLDT Home Fiber,56802,65920,56.80,65.92,13,930,110,150
"Kumalarang, Zamboanga del Sur, Philippines",7.7703,123.1464,PLDT,68097,63809,68.10,63.81,22,930,274,390
"Teresa, Rizal, Philippines",14.5597,121.20593,PLDT Home Fiber,107921,113160,107.92,113.16,4,927,209,343
"Kalibo, Aklan, Philippines",11.70734,122.36986,Converge,80721,78138,80.72,78.14,15,927,136,198
"Mallig, Isabela, Philippines",17.15803,121.61307,PLDT Home Fiber,46975,51108,46.98,51.11,13,926,134,174
"Sariaya, Quezon, Philippines",13.96301,121.52388,PLDT,92486,93524,92.49,93.52,8,924,248,374
"Pavia, Iloilo, Philippines",10.7748,122.54261,PLDT Home Fiber,179197,194567,179.20,194.57,8,923,228,283
"General Mariano Alvarez, Cavite, Philippines",14.29525,121.0071,Converge,192669,183856,192.67,183.86,7,923,144,236
"Libungan, Cotabato, Philippines",7.31637,124.53068,PLDT Home Fiber,103217,91383,103.22,91.38,12,921,77,100
"Binangonan, Rizal, Philippines",14.48441,121.1869,Converge,141900,149608,141.90,149.61,4,920,235,285
"Panglao, Bohol, Philippines",9.56947,123.78721,PLDT,71460,71090,71.46,71.09,10,919,147,243
"Norzagaray, Bulacan, Philippines",14.89659,121.14813,PLDT,68898,47887,68.90,47.89,9,917,199,279
"Lambunao, Iloilo, Philippines",11.12265,122.37876,PLDT,70361,72367,70.36,72.37,10,917,264,366
"Carcar, Cebu, Philippines",10.10478,123.64147,PLDT Home Fiber,111929,107308,111.93,107.31,5,915,99,135
"Valladolid, Negros Occidental, Philippines",10.46898,122.8423,PLDT Home Fiber,96267,101906,96.27,101.91,10,909,188,301
"Trece Martires City, Cavite, Philippines",14.28222,120.86837,PLDT,84891,93313,84.89,93.31,6,907,225,295
"Tagbilaran City, Bohol, Philippines",9.6534,123.86703,Converge,101388,121460,101.39,121.46,25,906,232,305
"Bagabag, Nueva Vizcaya, Philippines",16.58337,121.28552,PLDT Home Fiber,90374,94807,90.37,94.81,9,905,120,206
"Candelaria, Quezon, Philippines",13.94899,121.42276,PLDT,93566,90027,93.57,90.03,9,900,194,295
"Angat, Bulacan, Philippines",14.92586,121.02204,Converge,95923,94143,95.92,94.14,8,899,112,174
"Marawi City, Lanao del Sur, Philippines",8.0292,124.29772,PLDT,71739,49118,71.74,49.12,22,898,212,341
"Limay, Bataan, Philippines",14.53661,120.56245,Converge,90253,99935,90.25,99.94,13,895,157,209
"Batangas City, Batangas, Philippines",13.75641,121.05833,Converge,168587,150428,168.59,150.43,7,894,209,346
"Tubungan, Iloilo, Philippines",10.80645,122.29941,PLDT,55897,52747,55.90,52.75,15,892,214,307
"Baliwag, Bulacan, Philippines",14.96569,120.89431,Globe,140075,131753,140.08,131.75,8,890,177,219
"Cardona, Rizal, Philippines",14.48493,121.232,PLDT Home Fiber,114847,126162,114.85,126.16,4,884,296,455
"Igbaras, Iloilo, Philippines",10.74408,122.2427,PLDT,50216,54736,50.22,54.74,8,881,198,276
"Calumpit, Bulacan, Philippines",14.91518,120.7662,Converge,118206,103444,118.21,103.44,5,879,199,252
"Masbate City, Masbate, Philippines",12.31777,123.55041,PLDT,75557,59706,75.56,59.71,20,877,145,200
"Hinigaran, Negros Occidental, Philippines",10.27479,122.92123,PLDT Home Fiber,75748,83838,75.75,83.84,14,876,82,106
"Zaragoza, Nueva Ecija, Philippines",15.46003,120.79246,PLDT Home Fiber,94681,96278,94.68,96.28,10,876,237,363
"Pili, Camarines Sur, Philippines",13.55521,123.28126,Converge,80131,85737,80.13,85.74,4,873,181,255
"Bayombong, Nueva Vizcaya, Philippines",16.48042,121.14813,Converge,92911,96461,92.91,96.46,9,873,248,362
"Rizal, Nueva Ecija, Philippines",15.69357,121.10229,PLDT,93501,97804,93.50,97.80,5,873,222,314
"Aroroy, Masbate, Philippines",12.38843,123.32617,Converge,102248,93402,102.25,93.40,18,872,38,54
"Lambayong (Mariano Marcos), Sultan Kudarat, Philippines",6.79879,124.61927,PLDT Home Fiber,52288,47187,52.29,47.19,13,872,96,122
"Lemery, Batangas, Philippines",13.95318,120.88434,Globe,102632,96047,102.63,96.05,6,871,260,429
"Lingayen, Pangasinan, Philippines",16.00973,120.22449,PLDT Home Fiber,112249,107494,112.25,107.49,9,870,204,294
"Santo Tomas, Batangas, Philippines",14.08754,121.17764,Globe,114816,98644,114.82,98.64,8,870,180,228
"Guimba, Nueva Ecija, Philippines",15.65641,120.76767,PLDT,78055,82597,78.06,82.60,18,869,81,113
"Alaminos City, Pangasinan, Philippines",16.15053,119.98562,PLDT Home Fiber,94300,102011,94.30,102.01,8,867,163,210
"San Luis, Pampanga, Philippines",15.03986,120.81544,PLDT Home Fiber,93542,94222,93.54,94.22,8,867,245,388
"Bula, Camarines Sur, Philippines",13.44119,123.23632,PLDT Home Fiber,86377,86537,86.38,86.54,10,865,92,133
"Catarman, Northern Samar, Philippines",12.44271,124.61927,PLDT Home Fiber,143100,158501,143.10,158.50,13,865,135,180
"Barili, Cebu, Philippines",10.1254,123.55041,PLDT Home Fiber,92308,94400,92.31,94.40,6,864,189,279
"Bustos, Bulacan, Philippines",14.95239,120.91735,PLDT,93399,86262,93.40,86.26,11,862,208,292
"Barotac Viejo, Iloilo, Philippines",11.10187,122.87613,PLDT,36702,45059,36.70,45.06,10,862,99,136
"Datu Montawal (Pagagawan), Maguindanao, Philippines",7.10469,124.76303,PLDT Home Fiber,94145,94433,94.15,94.43,10,859,218,338
"Naval, Biliran, Philippines",11.56681,124.44201,Globe,94611,84485,94.61,84.49,15,857,94,114
"Infanta, Quezon, Philippines",14.74071,121.6451,PLDT Home Fiber,65793,93873,65.79,93.87,11,854,106,139
"Paracale, Camarines Norte, Philippines",14.23721,122.78588,PLDT Home Fiber,64606,52325,64.61,52.33,8,854,81,104
"Mabalacat City, Pampanga, Philippines",15.24525,120.56567,Globe,118548,104254,118.55,104.25,4,853,170,211
"Moises Padilla, Negros Occidental, Philippines",10.26269,123.11266,PLDT Home Fiber,97508,104207,97.51,104.21,10,852,149,231
"Pateros, Metro Manila, Philippines",14.54838,121.07077,PLDT Home Fiber,163850,161532,163.85,161.53,3,852,191,234
"Nasugbu, Batangas, Philippines",14.09404,120.68901,PLDT Home Fiber,94037,98493,94.04,98.49,9,850,150,197
"Roxas City, Capiz, Philippines",11.55288,122.74072,Converge,95929,98147,95.93,98.15,13,849,142,210
"Malolos, Bulacan, Philippines",14.86049,120.80916,Globe,128870,112675,128.87,112.68,7,846,184,231
"Enrique B. Magalona, Negros Occidental, Philippines",10.87695,122.98281,PLDT Home Fiber,71329,85698,71.33,85.70,10,845,246,341
"Carmona, Cavite, Philippines",14.3135,121.05712,Globe,119853,106315,119.85,106.32,6,844,231,338
"Cabatuan, Iloilo, Philippines",10.87914,122.48206,PLDT,82224,68572,82.22,68.57,10,843,190,294
"Kadingilan, Bukidnon, Philippines",7.53321,124.87345,PLDT Home Fiber,94129,95133,94.13,95.13,9,841,173,251
"Kumalarang, Zamboanga del Sur, Philippines",7.7703,123.1464,PLDT Home Fiber,91480,93157,91.48,93.16,8,837,176,257
"Polomolok, South Cotabato, Philippines",6.22451,125.06084,Globe,93953,93211,93.95,93.21,13,835,125,151
"Pinamungahan, Cebu, Philippines",10.26958,123.63996,PLDT,60269,61980,60.27,61.98,7,832,80,102
"City of Catbalogan, Samar, Philippines",11.85683,124.88449,Globe,80258,68139,80.26,68.14,15,831,150,208
"Talavera, Nueva Ecija, Philippines",15.58575,120.9197,Globe,202577,217837,202.58,217.84,6,830,223,346
"Bamban, Tarlac, Philippines",15.2885,120.57044,PLDT Home Fiber,98199,116450,98.20,116.45,9,829,206,308
"Paete, Laguna, Philippines",14.37243,121.54842,PLDT,66710,76918,66.71,76.92,11,828,148,205
"Santa Cruz, Davao del Sur, Philippines",6.83551,125.41659,PLDT Home Fiber,115772,88395,115.77,88.40,8,828,110,152
"Los Baños, Laguna, Philippines",14.17731,121.22161,Globe,216618,211780,216.62,211.78,5,824,281,393
"Natividad, Pangasinan, Philippines",16.03821,120.83841,PLDT Home Fiber,93923,100160,93.92,100.16,6,823,230,378
"Pavia, Iloilo, Philippines",10.7748,122.54261,Globe,117369,104278,117.37,104.28,4,823,153,205
"Aguinaldo, Ifugao, Philippines",16.95291,121.33129,PLDT Home Fiber,91795,94049,91.80,94.05,11,821,179,330
"Naga, Cebu, Philippines",10.20764,123.75821,PLDT,85150,89936,85.15,89.94,4,821,178,228
"Toledo, Cebu, Philippines",10.38705,123.65017,PLDT Home Fiber,72394,88507,72.39,88.51,5,820,178,240
"Enrique B. Magalona, Negros Occidental, Philippines",10.87695,122.98281,PLDT,54330,59725,54.33,59.73,23,820,134,187
"El Nido, Palawan, Philippines",11.19892,119.42317,PLDT,79521,70533,79.52,70.53,30,818,116,215
"Malay, Aklan, Philippines",11.93033,121.95191,PLDT Home Fiber,152466,87988,152.47,87.99,27,817,43,78
"Panabo City, Davao del Norte, Philippines",7.30822,125.68662,Globe,121537,115917,121.54,115.92,7,816,111,139
"Bagulin, La Union, Philippines",16.59753,120.49336,PLDT Home Fiber,99573,100969,99.57,100.97,5,814,241,393
"Pulilan, Bulacan, Philippines",14.90243,120.8459,PLDT,86778,94071,86.78,94.07,6,814,182,281
"Cavinti, Laguna, Philippines",14.24907,121.54842,Globe,141428,132866,141.43,132.87,6,813,218,386
"Samal, Davao del Norte, Philippines",7.08352,125.70578,PLDT Home Fiber,101831,96816,101.83,96.82,9,813,134,176
"Valencia, Negros Oriental, Philippines",9.28494,123.1464,PLDT Home Fiber,120065,151722,120.07,151.72,9,810,105,135
"Tuburan, Cebu, Philippines",10.66879,123.86345,PLDT Home Fiber,73658,88576,73.66,88.58,6,810,144,200
"Alfonso Lista, Ifugao, Philippines",16.98852,121.49132,PLDT Home Fiber,93970,98133,93.97,98.13,12,810,166,304
"Apalit, Pampanga, Philippines",14.95255,120.76688,PLDT,81695,92459,81.70,92.46,14,809,212,306
"Ipil, Zamboanga Sibugay, Philippines",7.77318,122.57121,PLDT Home Fiber,102368,93713,102.37,93.71,19,807,132,175
"Ibaan, Batangas, Philippines",13.81895,121.13082,PLDT Home Fiber,100204,112941,100.20,112.94,5,804,181,241
"Zamboanga City, Zamboanga del Sur, Philippines",6.90437,122.07612,PLDT,57814,53315,57.81,53.32,19,804,170,279
"Ibaan, Batangas, Philippines",13.81895,121.13082,Globe,126054,116029,126.05,116.03,8,802,267,390
"City Of Bislig, Surigao del Sur, Philippines",8.21006,126.28478,PLDT Home Fiber,71158,113365,71.16,113.37,9,800,101,137
"Kiamba, Sarangani, Philippines",6.00076,124.70777,PLDT,14842,17076,14.84,17.08,23,799,52,71
"Camiling, Tarlac, Philippines",15.67495,120.41272,PLDT Home Fiber,80472,79191,80.47,79.19,12,798,73,99
"General Mariano Alvarez, Cavite, Philippines",14.29525,121.0071,PLDT Home Fiber,116379,174589,116.38,174.59,6,797,156,193
"Nasugbu, Batangas, Philippines",14.09404,120.68901,PLDT,87377,99988,87.38,99.99,9,796,181,292
"Umingan, Pangasinan, Philippines",15.90396,120.82692,PLDT Home Fiber,109506,115488,109.51,115.49,8,794,182,309
"Amadeo, Cavite, Philippines",14.18985,120.92452,PLDT,171924,185365,171.92,185.37,9,793,193,255
"Villasis, Pangasinan, Philippines",15.90523,120.55094,PLDT Home Fiber,109282,97367,109.28,97.37,7,792,201,337
"Labason, Zamboanga del Norte, Philippines",8.01373,122.51464,PLDT Home Fiber,41909,41816,41.91,41.82,11,790,54,62
"Paniqui, Tarlac, Philippines",15.66603,120.53942,Converge,76963,87210,76.96,87.21,5,788,259,362
"Muñoz, Nueva Ecija, Philippines",15.70664,120.9029,Globe,225234,186559,225.23,186.56,6,787,265,422
"City of Mati, Davao Oriental, Philippines",6.95722,126.15454,PLDT Home Fiber,98253,94568,98.25,94.57,13,786,126,180
"Naujan, Oriental Mindoro, Philippines",13.24381,121.19395,PLDT Home Fiber,92809,93927,92.81,93.93,7,784,129,212
"Polanco, Zamboanga del Norte, Philippines",8.49106,123.38228,PLDT Home Fiber,92243,93009,92.24,93.01,10,782,129,171
"San Leonardo, Nueva Ecija, Philippines",15.37285,120.95321,PLDT,48731,48441,48.73,48.44,11,782,179,262
"Roxas, Isabela, Philippines",17.12035,121.61915,PLDT Home Fiber,55909,59644,55.91,59.64,14,781,103,128
"Pavia, Iloilo, Philippines",10.7748,122.54261,PLDT,86857,94246,86.86,94.25,17,779,278,355
"Floridablanca, Pampanga, Philippines",14.9619,120.49471,Converge,89027,105667,89.03,105.67,4,778,171,223
"Tupi, South Cotabato, Philippines",6.33849,124.97271,PLDT Home Fiber,66926,68820,66.93,68.82,12,777,98,130
"Pandi, Bulacan, Philippines",14.87572,120.95941,Globe,119790,105934,119.79,105.93,7,775,107,136
"Urdaneta City, Pangasinan, Philippines",15.98194,120.59698,PLDT,93351,92832,93.35,92.83,5,772,181,266
"Rizal, Laguna, Philippines",14.08408,121.41133,PLDT Home Fiber,198803,205173,198.80,205.17,8,765,247,386
"Victorias, Negros Occidental, Philippines",10.901,123.07045,PLDT Home Fiber,132355,110558,132.36,110.56,9,765,179,258
"New Corella, Davao del Norte, Philippines",7.59777,125.84981,PLDT Home Fiber,92515,88486,92.52,88.49,9,764,163,224
"Old Kaabakan, Philippines",7.22147,124.85635,PLDT Home Fiber,106970,97113,106.97,97.11,9,763,247,359
"Bayambang, Pangasinan, Philippines",15.80947,120.45714,PLDT Home Fiber,133101,124423,133.10,124.42,12,760,159,218
"Bauang, La Union, Philippines",16.51433,120.35508,PLDT Home Fiber,104942,103332,104.94,103.33,3,760,111,142
"Tigaon, Camarines Sur, Philippines",13.61703,123.47198,PLDT Home Fiber,73589,93487,73.59,93.49,7,759,67,86
"Tuguegarao City, Cagayan, Philippines",17.60306,121.75374,Globe,112341,105970,112.34,105.97,10,758,105,149
"San Pascual, Batangas, Philippines",13.81044,121.02204,PLDT Home Fiber,126880,120887,126.88,120.89,7,757,162,214
"Balagtas, Bulacan, Philippines",14.81784,120.90646,Converge,146855,152479,146.86,152.48,7,756,179,243
"Pulilan, Bulacan, Philippines",14.90243,120.8459,Converge,76185,71299,76.19,71.30,6,756,208,271
"Asturias, Cebu, Philippines",10.60209,123.77412,PLDT Home Fiber,94335,94722,94.34,94.72,5,755,91,132
"Palayan City, Nueva Ecija, Philippines",15.53906,121.09083,PLDT Home Fiber,92748,93583,92.75,93.58,11,754,103,159
"Victoria, Tarlac, Philippines",15.59077,120.68901,PLDT Home Fiber,110133,104052,110.13,104.05,11,753,192,276
"San Fernando City, La Union, Philippines",16.61592,120.32102,PLDT,88706,91665,88.71,91.67,4,753,187,275
"Bambang, Nueva Vizcaya, Philippines",16.40415,121.10229,PLDT Home Fiber,93844,80097,93.84,80.10,7,752,101,129
"San Carlos City, Pangasinan, Philippines",15.92589,120.34827,Converge,90972,99731,90.97,99.73,6,751,134,163
"Gingoog City, Misamis Oriental, Philippines",8.81446,125.10406,PLDT Home Fiber,65844,69993,65.84,69.99,7,750,93,115
"Pilar, Bataan, Philippines",14.60553,120.51639,PLDT Home Fiber,77440,150534,77.44,150.53,8,750,106,138
"Atimonan, Quezon, Philippines",13.96507,121.87903,PLDT Home Fiber,99544,114453,99.54,114.45,5,750,162,236
"San Isidro, Bohol, Philippines",9.84036,123.94155,PLDT,38540,43933,38.54,43.93,20,748,168,276
"Santa Cruz, Laguna, Philippines",14.26911,121.41133,PLDT Home Fiber,147627,139959,147.63,139.96,12,748,148,206
"Tanza, Cavite, Philippines",14.34293,120.85032,PLDT,108406,115668,108.41,115.67,7,746,146,208
"Guimba, Nueva Ecija, Philippines",15.65641,120.76767,Converge,115788,135997,115.79,136.00,5,744,160,219
"Dumaguete City, Negros Oriental, Philippines",9.29841,123.29249,Converge,112793,97855,112.79,97.86,19,742,175,236
"Isulan, Sultan Kudarat, Philippines",6.6318,124.44201,PLDT,92877,89041,92.88,89.04,19,739,131,175
"Miagao, Iloilo, Philippines",10.64201,122.23632,PLDT,119560,137347,119.56,137.35,8,734,76,104
"Talavera, Nueva Ecija, Philippines",15.58575,120.9197,PLDT,88607,100661,88.61,100.66,10,732,73,103
"Asturias, Cebu, Philippines",10.60209,123.77412,Globe,145216,116675,145.22,116.68,7,732,249,385
"Narra, Palawan, Philippines",9.229,118.33047,PLDT,59822,86518,59.82,86.52,35,731,64,97
"Sibalom, Antique, Philippines",10.76502,122.06102,PLDT Home Fiber,101386,91338,101.39,91.34,10,730,54,65
"Hermosa, Bataan, Philippines",14.83566,120.47709,Converge,114606,123440,114.61,123.44,6,728,150,186
"Floridablanca, Pampanga, Philippines",14.9619,120.49471,PLDT Home Fiber,127621,106823,127.62,106.82,10,728,141,190
"Manapla, Negros Occidental, Philippines",10.95795,123.12428,PLDT Home Fiber,90457,94184,90.46,94.18,7,726,115,183
"Santa Cruz, Laguna, Philippines",14.26911,121.41133,PLDT,92762,100177,92.76,100.18,11,725,194,259
"Himamaylan, Negros Occidental, Philippines",10.10162,122.86995,PLDT Home Fiber,64961,66635,64.96,66.64,14,725,83,110
"Abucay, Bataan, Philippines",14.73361,120.49336,PLDT Home Fiber,69309,126234,69.31,126.23,9,724,101,119
"General Mamerto Natividad, Nueva Ecija, Philippines",15.58788,121.04498,PLDT Home Fiber,93148,95210,93.15,95.21,10,722,108,175
"Labangan, Zamboanga del Sur, Philippines",7.85732,123.503,PLDT Home Fiber,94009,101435,94.01,101.44,10,721,160,223
"City of Tayabas, Quezon, Philippines",14.01135,121.55983,PLDT,90650,93610,90.65,93.61,8,721,176,228
"Panglao, Bohol, Philippines",9.56947,123.78721,Globe,86094,77380,86.09,77.38,15,720,92,130
"San Andres, Catanduanes, Philippines",13.6332,124.08641,PLDT,50543,61681,50.54,61.68,11,720,84,96
"Baler, Aurora, Philippines",15.73361,121.57125,PLDT,61052,63353,61.05,63.35,14,719,149,218
"Guiguinto, Bulacan, Philippines",14.82832,120.88429,Globe,124327,116720,124.33,116.72,7,716,138,172
"Magalang, Pampanga, Philippines",15.21394,120.66181,Globe,110823,97641,110.82,97.64,5,716,192,271
"Isabela, Negros Occidental, Philippines",10.22566,123.01136,PLDT Home Fiber,135556,122182,135.56,122.18,10,714,141,190
"Hermosa, Bataan, Philippines",14.83566,120.47709,PLDT Home Fiber,100760,101786,100.76,101.79,9,713,97,121
"Vigan City, Ilocos Sur, Philippines",17.56485,120.38781,PLDT,62560,69491,62.56,69.49,12,712,128,191
"Malaybalay City, Bukidnon, Philippines",8.15775,125.17087,PLDT,81238,45685,81.24,45.69,9,711,230,329
"Sapang Dalaga, Misamis Occidental, Philippines",8.52815,123.584,PLDT Home Fiber,108085,101377,108.09,101.38,8,709,92,135
"Kalibo, Aklan, Philippines",11.70734,122.36986,Globe,108282,91868,108.28,91.87,14,707,128,185
"Burauen, Leyte, Philippines",10.97109,124.84034,PLDT,41549,47987,41.55,47.99,17,707,134,188
"Calauan, Laguna, Philippines",14.14551,121.3146,PLDT,48710,46876,48.71,46.88,13,707,91,134
"Dinalupihan, Bataan, Philippines",14.88605,120.44729,Converge,99954,103359,99.95,103.36,6,706,172,235
"Calatrava, Negros Occidental, Philippines",10.62843,123.39349,Globe,22287,6134,22.29,6.13,37,703,142,326
"Nabua, Camarines Sur, Philippines",13.4069,123.37324,Converge,88179,95029,88.18,95.03,3,702,55,93
"Lala, Lanao del Norte, Philippines",7.9486,123.76295,PLDT Home Fiber,70853,65205,70.85,65.21,9,701,81,104
"Camalig, Albay, Philippines",13.14101,123.63996,Converge,89622,93264,89.62,93.26,14,700,80,125
"Santa Ignacia, Tarlac, Philippines",15.61667,120.43556,PLDT Home Fiber,67359,69794,67.36,69.79,10,698,78,114
"Arakan, Cotabato, Philippines",7.35122,125.17087,Globe,116280,132249,116.28,132.25,4,697,255,328
"Ormoc City, Leyte, Philippines",11.03843,124.61927,PLDT,33676,33247,33.68,33.25,6,696,99,155
"Noveleta, Cavite, Philippines",14.42785,120.88009,PLDT Home Fiber,123851,131144,123.85,131.14,7,696,205,292
"San Fernando City, La Union, Philippines",16.61592,120.32102,Converge,137368,117054,137.37,117.05,4,693,172,225
"Tagaytay City, Cavite, Philippines",14.11541,120.96202,Globe,98482,92119,98.48,92.12,6,692,232,347
"Kawit, Cavite, Philippines",14.44588,120.90871,Converge,211129,207108,211.13,207.11,7,691,135,213
"Tigaon, Camarines Sur, Philippines",13.61703,123.47198,Converge,88656,21254,88.66,21.25,12,691,43,65
"San Carlos City, Pangasinan, Philippines",15.92589,120.34827,Globe,91217,86673,91.22,86.67,4,691,63,83
"Carcar, Cebu, Philippines",10.10478,123.64147,Globe,116949,103255,116.95,103.26,9,688,102,135
"Alaminos City, Pangasinan, Philippines",16.15053,119.98562,Converge,127552,120202,127.55,120.20,6,687,130,168
"La Carlota City, Negros Occidental, Philippines",10.41437,122.97757,PLDT Home Fiber,179366,184928,179.37,184.93,8,686,279,374
"Maasin, Southern Leyte, Philippines",10.13272,124.84081,PLDT Home Fiber,146219,152336,146.22,152.34,8,685,100,125
"Tabaco City, Albay, Philippines",13.36138,123.72876,Converge,71652,78486,71.65,78.49,5,684,98,149
"Tayug, Pangasinan, Philippines",16.01085,120.74649,PLDT,65111,93802,65.11,93.80,10,684,200,320
"Toboso, Negros Occidental, Philippines",10.71769,123.46077,PLDT,67416,76739,67.42,76.74,9,684,169,267
"Penaranda, Nueva Ecija, Philippines",15.36229,121.02204,PLDT Home Fiber,92388,92792,92.39,92.79,12,684,141,226
"Noveleta, Cavite, Philippines",14.42785,120.88009,PLDT,58044,69398,58.04,69.40,9,683,165,248
"Paracale, Camarines Norte, Philippines",14.23721,122.78588,PLDT,30097,22954,30.10,22.95,13,683,81,143
"Baao, Camarines Sur, Philippines",13.49319,123.35984,PLDT,43578,43568,43.58,43.57,13,682,74,98
"Santo Nino, South Cotabato, Philippines",6.44221,124.67459,PLDT Home Fiber,72659,49429,72.66,49.43,12,682,67,93
"Borbon, Cebu, Philippines",10.84627,123.9973,Globe,93657,94836,93.66,94.84,19,682,189,261
"Molave, Zamboanga del Sur, Philippines",8.10419,123.4944,PLDT Home Fiber,52175,51722,52.18,51.72,10,682,95,131
"Tanjay City, Negros Oriental, Philippines",9.49579,122.9663,PLDT Home Fiber,68446,65000,68.45,65.00,10,681,115,170
"San Quintin, Pangasinan, Philippines",15.9754,120.83841,Globe,94335,91649,94.34,91.65,7,680,173,341
"Cordon, Isabela, Philippines",16.67835,121.46847,PLDT Home Fiber,92605,94371,92.61,94.37,13,680,148,255
"Santa Catalina, Negros Oriental, Philippines",9.28676,122.94377,PLDT,47940,52137,47.94,52.14,10,676,57,69
"Indang, Cavite, Philippines",14.19204,120.87286,Globe,62777,54115,62.78,54.12,6,676,189,335
"Dona Remedios Trinidad, Bulacan, Philippines",15.11427,121.21685,PLDT Home Fiber,89053,86098,89.05,86.10,8,675,158,244
"Pototan, Iloilo, Philippines",10.94194,122.63874,PLDT Home Fiber,44556,57287,44.56,57.29,9,675,72,93
"Tagum, Davao del Norte, Philippines",7.44742,125.80246,Converge,149386,131163,149.39,131.16,5,675,150,196
"Maitum, Sarangani, Philippines",6.12408,124.48636,PLDT,13999,14723,14.00,14.72,20,674,47,76
"La Trinidad, Benguet, Philippines",16.44844,120.59047,PLDT,75888,93557,75.89,93.56,5,672,158,215
"Natividad, Pangasinan, Philippines",16.03821,120.83841,PLDT,93922,94406,93.92,94.41,6,671,197,347
"Panabo City, Davao del Norte, Philippines",7.30822,125.68662,Converge,150127,145448,150.13,145.45,4,671,100,132
"Malay, Aklan, Philippines",11.93033,121.95191,Converge,58423,48338,58.42,48.34,17,670,145,257
"Jaen, Nueva Ecija, Philippines",15.39558,120.87286,Globe,120707,107471,120.71,107.47,4,669,164,237
"Urdaneta City, Pangasinan, Philippines",15.98194,120.59698,Globe,113615,105654,113.62,105.65,5,669,79,89
"Asingan, Pangasinan, Philippines",16.00318,120.67063,PLDT Home Fiber,126999,117379,127.00,117.38,8,667,189,280
"Gapan City, Nueva Ecija, Philippines",15.29121,121.01057,Globe,120843,109140,120.84,109.14,5,666,168,236
"Maramag, Bukidnon, Philippines",7.82687,124.97271,PLDT Home Fiber,99439,94351,99.44,94.35,8,666,163,233
"Alaminos, Laguna, Philippines",14.0454,121.25119,PLDT Home Fiber,117130,153133,117.13,153.13,8,665,149,223
"Ipil, Zamboanga Sibugay, Philippines",7.77318,122.57121,PLDT,107539,97007,107.54,97.01,19,663,137,169
"San Jose, Batangas, Philippines",13.87868,121.09942,PLDT,144314,135122,144.31,135.12,7,660,184,228
"City of Batac, Ilocos Norte, Philippines",18.04961,120.59698,PLDT Home Fiber,99676,102228,99.68,102.23,8,659,110,156
"Toboso, Negros Occidental, Philippines",10.71769,123.46077,PLDT Home Fiber,89752,93830,89.75,93.83,7,659,177,269
"Alimodian, Iloilo, Philippines",10.85495,122.39009,PLDT,56213,81114,56.21,81.11,8,658,56,72
"Norzagaray, Bulacan, Philippines",14.89659,121.14813,PLDT Home Fiber,96229,92445,96.23,92.45,7,658,160,227
"Santa Barbara, Pangasinan, Philippines",15.9774,120.42424,PLDT Home Fiber,155496,132903,155.50,132.90,5,653,99,143
"Sasmuan, Pampanga, Philippines",14.88764,120.61424,PLDT,72580,79136,72.58,79.14,12,653,188,276
"San Jose, Occidental Mindoro, Philippines",12.40119,121.10229,Converge,60146,63620,60.15,63.62,9,648,105,155
"Obando, Bulacan, Philippines",14.70986,120.93674,Converge,99311,98722,99.31,98.72,5,645,88,120
"Argao, Cebu, Philippines",9.88114,123.60535,PLDT,85332,80125,85.33,80.13,8,645,89,122
"City of Baybay, Leyte, Philippines",10.66858,124.80409,Globe,93561,84691,93.56,84.69,12,643,90,116
"Siniloan, Laguna, Philippines",14.43831,121.48561,Converge,156832,155687,156.83,155.69,10,642,103,161
"Bula, Camarines Sur, Philippines",13.44119,123.23632,PLDT,34371,42711,34.37,42.71,18,640,34,40
"Iriga City, Camarines Sur, Philippines",13.42095,123.41361,PLDT,80624,91805,80.62,91.81,9,639,122,160
"Labo, Camarines Norte, Philippines",14.13903,122.7633,PLDT,40106,33585,40.11,33.59,14,635,97,132
"Gubat, Sorsogon, Philippines",12.92415,124.09755,PLDT,111745,106842,111.75,106.84,10,635,57,71
"Lucena City, Quezon, Philippines",13.94139,121.62345,Globe,108760,105040,108.76,105.04,9,634,106,135
"San Juan, Batangas, Philippines",13.75044,121.37703,Converge,101883,94814,101.88,94.81,8,634,149,223
"Pagadian City, Zamboanga del Sur, Philippines",7.86265,123.37106,PLDT,73556,67396,73.56,67.40,15,633,172,242
"Echague, Isabela, Philippines",16.66606,121.78792,PLDT Home Fiber,90093,91212,90.09,91.21,14,629,112,143
"Los Baños, Laguna, Philippines",14.17731,121.22161,Converge,115068,109538,115.07,109.54,6,628,125,212
"Balayan, Batangas, Philippines",13.94995,120.72973,PLDT Home Fiber,86264,142774,86.26,142.77,9,627,104,134
"Pakil, Laguna, Philippines",14.3694,121.39418,PLDT,94167,94850,94.17,94.85,5,623,179,268
"Koronadal, South Cotabato, Philippines",6.50044,124.84333,Globe,96865,93823,96.87,93.82,6,623,93,130
"Lucban, Quezon, Philippines",14.1144,121.55472,Converge,85147,82435,85.15,82.44,8,621,133,220
"Nasugbu, Batangas, Philippines",14.09404,120.68901,Converge,124439,125156,124.44,125.16,7,620,149,238
"Guagua, Pampanga, Philippines",14.96374,120.63244,PLDT,79174,78448,79.17,78.45,11,620,140,187
"City of Catbalogan, Samar, Philippines",11.85683,124.88449,PLDT,46436,51835,46.44,51.84,17,620,168,238
"San Carlos City, Pangasinan, Philippines",15.92589,120.34827,PLDT,91359,95564,91.36,95.56,5,620,168,228
"Bacong, Negros Oriental, Philippines",9.24338,123.27003,PLDT Home Fiber,150563,141677,150.56,141.68,10,620,80,104
"Rizal, Nueva Ecija, Philippines",15.69357,121.10229,PLDT Home Fiber,79864,81473,79.86,81.47,9,618,99,140
"Victoria, Laguna, Philippines",14.19678,121.34273,PLDT Home Fiber,125209,156264,125.21,156.26,7,618,119,179
"Dauis, Bohol, Philippines",9.60401,123.82996,PLDT Home Fiber,93372,111460,93.37,111.46,8,616,137,173
"Manaoag, Pangasinan, Philippines",16.04627,120.4876,PLDT Home Fiber,123416,124166,123.42,124.17,8,616,140,189
"Oroquieta City, Misamis Occidental, Philippines",8.48597,123.79825,PLDT Home Fiber,104880,107148,104.88,107.15,7,616,93,121
"Porac, Pampanga, Philippines",15.06974,120.55007,PLDT,53644,57899,53.64,57.90,11,616,160,228
"Isulan, Sultan Kudarat, Philippines",6.6318,124.44201,PLDT Home Fiber,94075,93442,94.08,93.44,12,613,125,173
"Sogod, Southern Leyte, Philippines",10.44929,125.01679,PLDT,26095,41035,26.10,41.04,18,613,35,47
"Panglao, Bohol, Philippines",9.56947,123.78721,PLDT Home Fiber,86754,76771,86.75,76.77,10,611,136,210
"Balanga City, Bataan, Philippines",14.67454,120.47033,Globe,125158,114034,125.16,114.03,9,611,84,105
"Panabo City, Davao del Norte, Philippines",7.30822,125.68662,PLDT,99468,68927,99.47,68.93,12,610,144,192
"Minalin, Pampanga, Philippines",14.97052,120.68518,Converge,76399,88844,76.40,88.84,4,610,89,109
"Maco, Davao de Oro, Philippines",7.40845,125.937,PLDT Home Fiber,36050,37729,36.05,37.73,9,605,84,111
"Orani, Bataan, Philippines",14.80086,120.53616,PLDT Home Fiber,69887,87580,69.89,87.58,9,605,79,99
"Madridejos, Cebu, Philippines",11.25859,123.7406,PLDT,97836,90744,97.84,90.74,7,604,55,72
"Salvador Benedicto, Negros Occidental, Philippines",10.5887,123.23632,PLDT,103277,150900,103.28,150.90,6,604,209,326
"Subic Bay Freeport Zone, Philippines",14.80319,120.30033,PLDT Home Fiber,120442,130834,120.44,130.83,7,603,117,188
"Santa Lucia, Ilocos Sur, Philippines",17.12888,120.47033,Converge,93998,100356,94.00,100.36,9,602,127,207
"San Fabian, Pangasinan, Philippines",16.14188,120.44729,PLDT,89012,87149,89.01,87.15,5,602,132,211
"Ipil, Zamboanga Sibugay, Philippines",7.77318,122.57121,Globe,79660,63676,79.66,63.68,10,600,73,95
"Carmona, Cavite, Philippines",14.3135,121.05712,PLDT Home Fiber,182343,190655,182.34,190.66,5,598,137,197
"Cauayan City, Isabela, Philippines",16.91662,121.78792,PLDT,35999,36472,36.00,36.47,13,596,111,178
"Sibulan, Negros Oriental, Philippines",9.35972,123.28476,Globe,93409,94524,93.41,94.52,10,596,140,176
