Location Name,Latitude,Longitude,Provider,Download Speed,Upload Speed,Download Speed Mbps,Upload Speed Mbps,Minimum Latency,Test Count,Sample Count,User Count
"Quezon City, Metro Manila, Philippines",14.64879,121.05094,PLDT Home Fiber,161192,162642,161.19,162.64,3,24401,7960,11854
"Quezon City, Metro Manila, Philippines",14.64879,121.05094,Converge,175516,172626,175.52,172.63,4,15206,4792,7616
"Quezon City, Metro Manila, Philippines",14.64879,121.05094,Globe,208071,183344,208.07,183.34,5,13202,4409,6712
"Manila, Metro Manila, Philippines",14.59951,120.98423,PLDT Home Fiber,92868,108918,92.87,108.92,7,13177,3599,5287
"Parañaque, Metro Manila, Philippines",14.47929,121.01985,PLDT Home Fiber,69444,157341,69.44,157.34,8,12197,2703,3653
"Cebu City, Cebu, Philippines",10.29261,123.90219,PLDT Home Fiber,98762,106023,98.76,106.02,6,9759,2876,4067
"Cagayan De Oro City, Misamis Oriental, Philippines",8.48029,124.64975,PLDT Home Fiber,109320,95315,109.32,95.32,8,9681,3094,4615
"Manila, Metro Manila, Philippines",14.59951,120.98423,Converge,199977,153737,199.98,153.74,5,9423,2923,5040
"Lucena City, Quezon, Philippines",13.94139,121.62345,PLDT,108828,123929,108.83,123.93,6,8553,2531,3998
"Davao City, Davao del Sur, Philippines",7.06475,125.60884,Globe,125900,119528,125.90,119.53,4,8441,2974,4000
"Cebu City, Cebu, Philippines",10.29261,123.90219,Converge,163962,210248,163.96,210.25,5,8382,2513,3704
"Cebu City, Cebu, Philippines",10.29261,123.90219,PLDT,87911,93443,87.91,93.44,7,7756,2362,3434
"Quezon City, Metro Manila, Philippines",14.64879,121.05094,PLDT,77224,77450,77.22,77.45,7,7378,2612,3787
"Cebu City, Cebu, Philippines",10.29261,123.90219,Globe,129170,114421,129.17,114.42,6,7003,2529,3545
"Davao City, Davao del Sur, Philippines",7.06475,125.60884,PLDT Home Fiber,105464,94154,105.46,94.15,9,6474,2009,2831
"Pasig, Metro Manila, Philippines",14.56082,121.0776,PLDT Home Fiber,184603,172142,184.60,172.14,3,6088,2104,3069
"Makati City, Metro Manila, Philippines",14.55474,121.02444,PLDT,87900,84859,87.90,84.86,8,5919,1968,2748
"Parañaque, Metro Manila, Philippines",14.47929,121.01985,Converge,205058,199546,205.06,199.55,4,5834,1936,2996
"Pasig, Metro Manila, Philippines",14.56082,121.0776,Converge,102481,107736,102.48,107.74,4,5604,1951,2762
"Manila, Metro Manila, Philippines",14.59951,120.98423,PLDT,91359,93787,91.36,93.79,5,5599,1772,2604
"Pasay City, Metro Manila, Philippines",14.53767,121.00081,PLDT Home Fiber,74065,121640,74.07,121.64,7,5493,1535,2300
"Calamba, Laguna, Philippines",14.19488,121.15974,Converge,171630,149615,171.63,149.62,6,5113,1645,2619
"Cagayan De Oro City, Misamis Oriental, Philippines",8.48029,124.64975,Globe,112020,82991,112.02,82.99,9,5103,1665,2452
"Valenzuela, Metro Manila, Philippines",14.69247,120.96991,Converge,195841,181970,195.84,181.97,3,5007,1508,2644
"Antipolo City, 1870 Rizal, Philippines",14.58584,121.17569,PLDT Home Fiber,143478,144038,143.48,144.04,4,4954,1611,2341
"Davao City, Davao del Sur, Philippines",7.06475,125.60884,Converge,109089,105646,109.09,105.65,3,4917,1824,2585
"Parañaque, Metro Manila, Philippines",14.47929,121.01985,PLDT,116388,100663,116.39,100.66,5,4837,1766,2640
"Angeles, Pampanga, Philippines",15.16061,120.60908,Converge,116283,140984,116.28,140.98,3,4623,1464,2145
"Taguig, Metro Manila, Philippines",14.53063,121.05755,Converge,199309,200754,199.31,200.75,4,4475,1405,2184
"Iligan City, Lanao del Norte, Philippines",8.22707,124.46418,PLDT Home Fiber,94154,94200,94.15,94.20,6,4293,1237,1852
"Baguio, Benguet, Philippines",16.41297,120.5914,PLDT Home Fiber,96645,96255,96.65,96.26,6,4187,1371,2037
"Pandi, Bulacan, Philippines",14.87572,120.95941,Converge,239085,104372,239.09,104.37,7,4162,1396,2167
"Tanza, Cavite, Philippines",14.34293,120.85032,Converge,207385,212817,207.39,212.82,6,4159,1175,1773
"Makati City, Metro Manila, Philippines",14.55474,121.02444,PLDT Home Fiber,157206,151177,157.21,151.18,4,4115,1305,1946
"Caloocan, Metro Manila, Philippines",14.65136,120.99022,PLDT Home Fiber,166165,167220,166.17,167.22,3,4086,1287,1841
"Marikina, Metro Manila, Philippines",14.63493,121.10195,Converge,196091,185147,196.09,185.15,3,4083,1418,2225
"Taguig, Metro Manila, Philippines",14.53063,121.05755,Globe,204755,184809,204.76,184.81,4,3961,1455,2286
"Cainta, Rizal, Philippines",14.58056,121.11565,PLDT Home Fiber,183447,193934,183.45,193.93,3,3949,1184,1777
"Las Piñas, Metro Manila, Philippines",14.44934,120.98186,PLDT Home Fiber,136304,162190,136.30,162.19,4,3908,1139,1593
"San Pablo City, Laguna, Philippines",14.06422,121.32326,Converge,155500,169026,155.50,169.03,8,3645,1031,1784
"Batangas City, Batangas, Philippines",13.75641,121.05833,Globe,119166,106489,119.17,106.49,10,3563,1131,1785
"SJDM, Bulacan, Philippines",14.82867,121.04324,Converge,135742,102496,135.74,102.50,7,3475,1083,1577
"Taytay, Rizal, Philippines",14.55288,121.12571,PLDT Home Fiber,195216,198151,195.22,198.15,4,3420,1127,1611
"Minglanilla, Cebu, Philippines",10.24543,123.79599,Converge,218895,251542,218.90,251.54,5,3401,1023,1545
"Davao City, Davao del Sur, Philippines",7.06475,125.60884,PLDT,95527,94053,95.53,94.05,9,3351,1086,1525
"Imus, Cavite, Philippines",14.42764,120.93724,PLDT Home Fiber,188183,173456,188.18,173.46,4,3309,1078,1586
"Malabon, Metro Manila, Philippines",14.65793,120.95118,PLDT Home Fiber,100568,151324,100.57,151.32,3,3145,991,1474
"Mexico, Pampanga, Philippines",15.06457,120.72033,Converge,173794,197299,173.79,197.30,4,3027,1072,1574
"Capas, Tarlac, Philippines",15.34633,120.59344,Converge,172005,189856,172.01,189.86,3,2921,1029,1595
"Iloilo City, Iloilo, Philippines",10.73019,122.55911,Globe,114552,103536,114.55,103.54,8,2918,1048,1607
"Caloocan, Metro Manila, Philippines",14.65136,120.99022,Globe,168440,134797,168.44,134.80,5,2830,1007,1478
"Bacoor, Cavite, Philippines",14.43122,120.96567,PLDT Home Fiber,137376,138527,137.38,138.53,5,2811,886,1336
"Taguig, Metro Manila, Philippines",14.53063,121.05755,PLDT Home Fiber,192770,186716,192.77,186.72,4,2786,889,1231
"Taguig, Metro Manila, Philippines",14.53063,121.05755,PLDT,79633,79032,79.63,79.03,6,2765,898,1289
"Tanauan City, Batangas, Philippines",14.08354,121.14762,PLDT Home Fiber,161990,154636,161.99,154.64,7,2731,943,1446
"Antipolo City, 1870 Rizal, Philippines",14.58584,121.17569,Converge,189683,190528,189.68,190.53,4,2615,857,1302
"San Fernando, Pampanga, Philippines",15.02781,120.69349,PLDT Home Fiber,154900,100758,154.90,100.76,8,2588,878,1317
"Magpet, Cotabato, Philippines",7.1332,125.17087,PLDT Home Fiber,140260,97486,140.26,97.49,8,2548,1024,1412
"Muntinlupa, Metro Manila, Philippines",14.39453,121.04483,PLDT,101726,96186,101.73,96.19,5,2541,831,1217
"Naga City, Camarines Sur, Philippines",13.6475,123.27003,Converge,99099,94117,99.10,94.12,9,2472,535,915
"San Juan City, Metro Manila, Philippines",14.60196,121.0355,Globe,222007,197318,222.01,197.32,5,2453,850,1270
"Makati City, Metro Manila, Philippines",14.55474,121.02444,Globe,171920,131879,171.92,131.88,4,2440,787,1185
"Valenzuela, Metro Manila, Philippines",14.69247,120.96991,PLDT Home Fiber,171433,182000,171.43,182.00,3,2413,780,1129
"San Fernando, Pampanga, Philippines",15.02781,120.69349,Converge,94113,95519,94.11,95.52,4,2404,925,1318
"Dasmariñas, Cavite, Philippines",14.33385,120.95423,PLDT Home Fiber,150048,146341,150.05,146.34,4,2328,722,1077
"Tarlac City, Tarlac, Philippines",15.48808,120.58719,Converge,128864,116648,128.86,116.65,4,2273,818,1201
"Bacolod, Negros Occidental, Philippines",10.66764,122.94556,PLDT Home Fiber,92210,94320,92.21,94.32,7,2191,657,972
"Calamba, Laguna, Philippines",14.19488,121.15974,PLDT Home Fiber,116158,120670,116.16,120.67,8,2095,706,1025
"San Carlos City, Negros Occidental, Philippines",10.48344,123.30371,PLDT,123632,144186,123.63,144.19,5,2085,837,1162
"Pasig, Metro Manila, Philippines",14.56082,121.0776,PLDT,83094,82583,83.09,82.58,7,2080,788,1108
"La Trinidad, Benguet, Philippines",16.44844,120.59047,Converge,113725,117384,113.73,117.38,3,2075,786,1110
"Dasmariñas, Cavite, Philippines",14.33385,120.95423,Globe,202774,173038,202.77,173.04,5,2072,738,1106
"Pasig, Metro Manila, Philippines",14.56082,121.0776,Globe,203188,192215,203.19,192.22,5,2035,681,979
"Marikina, Metro Manila, Philippines",14.63493,121.10195,PLDT Home Fiber,205422,190843,205.42,190.84,3,2011,722,1020
"Mandaluyong City, Metro Manila, Philippines",14.57627,121.03924,Globe,178131,150339,178.13,150.34,5,2007,713,1068
"San Juan City, Metro Manila, Philippines",14.60196,121.0355,PLDT,56520,55346,56.52,55.35,14,1951,650,946
"Malabon, Metro Manila, Philippines",14.65793,120.95118,Converge,182851,179448,182.85,179.45,3,1944,591,982
"Polangui, Albay, Philippines",13.29368,123.48542,Converge,116832,74841,116.83,74.84,14,1906,445,847
"Magpet, Cotabato, Philippines",7.1332,125.17087,PLDT,155145,99117,155.15,99.12,8,1894,872,1166
"Cabanatuan City, Nueva Ecija, Philippines",15.49943,121.01057,Globe,168627,131793,168.63,131.79,5,1869,635,948
"Bago, Negros Occidental, Philippines",10.53757,122.83609,Converge,166538,157630,166.54,157.63,13,1857,686,1057
"Biñan, Laguna, Philippines",14.31456,121.08316,PLDT Home Fiber,103805,103888,103.81,103.89,8,1833,544,824
"Makati City, Metro Manila, Philippines",14.55474,121.02444,Converge,194438,181730,194.44,181.73,5,1751,583,968
"Batangas City, Batangas, Philippines",13.75641,121.05833,PLDT Home Fiber,153368,116046,153.37,116.05,8,1717,491,753
"Candelaria, Quezon, Philippines",13.94899,121.42276,Converge,203078,195867,203.08,195.87,4,1706,582,941
"Baguio, Benguet, Philippines",16.41297,120.5914,Converge,98860,103500,98.86,103.50,4,1677,561,803
"Bacolor, Pampanga, Philippines",14.99692,120.65235,PLDT Home Fiber,184642,129627,184.64,129.63,8,1644,604,843
"General Trias, Cavite, Philippines",14.38159,120.87915,Converge,170511,176320,170.51,176.32,7,1639,515,798
"Cagayan De Oro City, Misamis Oriental, Philippines",8.48029,124.64975,Converge,109376,103641,109.38,103.64,8,1592,530,748
"Pasay City, Metro Manila, Philippines",14.53767,121.00081,PLDT,87100,91419,87.10,91.42,9,1556,483,730
"Concepcion, Tarlac, Philippines",15.324,120.65596,Converge,129541,146625,129.54,146.63,3,1555,519,754
"Bacolod, Negros Occidental, Philippines",10.66764,122.94556,Globe,114195,104651,114.20,104.65,8,1544,508,724
"Muntinlupa, Metro Manila, Philippines",14.39453,121.04483,PLDT Home Fiber,156937,127460,156.94,127.46,4,1519,437,599
"Tarlac City, Tarlac, Philippines",15.48808,120.58719,Globe,106674,99174,106.67,99.17,5,1508,526,800
"Santa Cruz, Davao del Sur, Philippines",6.83551,125.41659,Converge,142603,143092,142.60,143.09,4,1499,533,739
"Murcia, Negros Occidental, Philippines",10.60643,123.03944,Globe,144833,115869,144.83,115.87,8,1474,525,757
"Silang, Cavite, Philippines",14.22025,120.96469,PLDT Home Fiber,158709,157383,158.71,157.38,5,1465,489,754
"La Paz, Tarlac, Philippines",15.4497,120.7235,Globe,93268,93502,93.27,93.50,5,1463,451,850
"Caloocan, Metro Manila, Philippines",14.65136,120.99022,Converge,180300,187777,180.30,187.78,4,1450,417,637
"Mandaluyong City, Metro Manila, Philippines",14.57627,121.03924,Converge,182485,180694,182.49,180.69,4,1441,472,716
"Los Baños, Laguna, Philippines",14.17731,121.22161,PLDT Home Fiber,137279,139833,137.28,139.83,7,1437,547,819
"Canlaon City, Negros Oriental, Philippines",10.36048,123.19137,PLDT Home Fiber,142498,167053,142.50,167.05,6,1392,513,736
"San Rafael, Bulacan, Philippines",15.00184,120.93141,PLDT Home Fiber,125209,118750,125.21,118.75,7,1376,487,730
"Santa Maria, Bulacan, Philippines",14.82898,120.97616,Converge,174259,118942,174.26,118.94,7,1373,446,691
"San Antonio, Nueva Ecija, Philippines",15.31921,120.82692,Globe,225678,204132,225.68,204.13,5,1372,500,742
"Butuan City, Agusan Del Norte, Philippines",8.94753,125.54063,Globe,119735,60843,119.74,60.84,14,1368,502,657
"Las Piñas, Metro Manila, Philippines",14.44934,120.98186,PLDT,94604,94492,94.60,94.49,5,1359,387,561
"Parañaque, Metro Manila, Philippines",14.47929,121.01985,Globe,218637,164968,218.64,164.97,4,1294,447,596
"Caloocan, Metro Manila, Philippines",14.65136,120.99022,PLDT,91572,93862,91.57,93.86,3,1292,438,670
"Claveria, Misamis Oriental, Philippines",8.62972,124.90655,Converge,130685,105307,130.69,105.31,9,1290,478,738
"Talakag, Bukidnon, Philippines",8.05293,124.72988,PLDT Home Fiber,108026,101633,108.03,101.63,5,1288,429,651
"Iloilo City, Iloilo, Philippines",10.73019,122.55911,Converge,105354,102302,105.35,102.30,14,1259,399,595
"San Juan City, Metro Manila, Philippines",14.60196,121.0355,PLDT Home Fiber,156222,157601,156.22,157.60,3,1251,465,663
"Imus, Cavite, Philippines",14.42764,120.93724,Converge,210778,180286,210.78,180.29,6,1249,464,733
"Lipa City, Batangas, Philippines",13.94047,121.19395,PLDT Home Fiber,168631,160138,168.63,160.14,7,1246,399,540
"Iriga City, Camarines Sur, Philippines",13.42095,123.41361,Converge,96074,94615,96.07,94.62,4,1245,371,655
"Calapan City, Oriental Mindoro, Philippines",13.36643,121.19395,Converge,107526,101667,107.53,101.67,12,1206,334,581
"Subic Bay Freeport Zone, Philippines",14.80319,120.30033,Converge,122914,128374,122.91,128.37,4,1181,461,651
"Itogon, Benguet, Philippines",16.36116,120.6787,PLDT Home Fiber,97316,96455,97.32,96.46,6,1175,458,672
"Itogon, Benguet, Philippines",16.36116,120.6787,PLDT,105041,97275,105.04,97.28,5,1172,425,662
"Santa Ana, Pampanga, Philippines",15.09442,120.76623,Converge,157983,186626,157.98,186.63,3,1168,436,642
"San Mateo, Rizal, Philippines",14.69539,121.11767,PLDT Home Fiber,142224,163805,142.22,163.81,4,1154,341,463
"General Trias, Cavite, Philippines",14.38159,120.87915,PLDT Home Fiber,173260,161983,173.26,161.98,5,1152,353,503
"San Pablo City, Laguna, Philippines",14.06422,121.32326,PLDT Home Fiber,153991,174885,153.99,174.89,6,1135,352,544
"Kawit, Cavite, Philippines",14.44588,120.90871,Converge,194153,217408,194.15,217.41,6,1121,367,572
"San Carlos City, Negros Occidental, Philippines",10.48344,123.30371,PLDT Home Fiber,120805,159091,120.81,159.09,5,1118,465,659
"Iloilo City, Iloilo, Philippines",10.73019,122.55911,PLDT Home Fiber,126418,126959,126.42,126.96,8,1109,358,526
"Bago, Negros Occidental, Philippines",10.53757,122.83609,PLDT Home Fiber,144860,150904,144.86,150.90,6,1087,436,629
"Arayat, Pampanga, Philippines",15.15443,120.771,Converge,121818,155623,121.82,155.62,4,1079,411,644
"Binangonan, Rizal, Philippines",14.48441,121.1869,PLDT,112384,136829,112.38,136.83,3,1077,391,584
"San Juan City, Metro Manila, Philippines",14.60196,121.0355,Converge,161324,149639,161.32,149.64,4,1058,344,546
"Antipolo City, 1870 Rizal, Philippines",14.58584,121.17569,PLDT,75588,88978,75.59,88.98,8,1049,363,516
"Mandaluyong City, Metro Manila, Philippines",14.57627,121.03924,PLDT Home Fiber,199708,202653,199.71,202.65,3,1045,362,487
"Butuan City, Agusan Del Norte, Philippines",8.94753,125.54063,PLDT Home Fiber,79630,89132,79.63,89.13,9,1032,297,426
"City of Santa Rosa, Laguna, Philippines",14.31471,121.11232,PLDT Home Fiber,117178,111433,117.18,111.43,7,1011,243,333
"Malolos, Bulacan, Philippines",14.86049,120.80916,PLDT Home Fiber,135979,140086,135.98,140.09,6,1006,308,462
"New Lucena, Iloilo, Philippines",10.87841,122.59781,Converge,114994,105268,114.99,105.27,12,1005,317,545
"Kawit, Cavite, Philippines",14.44588,120.90871,PLDT Home Fiber,96279,95693,96.28,95.69,8,1000,325,471
"Burgos, La Union, Philippines",16.53803,120.47033,Converge,99068,107892,99.07,107.89,4,992,384,554
"Bacoor, Cavite, Philippines",14.43122,120.96567,Converge,183491,159964,183.49,159.96,7,984,326,533
"Tanauan City, Batangas, Philippines",14.08354,121.14762,PLDT,114993,104775,114.99,104.78,8,973,312,445
"Taytay, Rizal, Philippines",14.55288,121.12571,Converge,231762,246179,231.76,246.18,3,970,359,524
"Lucena City, Quezon, Philippines",13.94139,121.62345,PLDT Home Fiber,104752,135098,104.75,135.10,5,970,332,487
"Calamba, Laguna, Philippines",14.19488,121.15974,PLDT,77997,87264,78.00,87.26,9,955,306,447
"Danao, Cebu, Philippines",10.52013,124.02712,Globe,96067,94446,96.07,94.45,6,952,384,576
"Naga City, Camarines Sur, Philippines",13.6475,123.27003,PLDT Home Fiber,99477,97244,99.48,97.24,7,939,264,379
"Bacolod, Negros Occidental, Philippines",10.66764,122.94556,Converge,144763,123362,144.76,123.36,15,913,319,488
"Iligan City, Lanao del Norte, Philippines",8.22707,124.46418,Converge,187614,191724,187.61,191.72,7,901,369,497
"Murcia, Negros Occidental, Philippines",10.60643,123.03944,PLDT Home Fiber,146165,145217,146.17,145.22,6,896,323,476
"Kawit, Cavite, Philippines",14.44588,120.90871,Globe,125389,112395,125.39,112.40,6,894,282,446
"Bacoor, Cavite, Philippines",14.43122,120.96567,PLDT,88942,80126,88.94,80.13,8,889,316,414
"Manila, Metro Manila, Philippines",14.59951,120.98423,Globe,162425,163313,162.43,163.31,5,869,316,458
"Olongapo City, Zambales, Philippines",14.88739,120.36661,Converge,104713,107393,104.71,107.39,5,864,316,485
"Angeles, Pampanga, Philippines",15.16061,120.60908,PLDT Home Fiber,99845,97064,99.85,97.06,9,833,221,326
"Bacolod, Negros Occidental, Philippines",10.66764,122.94556,PLDT,86050,90256,86.05,90.26,7,809,253,359
"Valenzuela, Metro Manila, Philippines",14.69247,120.96991,PLDT,77518,91413,77.52,91.41,7,780,232,332
"Cainta, Rizal, Philippines",14.58056,121.11565,Globe,229087,218353,229.09,218.35,5,765,235,309
"Bamban, Tarlac, Philippines",15.2885,120.57044,Converge,130058,128067,130.06,128.07,3,759,267,387
"Santo Domingo, Nueva Ecija, Philippines",15.61284,120.88434,Globe,149710,147765,149.71,147.77,6,743,262,398
"Tuguegarao City, Cagayan, Philippines",17.60306,121.75374,Converge,84702,78035,84.70,78.04,13,727,100,139
"Bago, Negros Occidental, Philippines",10.53757,122.83609,Globe,93693,94667,93.69,94.67,4,726,280,384
"Meycauayan, Bulacan, Philippines",14.73772,120.96077,PLDT Home Fiber,95643,93245,95.64,93.25,10,718,187,272
"Mandaluyong City, Metro Manila, Philippines",14.57627,121.03924,PLDT,55164,44178,55.16,44.18,10,708,261,389
"Dasmariñas, Cavite, Philippines",14.33385,120.95423,Converge,211991,197826,211.99,197.83,6,696,267,412
"Marilao, Bulacan, Philippines",14.77237,120.96001,PLDT Home Fiber,105114,102086,105.11,102.09,9,691,243,374
"Las Piñas, Metro Manila, Philippines",14.44934,120.98186,Globe,247668,183247,247.67,183.25,5,673,203,261
"Nabua, Camarines Sur, Philippines",13.4069,123.37324,Converge,94817,94654,94.82,94.65,3,672,224,371
"Batangas City, Batangas, Philippines",13.75641,121.05833,PLDT,94549,102639,94.55,102.64,8,667,251,383
"Iloilo City, Iloilo, Philippines",10.73019,122.55911,PLDT,76844,86580,76.84,86.58,9,664,231,325
"Taytay, Rizal, Philippines",14.55288,121.12571,PLDT,77017,89171,77.02,89.17,8,663,194,302
"Bustos, Bulacan, Philippines",14.95239,120.91735,PLDT Home Fiber,163865,148422,163.87,148.42,8,662,215,304
"Muntinlupa, Metro Manila, Philippines",14.39453,121.04483,Converge,158893,159371,158.89,159.37,4,660,228,318
"Cardona, Rizal, Philippines",14.48493,121.232,PLDT,143798,127115,143.80,127.12,3,657,251,401
"Marilao, Bulacan, Philippines",14.77237,120.96001,PLDT,86305,92743,86.31,92.74,10,650,198,294
"Baliwag, Bulacan, Philippines",14.96569,120.89431,PLDT Home Fiber,132384,118427,132.38,118.43,7,649,261,369
"Urdaneta City, Pangasinan, Philippines",15.98194,120.59698,Converge,95720,106981,95.72,106.98,5,643,219,352
"Santa Barbara, Pangasinan, Philippines",15.9774,120.42424,Converge,97936,108393,97.94,108.39,5,640,229,339
"Rodriguez, Rizal, Philippines",14.73202,121.14516,PLDT Home Fiber,139223,149746,139.22,149.75,4,631,189,246
"San Nicolas, Pangasinan, Philippines",16.12066,120.78097,PLDT,111460,101053,111.46,101.05,6,620,241,356
"Bulakan, Bulacan, Philippines",14.79484,120.87889,PLDT Home Fiber,165750,157377,165.75,157.38,6,619,166,272
"Sariaya, Quezon, Philippines",13.96301,121.52388,Converge,217613,221978,217.61,221.98,5,619,240,375
"Biñan, Laguna, Philippines",14.31456,121.08316,PLDT,92037,92953,92.04,92.95,8,619,215,300
"Magpet, Cotabato, Philippines",7.1332,125.17087,Globe,63163,87378,63.16,87.38,7,617,246,361
"Santo Tomas, Batangas, Philippines",14.08754,121.17764,PLDT Home Fiber,133586,160570,133.59,160.57,10,615,145,200
"San Pedro, Laguna, Philippines",14.36443,121.06192,Converge,176844,165511,176.84,165.51,7,615,147,253
"Cainta, Rizal, Philippines",14.58056,121.11565,PLDT,87902,92624,87.90,92.62,5,610,197,283
"Lucban, Quezon, Philippines",14.1144,121.55472,PLDT Home Fiber,192202,185552,192.20,185.55,8,604,177,273
"Valenzuela, Metro Manila, Philippines",14.69247,120.96991,Globe,199394,173289,199.39,173.29,5,604,186,236
"City of Santa Rosa, Laguna, Philippines",14.31471,121.11232,PLDT,96278,96863,96.28,96.86,8,602,204,290
"San Pedro, Laguna, Philippines",14.36443,121.06192,PLDT Home Fiber,178940,159591,178.94,159.59,4,591,191,260
"Balamban, Cebu, Philippines",10.48585,123.77412,Globe,230477,203482,230.48,203.48,6,578,224,312
"Zamboanga City, Zamboanga del Sur, Philippines",6.90437,122.07612,PLDT Home Fiber,103617,76152,103.62,76.15,10,574,170,240
"Matalam, Cotabato, Philippines",7.17236,124.92861,PLDT Home Fiber,184919,97347,184.92,97.35,8,572,245,350
"Jamindan, Capiz, Philippines",11.39423,122.42407,Converge,173224,158570,173.22,158.57,14,568,157,298
"Kidapawan, Cotabato, Philippines",7.02127,125.09019,Globe,62159,93488,62.16,93.49,7,563,202,291
"Marikina, Metro Manila, Philippines",14.63493,121.10195,Globe,185370,191565,185.37,191.57,5,559,200,282
"Cabuyao City, Laguna, Philippines",14.27433,121.11961,PLDT Home Fiber,115174,102231,115.17,102.23,7,555,157,232
"Subic, Zambales, Philippines",14.83066,120.18202,Converge,108311,109336,108.31,109.34,5,550,194,306
"Marilao, Bulacan, Philippines",14.77237,120.96001,Converge,149638,172252,149.64,172.25,8,533,136,188
"Nagcarlan, Laguna, Philippines",14.14903,121.38847,PLDT Home Fiber,193700,212849,193.70,212.85,10,531,164,264
"Antipolo City, 1870 Rizal, Philippines",14.58584,121.17569,Globe,129623,115854,129.62,115.85,5,528,166,239
"SJDM, Bulacan, Philippines",14.82867,121.04324,PLDT,77023,77507,77.02,77.51,8,528,138,210
"Lapu-Lapu, Cebu, Philippines",10.31838,123.96395,Converge,141747,184792,141.75,184.79,3,524,143,217
"Cainta, Rizal, Philippines",14.58056,121.11565,Converge,198727,195105,198.73,195.11,3,519,160,222
"Pitogo, Quezon, Philippines",13.80951,122.10647,Converge,98834,103109,98.83,103.11,10,518,151,231
"Malabon, Metro Manila, Philippines",14.65793,120.95118,PLDT,79139,85339,79.14,85.34,6,517,185,262
"Lapu-Lapu, Cebu, Philippines",10.31838,123.96395,Globe,181501,174648,181.50,174.65,5,513,145,169
"Baguio, Benguet, Philippines",16.41297,120.5914,PLDT,93572,93599,93.57,93.60,5,512,165,265
"Bacoor, Cavite, Philippines",14.43122,120.96567,Globe,178318,142105,178.32,142.11,6,510,185,258
"City of Tayabas, Quezon, Philippines",14.01135,121.55983,PLDT Home Fiber,135422,131959,135.42,131.96,9,508,150,232
"Lipa City, Batangas, Philippines",13.94047,121.19395,Globe,132591,111730,132.59,111.73,7,505,183,261
"Las Piñas, Metro Manila, Philippines",14.44934,120.98186,Converge,182022,185701,182.02,185.70,4,499,147,240
"Danao, Cebu, Philippines",10.52013,124.02712,PLDT Home Fiber,160978,146974,160.98,146.97,5,498,199,289
"Arayat, Pampanga, Philippines",15.15443,120.771,PLDT Home Fiber,97098,97557,97.10,97.56,9,497,169,250
"Mabalacat City, Pampanga, Philippines",15.24525,120.56567,Converge,92391,95315,92.39,95.32,3,496,165,246
"Tarlac City, Tarlac, Philippines",15.48808,120.58719,PLDT Home Fiber,84803,93880,84.80,93.88,10,492,168,267
"General Santos City (Dadiangas), South Cotabato, Philippines",6.14327,125.19286,PLDT Home Fiber,76586,85894,76.59,85.89,10,492,173,233
"Marikina, Metro Manila, Philippines",14.63493,121.10195,PLDT,82579,79022,82.58,79.02,9,486,174,234
"Imus, Cavite, Philippines",14.42764,120.93724,Globe,207895,192486,207.90,192.49,6,485,158,231
"Cadiz City, Negros Occidental, Philippines",10.86192,123.23632,PLDT Home Fiber,80498,82575,80.50,82.58,7,479,153,225
"Zamboanga City, Zamboanga del Sur, Philippines",6.90437,122.07612,Globe,103275,58490,103.28,58.49,14,477,108,160
"SJDM, Bulacan, Philippines",14.82867,121.04324,PLDT Home Fiber,186141,180597,186.14,180.60,5,474,138,202
"Santa Maria, Bulacan, Philippines",14.82898,120.97616,PLDT Home Fiber,134913,115039,134.91,115.04,8,474,141,210
"Dagupan City, Pangasinan, Philippines",16.03375,120.33202,PLDT Home Fiber,115889,125699,115.89,125.70,6,469,142,218
"Subic Bay Freeport Zone, Philippines",14.80319,120.30033,PLDT,85698,87853,85.70,87.85,13,467,117,184
"General Trias, Cavite, Philippines",14.38159,120.87915,Globe,129093,111298,129.09,111.30,5,467,160,226
"Santa Fe, Nueva Vizcaya, Philippines",16.18249,120.91878,PLDT Home Fiber,151483,122109,151.48,122.11,5,464,169,254
"Silang, Cavite, Philippines",14.22025,120.96469,Globe,107183,100528,107.18,100.53,6,457,149,246
"Malolos, Bulacan, Philippines",14.86049,120.80916,PLDT,93073,93630,93.07,93.63,7,457,135,186
"San Pedro, Laguna, Philippines",14.36443,121.06192,PLDT,147164,127133,147.16,127.13,6,456,137,195
"Pasay City, Metro Manila, Philippines",14.53767,121.00081,Converge,185991,177533,185.99,177.53,4,453,157,225
"Candaba, Pampanga, Philippines",15.09289,120.8277,PLDT Home Fiber,93980,94528,93.98,94.53,6,453,186,263
"Talavera, Nueva Ecija, Philippines",15.58575,120.9197,Converge,153959,129574,153.96,129.57,5,450,159,259
"Compostela, Cebu, Philippines",10.45408,124.013,Globe,65683,58618,65.68,58.62,6,445,132,203
"Pagadian City, Zamboanga del Sur, Philippines",7.86265,123.37106,PLDT Home Fiber,69676,75823,69.68,75.82,6,439,82,119
"Banga, South Cotabato, Philippines",6.38791,124.79617,PLDT Home Fiber,79323,76117,79.32,76.12,11,433,134,195
"Lapu-Lapu, Cebu, Philippines",10.31838,123.96395,PLDT Home Fiber,141356,146604,141.36,146.60,3,433,146,190
"Catmon, Cebu, Philippines",10.65242,123.9973,PLDT Home Fiber,143145,195345,143.15,195.35,4,425,168,244
"Rosario, Cavite, Philippines",14.41672,120.85471,Converge,184768,162082,184.77,162.08,7,424,124,196
"Mauban, Quezon, Philippines",14.23756,121.69674,Converge,176495,165624,176.50,165.62,11,422,123,192
"Mandaue, Cebu, Philippines",10.3279,123.94273,Globe,110975,116074,110.98,116.07,5,420,113,148
"Dasmariñas, Cavite, Philippines",14.33385,120.95423,PLDT,71443,77473,71.44,77.47,9,419,132,194
"Magalang, Pampanga, Philippines",15.21394,120.66181,Converge,125171,108676,125.17,108.68,4,417,161,244
"San Fernando, Pampanga, Philippines",15.02781,120.69349,PLDT,87296,93279,87.30,93.28,11,417,155,217
"Mandaue, Cebu, Philippines",10.3279,123.94273,Converge,150333,177610,150.33,177.61,3,415,129,195
"Bokod, Benguet, Philippines",16.45641,120.78097,PLDT,160635,155509,160.64,155.51,5,410,175,256
"Victoria, Tarlac, Philippines",15.59077,120.68901,Globe,61566,54024,61.57,54.02,5,406,128,272
"Calamba, Laguna, Philippines",14.19488,121.15974,Globe,190118,192411,190.12,192.41,5,404,162,231
"Mandaue, Cebu, Philippines",10.3279,123.94273,PLDT Home Fiber,189694,191909,189.69,191.91,3,402,131,178
"Binangonan, Rizal, Philippines",14.48441,121.1869,PLDT Home Fiber,112971,188985,112.97,188.99,4,401,128,186
"Manaoag, Pangasinan, Philippines",16.04627,120.4876,Converge,96465,94683,96.47,94.68,5,401,158,245
"Bokod, Benguet, Philippines",16.45641,120.78097,PLDT Home Fiber,108153,98654,108.15,98.65,5,399,123,194
"Tagaytay City, Cavite, Philippines",14.11541,120.96202,Converge,95528,94929,95.53,94.93,6,396,141,231
"San Antonio, Nueva Ecija, Philippines",15.31921,120.82692,PLDT Home Fiber,100762,99546,100.76,99.55,11,395,133,200
"Malaybalay City, Bukidnon, Philippines",8.15775,125.17087,PLDT Home Fiber,91936,93889,91.94,93.89,9,393,138,190
"General Mamerto Natividad, Nueva Ecija, Philippines",15.58788,121.04498,Converge,156091,152167,156.09,152.17,6,392,136,226
"General Santos City (Dadiangas), South Cotabato, Philippines",6.14327,125.19286,Globe,116338,117342,116.34,117.34,15,389,106,137
"Matanao, Davao del Sur, Philippines",6.70421,125.22584,PLDT Home Fiber,126548,112030,126.55,112.03,9,387,151,215
"Villareal, Samar, Philippines",11.53963,124.92861,Converge,42462,40196,42.46,40.20,7,387,10,10
"Alicia, Isabela, Philippines",16.80691,121.69674,Converge,141983,174643,141.98,174.64,8,386,107,177
"Talisay, Cebu, Philippines",10.25859,123.82413,Converge,142619,206701,142.62,206.70,7,385,73,109
"Dagupan City, Pangasinan, Philippines",16.03375,120.33202,Converge,94635,94471,94.64,94.47,5,384,132,202
"Cabanatuan City, Nueva Ecija, Philippines",15.49943,121.01057,PLDT Home Fiber,96841,132776,96.84,132.78,10,378,124,174
"Cabiao, Nueva Ecija, Philippines",15.25221,120.85957,PLDT Home Fiber,149514,117273,149.51,117.27,8,378,136,200
"Tarlac City, Tarlac, Philippines",15.48808,120.58719,PLDT,90367,94357,90.37,94.36,9,377,125,191
"Angeles, Pampanga, Philippines",15.16061,120.60908,PLDT,64580,62202,64.58,62.20,10,374,127,211
"Orani, Bataan, Philippines",14.80086,120.53616,Converge,94572,95582,94.57,95.58,6,372,120,196
"Tanay, Rizal, Philippines",14.61419,121.37703,PLDT Home Fiber,108423,147891,108.42,147.89,8,369,44,63
"Mexico, Pampanga, Philippines",15.06457,120.72033,PLDT Home Fiber,102723,97126,102.72,97.13,9,369,151,205
"Baguio, Benguet, Philippines",16.41297,120.5914,Globe,133769,117233,133.77,117.23,6,367,94,127
"Bansalan, Davao del Sur, Philippines",6.84825,125.22584,PLDT Home Fiber,114773,106883,114.77,106.88,9,366,158,221
"Atok, Benguet, Philippines",16.59745,120.68901,PLDT Home Fiber,92669,94080,92.67,94.08,6,366,129,199
"Silay, Negros Occidental, Philippines",10.79968,122.97605,PLDT,63262,72532,63.26,72.53,17,366,111,169
"Tanza, Cavite, Philippines",14.34293,120.85032,PLDT Home Fiber,158524,209544,158.52,209.54,5,364,119,157
"Umingan, Pangasinan, Philippines",15.90396,120.82692,Globe,61520,53503,61.52,53.50,6,361,115,217
"Candelaria, Quezon, Philippines",13.94899,121.42276,PLDT Home Fiber,94432,95031,94.43,95.03,7,358,112,194
"Kawit, Cavite, Philippines",14.44588,120.90871,PLDT,83991,60952,83.99,60.95,14,357,91,129
"Mambajao, Camiguin, Philippines",9.22153,124.71882,PLDT Home Fiber,74490,93405,74.49,93.41,12,357,59,83
"Candaba, Pampanga, Philippines",15.09289,120.8277,Globe,170102,129957,170.10,129.96,7,353,120,182
"Kayapa, Nueva Vizcaya, Philippines",16.49326,120.94174,PLDT Home Fiber,183689,161591,183.69,161.59,4,350,122,195
"Kibungan, Benguet, Philippines",16.68162,120.68901,PLDT Home Fiber,117288,109724,117.29,109.72,5,340,131,197
"Lucena City, Quezon, Philippines",13.94139,121.62345,Converge,182543,168663,182.54,168.66,11,334,104,155
"Carmen, Cebu, Philippines",10.58876,123.96385,PLDT Home Fiber,152441,126100,152.44,126.10,6,334,120,189
"San Luis, Pampanga, Philippines",15.03986,120.81544,Converge,143185,141065,143.19,141.07,4,328,140,200
"Toledo, Cebu, Philippines",10.38705,123.65017,Globe,128933,128033,128.93,128.03,16,326,119,166
"Koronadal, South Cotabato, Philippines",6.50044,124.84333,PLDT Home Fiber,88267,91107,88.27,91.11,11,326,90,122
"San Nicolas, Pangasinan, Philippines",16.12066,120.78097,PLDT Home Fiber,110639,104080,110.64,104.08,6,325,126,191
"Arakan, Cotabato, Philippines",7.35122,125.17087,PLDT,69655,83656,69.66,83.66,10,320,122,174
"San Ildefonso, Bulacan, Philippines",15.07717,120.94171,PLDT Home Fiber,192815,162032,192.82,162.03,8,317,116,173
"Cagayan De Oro City, Misamis Oriental, Philippines",8.48029,124.64975,PLDT,70052,55167,70.05,55.17,18,316,109,158
"Polomolok, South Cotabato, Philippines",6.22451,125.06084,PLDT Home Fiber,91172,76756,91.17,76.76,11,315,114,166
"Tagum, Davao del Norte, Philippines",7.44742,125.80246,PLDT Home Fiber,110595,110247,110.60,110.25,8,314,114,162
"Pililla, Rizal, Philippines",14.44393,121.34273,PLDT,156960,170035,156.96,170.04,4,309,115,161
"Concepcion, Tarlac, Philippines",15.324,120.65596,PLDT Home Fiber,80210,73029,80.21,73.03,10,306,80,116
"Bulakan, Bulacan, Philippines",14.79484,120.87889,PLDT,107805,95054,107.81,95.05,5,306,118,183
"Guagua, Pampanga, Philippines",14.96374,120.63244,Converge,67194,71415,67.19,71.42,4,295,88,148
"Malolos, Bulacan, Philippines",14.86049,120.80916,Converge,148693,129393,148.69,129.39,5,295,84,115
"General Santos City (Dadiangas), South Cotabato, Philippines",6.14327,125.19286,PLDT,79677,91956,79.68,91.96,11,295,109,151
"Angono, Rizal, Philippines",14.52592,121.15321,PLDT Home Fiber,199687,267006,199.69,267.01,4,288,88,109
"San Manuel, Pangasinan, Philippines",16.10561,120.67751,PLDT Home Fiber,104041,105599,104.04,105.60,6,288,107,160
"Tuguegarao City, Cagayan, Philippines",17.60306,121.75374,PLDT,81293,77050,81.29,77.05,13,287,101,138
"General Trias, Cavite, Philippines",14.38159,120.87915,PLDT,137222,114174,137.22,114.17,7,285,76,100
"City of Santa Rosa, Laguna, Philippines",14.31471,121.11232,Globe,171612,160918,171.61,160.92,6,281,105,148
"Tuburan, Cebu, Philippines",10.66879,123.86345,Globe,137122,116243,137.12,116.24,8,280,103,136
"Lapu-Lapu, Cebu, Philippines",10.31838,123.96395,PLDT,103356,94218,103.36,94.22,3,280,94,127
"Tuburan, Cebu, Philippines",10.66879,123.86345,PLDT Home Fiber,148460,203040,148.46,203.04,6,276,96,128
"Naga, Cebu, Philippines",10.20764,123.75821,Globe,121266,111045,121.27,111.05,16,272,129,164
"Legazpi City, Albay, Philippines",13.11288,123.76295,Converge,102376,105097,102.38,105.10,4,270,55,90
"Bocaue, Bulacan, Philippines",14.7943,120.93073,PLDT Home Fiber,93844,97391,93.84,97.39,9,270,102,151
"Cabanatuan City, Nueva Ecija, Philippines",15.49943,121.01057,PLDT,57898,57903,57.90,57.90,10,267,73,118
"Bakun, Benguet, Philippines",16.80796,120.68901,PLDT Home Fiber,96342,94787,96.34,94.79,5,266,69,115
"La Trinidad, Benguet, Philippines",16.44844,120.59047,PLDT Home Fiber,110561,94727,110.56,94.73,8,265,95,143
"San Isidro, Nueva Ecija, Philippines",15.29656,120.9073,PLDT Home Fiber,109031,109191,109.03,109.19,12,265,69,114
"Roxas City, Capiz, Philippines",11.55288,122.74072,PLDT Home Fiber,93185,97047,93.19,97.05,9,264,59,71
"Santa Ana, Pampanga, Philippines",15.09442,120.76623,PLDT Home Fiber,89517,94973,89.52,94.97,9,264,94,129
"Lobo, Batangas, Philippines",13.6877,121.23974,Globe,239711,216171,239.71,216.17,8,264,59,84
"Laoag City, Ilocos Norte, Philippines",18.21075,120.58547,Converge,162267,193304,162.27,193.30,10,264,107,174
"Mangaldan, Pangasinan, Philippines",16.06513,120.40474,PLDT Home Fiber,53437,135435,53.44,135.44,12,264,57,85
"City of Guihulngan, Negros Oriental, Philippines",10.18323,123.21385,PLDT Home Fiber,93044,95540,93.04,95.54,5,263,108,158
"Tagum, Davao del Norte, Philippines",7.44742,125.80246,Globe,120258,127139,120.26,127.14,4,263,61,81
"Calumpit, Bulacan, Philippines",14.91518,120.7662,PLDT Home Fiber,92832,96641,92.83,96.64,8,260,82,112
"Muntinlupa, Metro Manila, Philippines",14.39453,121.04483,Globe,215499,182316,215.50,182.32,6,259,84,112
"Lagawe, Ifugao, Philippines",16.80825,121.19395,PLDT Home Fiber,91323,94480,91.32,94.48,9,257,58,106
"Barili, Cebu, Philippines",10.1254,123.55041,PLDT Home Fiber,105316,181548,105.32,181.55,7,257,122,153
"Talisay, Cebu, Philippines",10.25859,123.82413,PLDT,149586,160392,149.59,160.39,3,256,78,110
"San Manuel, Pangasinan, Philippines",16.10561,120.67751,PLDT,95274,95836,95.27,95.84,6,255,64,92
"Dumaguete City, Negros Oriental, Philippines",9.29841,123.29249,PLDT Home Fiber,105929,145380,105.93,145.38,8,253,49,69
"Palayan City, Nueva Ecija, Philippines",15.53906,121.09083,Converge,92697,91717,92.70,91.72,6,253,72,115
"Baungon, Bukidnon, Philippines",8.21754,124.75198,PLDT Home Fiber,104079,111569,104.08,111.57,6,252,89,131
"Lipa City, Batangas, Philippines",13.94047,121.19395,PLDT,91864,93355,91.86,93.36,9,252,108,143
"Calabanga, Camarines Sur, Philippines",13.71633,123.28126,PLDT Home Fiber,48743,49473,48.74,49.47,7,251,23,31
"San Fernando City, La Union, Philippines",16.61592,120.32102,PLDT Home Fiber,195199,181710,195.20,181.71,3,249,66,86
"Cabiao, Nueva Ecija, Philippines",15.25221,120.85957,Globe,128260,125202,128.26,125.20,5,249,72,102
"Escalante City, Negros Occidental, Philippines",10.84117,123.49908,PLDT Home Fiber,81945,92092,81.95,92.09,8,249,72,114
"Roxas City, Capiz, Philippines",11.55288,122.74072,Globe,119549,110081,119.55,110.08,12,248,37,50
"Calatrava, Negros Occidental, Philippines",10.62843,123.39349,PLDT,97382,106823,97.38,106.82,5,247,78,125
"Plaridel, Bulacan, Philippines",14.88591,120.85932,Converge,150433,127484,150.43,127.48,7,246,70,100
"La Castellana, Negros Occidental, Philippines",10.33198,123.10141,PLDT Home Fiber,138561,168376,138.56,168.38,6,244,95,123
"San Simon, Pampanga, Philippines",14.98432,120.75127,Converge,114849,95433,114.85,95.43,4,242,12,15
"Cardona, Rizal, Philippines",14.48493,121.232,PLDT Home Fiber,120174,164059,120.17,164.06,4,241,93,159
"Surallah, South Cotabato, Philippines",6.3195,124.75198,PLDT Home Fiber,76067,58145,76.07,58.15,11,237,66,84
"Kabacan, Cotabato, Philippines",7.10719,124.84034,PLDT Home Fiber,88160,93802,88.16,93.80,11,237,67,88
"Liliw, Laguna, Philippines",14.12617,121.4399,PLDT Home Fiber,193058,175461,193.06,175.46,10,235,75,126
"Mabalacat City, Pampanga, Philippines",15.24525,120.56567,PLDT,92064,90263,92.06,90.26,11,235,79,115
"Mabalacat City, Pampanga, Philippines",15.24525,120.56567,PLDT Home Fiber,147585,129656,147.59,129.66,7,235,59,82
"Kayapa, Nueva Vizcaya, Philippines",16.49326,120.94174,PLDT,151475,121337,151.48,121.34,5,235,91,134
"Trece Martires City, Cavite, Philippines",14.28222,120.86837,PLDT Home Fiber,200719,204029,200.72,204.03,4,233,79,101
"Lipa City, Batangas, Philippines",13.94047,121.19395,Converge,176961,186879,176.96,186.88,8,228,66,113
"Sariaya, Quezon, Philippines",13.96301,121.52388,PLDT Home Fiber,137031,159451,137.03,159.45,5,226,94,134
"Daraga, Albay, Philippines",13.12278,123.69588,Converge,67751,93765,67.75,93.77,14,226,31,49
"Imus, Cavite, Philippines",14.42764,120.93724,PLDT,125054,149970,125.05,149.97,7,226,75,97
"Baras, Rizal, Philippines",14.53656,121.27408,PLDT Home Fiber,155456,131455,155.46,131.46,4,226,60,72
"Calauan, Laguna, Philippines",14.14551,121.3146,PLDT Home Fiber,150197,148674,150.20,148.67,8,223,69,101
"Kapangan, Benguet, Philippines",16.61238,120.59698,PLDT Home Fiber,93831,94569,93.83,94.57,6,223,64,108
"Rodriguez, Rizal, Philippines",14.73202,121.14516,Converge,221040,217592,221.04,217.59,4,221,93,122
"Liloan, Cebu, Philippines",10.39926,124.00002,PLDT Home Fiber,117279,163507,117.28,163.51,4,221,76,122
"Baliwag, Bulacan, Philippines",14.96569,120.89431,PLDT,87791,77374,87.79,77.37,8,219,47,64
"City of Santa Rosa, Laguna, Philippines",14.31471,121.11232,Converge,130985,117948,130.99,117.95,6,219,63,104
"Naic, Cavite, Philippines",14.29649,120.79246,Converge,201005,211346,201.01,211.35,7,219,39,61
"Dumaguete City, Negros Oriental, Philippines",9.29841,123.29249,PLDT,68025,76302,68.03,76.30,9,217,42,54
"Concepcion, Tarlac, Philippines",15.324,120.65596,PLDT,46618,48053,46.62,48.05,9,216,52,74
"Mandaue, Cebu, Philippines",10.3279,123.94273,PLDT,66837,72169,66.84,72.17,3,215,83,117
"Plaridel, Bulacan, Philippines",14.88591,120.85932,PLDT Home Fiber,89811,92718,89.81,92.72,9,214,45,67
"Bay, Laguna, Philippines",14.14064,121.26836,PLDT Home Fiber,147994,187525,147.99,187.53,4,213,83,115
"Silang, Cavite, Philippines",14.22025,120.96469,PLDT,125910,111647,125.91,111.65,7,212,78,127
"Angat, Bulacan, Philippines",14.92586,121.02204,PLDT Home Fiber,90976,95165,90.98,95.17,7,211,55,90
"Naga City, Camarines Sur, Philippines",13.6475,123.27003,PLDT,66803,67351,66.80,67.35,12,211,86,119
"Consolacion, Cebu, Philippines",10.37581,123.95694,Globe,108238,104143,108.24,104.14,4,210,55,71
"Naga City, Camarines Sur, Philippines",13.6475,123.27003,Globe,119808,113303,119.81,113.30,12,209,72,90
"Consolacion, Cebu, Philippines",10.37581,123.95694,PLDT,195629,193403,195.63,193.40,3,209,53,78
"Pinamalayan, Oriental Mindoro, Philippines",13.01533,121.37703,PLDT Home Fiber,92259,91969,92.26,91.97,5,209,20,28
"Mabitac, Laguna, Philippines",14.43383,121.41133,Converge,127155,140587,127.16,140.59,12,207,52,95
"Sagay City, Negros Occidental, Philippines",10.84555,123.37106,PLDT Home Fiber,50782,52291,50.78,52.29,8,207,64,102
"Dipolog City, Zamboanga del Norte, Philippines",8.58717,123.34035,PLDT Home Fiber,98137,93425,98.14,93.43,11,207,46,71
"Carmona, Cavite, Philippines",14.3135,121.05712,PLDT,155774,175076,155.77,175.08,7,206,83,111
"Naic, Cavite, Philippines",14.29649,120.79246,PLDT,102563,110466,102.56,110.47,7,206,76,108
"President Roxas, Cotabato, Philippines",7.37928,125.06084,PLDT,186569,177394,186.57,177.39,9,205,92,132
"Daet, Camarines Norte, Philippines",14.10303,122.9325,PLDT,111895,144367,111.90,144.37,7,205,65,91
"Ligao City, Albay, Philippines",13.17242,123.4944,Converge,90490,82581,90.49,82.58,18,205,45,66
"San Mateo, Rizal, Philippines",14.69539,121.11767,Converge,166383,161351,166.38,161.35,4,205,86,117
"Puerto Princesa City, Palawan, Philippines",9.78563,118.62648,PLDT Home Fiber,78450,70604,78.45,70.60,18,204,65,99
"Surigao, Surigao del Norte, Philippines",9.79022,125.49311,PLDT Home Fiber,86125,89355,86.13,89.36,11,202,42,58
"Anao, Tarlac, Philippines",15.7435,120.61424,PLDT,39773,35973,39.77,35.97,25,201,38,56
"Marilao, Bulacan, Philippines",14.77237,120.96001,Globe,199292,201998,199.29,202.00,8,201,70,88
"Dumaguete City, Negros Oriental, Philippines",9.29841,123.29249,Globe,147125,112361,147.13,112.36,10,200,51,78
"Santo Nino, Cagayan, Philippines",17.91267,121.49132,Converge,99818,106260,99.82,106.26,12,199,63,100
"Navotas, Metro Manila, Philippines",14.65819,120.94743,PLDT Home Fiber,168199,195258,168.20,195.26,4,199,71,105
"San Pedro, Laguna, Philippines",14.36443,121.06192,Globe,219018,159660,219.02,159.66,7,198,68,95
"Toboso, Negros Occidental, Philippines",10.71769,123.46077,Globe,16015,6278,16.02,6.28,35,196,70,135
"Mariveles, Bataan, Philippines",14.4354,120.49003,PLDT Home Fiber,79138,71902,79.14,71.90,9,196,42,56
"Porac, Pampanga, Philippines",15.06974,120.55007,Converge,139383,136955,139.38,136.96,4,195,64,98
"Tagaytay City, Cavite, Philippines",14.11541,120.96202,PLDT,116622,131759,116.62,131.76,8,194,54,95
"Mariveles, Bataan, Philippines",14.4354,120.49003,Converge,99712,114790,99.71,114.79,9,194,45,63
"Digos, Davao del Sur, Philippines",6.74347,125.35515,Globe,128330,163111,128.33,163.11,4,194,32,47
"Meycauayan, Bulacan, Philippines",14.73772,120.96077,Converge,167452,160823,167.45,160.82,8,194,71,101
"Pulilan, Bulacan, Philippines",14.90243,120.8459,PLDT Home Fiber,98697,151465,98.70,151.47,7,193,57,81
"Indang, Cavite, Philippines",14.19204,120.87286,PLDT,71576,68900,71.58,68.90,8,192,58,82
"Taal, Batangas, Philippines",13.87826,120.92508,Globe,306807,277861,306.81,277.86,6,191,62,96
"Ormoc City, Leyte, Philippines",11.03843,124.61927,Converge,87364,84781,87.36,84.78,5,191,48,78
"Apalit, Pampanga, Philippines",14.95255,120.76688,PLDT,54891,49249,54.89,49.25,11,190,37,48
"Goa, Camarines Sur, Philippines",13.73619,123.41593,PLDT Home Fiber,54012,57712,54.01,57.71,10,190,52,67
"Bago, Negros Occidental, Philippines",10.53757,122.83609,PLDT,73469,67141,73.47,67.14,6,189,57,78
"Tubod, Lanao del Norte, Philippines",7.99427,123.87462,PLDT Home Fiber,184726,163724,184.73,163.72,6,188,50,65
"Silang, Cavite, Philippines",14.22025,120.96469,Converge,216252,208328,216.25,208.33,6,188,61,88
"Panabo City, Davao del Norte, Philippines",7.30822,125.68662,PLDT,94180,85730,94.18,85.73,8,187,19,34
"Tanauan City, Batangas, Philippines",14.08354,121.14762,Globe,130513,106583,130.51,106.58,6,187,73,104
"Santa Maria, Bulacan, Philippines",14.82898,120.97616,Globe,120894,111018,120.89,111.02,8,187,55,77
"Roxas City, Capiz, Philippines",11.55288,122.74072,Converge,79388,68389,79.39,68.39,16,186,26,42
"Meycauayan, Bulacan, Philippines",14.73772,120.96077,PLDT,94851,97026,94.85,97.03,7,186,58,89
"Minglanilla, Cebu, Philippines",10.24543,123.79599,Globe,225230,170505,225.23,170.51,12,186,61,80
"Escalante City, Negros Occidental, Philippines",10.84117,123.49908,Globe,23795,5839,23.80,5.84,38,185,61,104
"Asturias, Cebu, Philippines",10.60209,123.77412,Globe,135357,106995,135.36,107.00,7,184,72,114
"Navotas, Metro Manila, Philippines",14.65819,120.94743,Converge,183922,174537,183.92,174.54,4,184,65,95
"Santa Barbara, Pangasinan, Philippines",15.9774,120.42424,PLDT Home Fiber,51244,102279,51.24,102.28,5,184,38,44
"Talisay, Cebu, Philippines",10.25859,123.82413,PLDT Home Fiber,146454,185843,146.45,185.84,3,184,58,84
"Taytay, Rizal, Philippines",14.55288,121.12571,Globe,250379,182931,250.38,182.93,5,183,47,72
"Makilala, Cotabato, Philippines",6.92343,125.08286,Globe,61522,83412,61.52,83.41,5,182,69,117
"Cotabato City, Maguindanao, Philippines",7.20467,124.23104,PLDT Home Fiber,112011,114033,112.01,114.03,11,182,57,80
"Malabon, Metro Manila, Philippines",14.65793,120.95118,Globe,220356,187199,220.36,187.20,5,181,60,82
"Bambang, Nueva Vizcaya, Philippines",16.40415,121.10229,PLDT Home Fiber,86019,86035,86.02,86.04,8,181,38,57
"President Roxas, Cotabato, Philippines",7.37928,125.06084,PLDT Home Fiber,106454,96238,106.45,96.24,8,181,73,109
"Digos, Davao del Sur, Philippines",6.74347,125.35515,PLDT Home Fiber,95670,96449,95.67,96.45,8,180,61,80
"Olongapo City, Zambales, Philippines",14.88739,120.36661,PLDT,153581,49376,153.58,49.38,7,180,43,62
"Kidapawan, Cotabato, Philippines",7.02127,125.09019,PLDT Home Fiber,89894,87347,89.89,87.35,10,179,54,76
"Malvar, Batangas, Philippines",14.04329,121.15875,PLDT Home Fiber,68311,93423,68.31,93.42,10,177,62,87
"Talisay, Negros Occidental, Philippines",10.74828,122.98012,PLDT Home Fiber,108804,128334,108.80,128.33,7,176,51,81
"Tuguegarao City, Cagayan, Philippines",17.60306,121.75374,PLDT Home Fiber,93360,93803,93.36,93.80,13,175,51,73
"Cabuyao City, Laguna, Philippines",14.27433,121.11961,PLDT,111061,131177,111.06,131.18,7,173,65,89
"Tacurong City, Sultan Kudarat, Philippines",6.6866,124.66353,PLDT Home Fiber,93204,91404,93.20,91.40,12,173,38,56
"San Juan, Batangas, Philippines",13.75044,121.37703,PLDT Home Fiber,105359,90655,105.36,90.66,9,172,62,89
"Consolacion, Cebu, Philippines",10.37581,123.95694,Converge,142434,128465,142.43,128.47,3,172,50,71
"Pasay City, Metro Manila, Philippines",14.53767,121.00081,Globe,183589,189053,183.59,189.05,4,171,48,90
"Talisay, Cebu, Philippines",10.25859,123.82413,Globe,153849,156843,153.85,156.84,14,170,76,99
"Capas, Tarlac, Philippines",15.34633,120.59344,PLDT,65290,59176,65.29,59.18,7,169,36,52
"Angeles, Pampanga, Philippines",15.16061,120.60908,Globe,120332,106113,120.33,106.11,5,169,53,69
"Sagay City, Negros Occidental, Philippines",10.84555,123.37106,PLDT,55772,67299,55.77,67.30,11,168,59,93
"Magsaysay, Davao del Sur, Philippines",6.75271,125.15221,PLDT Home Fiber,102548,94497,102.55,94.50,9,167,58,98
"Calasiao, Pangasinan, Philippines",16.00949,120.35759,PLDT Home Fiber,92564,98136,92.56,98.14,6,167,75,97
"Cavite, Philippines",14.48151,120.90833,PLDT Home Fiber,164294,168734,164.29,168.73,5,166,46,67
"Cabuyao City, Laguna, Philippines",14.27433,121.11961,Converge,122644,114862,122.64,114.86,6,166,33,57
"Rosario, Batangas, Philippines",13.80433,121.28552,PLDT Home Fiber,103538,94868,103.54,94.87,6,165,55,75
"Legazpi City, Albay, Philippines",13.11288,123.76295,Globe,100285,71762,100.29,71.76,25,165,47,66
"Liloan, Cebu, Philippines",10.39926,124.00002,Globe,174786,166716,174.79,166.72,4,165,58,75
"Obando, Bulacan, Philippines",14.70986,120.93674,PLDT,89469,94563,89.47,94.56,5,164,60,94
"Naic, Cavite, Philippines",14.29649,120.79246,PLDT Home Fiber,104821,108242,104.82,108.24,7,164,47,61
"Tacloban City, Leyte, Philippines",11.22238,124.99221,PLDT,86274,88408,86.27,88.41,6,164,71,101
"Gapan City, Nueva Ecija, Philippines",15.29121,121.01057,PLDT Home Fiber,97473,97583,97.47,97.58,11,163,47,79
"Santo Tomas, Davao del Norte, Philippines",7.50929,125.63142,PLDT Home Fiber,92769,92411,92.77,92.41,9,163,46,56
"Lubao, Pampanga, Philippines",14.92678,120.58795,PLDT Home Fiber,103321,99236,103.32,99.24,9,163,61,85
"Trece Martires City, Cavite, Philippines",14.28222,120.86837,Converge,121502,154882,121.50,154.88,7,162,59,75
"Iligan City, Lanao del Norte, Philippines",8.22707,124.46418,PLDT,51306,46728,51.31,46.73,20,162,78,104
"Bocaue, Bulacan, Philippines",14.7943,120.93073,Converge,103702,114240,103.70,114.24,7,162,51,69
"Balanga City, Bataan, Philippines",14.67454,120.47033,PLDT Home Fiber,94837,99631,94.84,99.63,7,161,48,73
"Rosario, Batangas, Philippines",13.80433,121.28552,Globe,113471,105466,113.47,105.47,7,161,60,95
"Santa Fe, Nueva Vizcaya, Philippines",16.18249,120.91878,PLDT,83320,90636,83.32,90.64,5,160,49,85
"San Ildefonso, Bulacan, Philippines",15.07717,120.94171,Globe,201382,199907,201.38,199.91,7,160,66,95
"Candon City, Ilocos Sur, Philippines",17.19612,120.44729,Converge,94296,106657,94.30,106.66,9,160,46,65
"Malasiqui, Pangasinan, Philippines",15.92028,120.41443,PLDT Home Fiber,115197,103014,115.20,103.01,8,160,63,97
"Valencia City, Bukidnon, Philippines",7.86319,125.17087,PLDT Home Fiber,124344,126788,124.34,126.79,7,160,35,59
"General Mariano Alvarez, Cavite, Philippines",14.29525,121.0071,PLDT,169791,178722,169.79,178.72,7,160,35,55
"San Jose City, Nueva Ecija, Philippines",15.79188,120.99008,PLDT Home Fiber,91252,73231,91.25,73.23,13,159,35,61
"Danao, Cebu, Philippines",10.52013,124.02712,PLDT,34708,38115,34.71,38.12,7,158,54,72
"Natividad, Pangasinan, Philippines",16.03821,120.83841,PLDT Home Fiber,94295,94850,94.30,94.85,5,158,61,88
"Tagbilaran City, Bohol, Philippines",9.6534,123.86703,PLDT Home Fiber,77147,101820,77.15,101.82,9,157,54,79
"Lubao, Pampanga, Philippines",14.92678,120.58795,Converge,61511,88084,61.51,88.08,4,156,43,65
"Bustos, Bulacan, Philippines",14.95239,120.91735,PLDT,90199,72314,90.20,72.31,12,155,39,63
"Guiguinto, Bulacan, Philippines",14.82832,120.88429,PLDT Home Fiber,200405,182756,200.41,182.76,8,155,66,87
"Bayombong, Nueva Vizcaya, Philippines",16.48042,121.14813,Converge,97704,104409,97.70,104.41,8,154,47,82
"San Quintin, Pangasinan, Philippines",15.9754,120.83841,Globe,61929,53609,61.93,53.61,6,154,46,101
"Cauayan City, Isabela, Philippines",16.91662,121.78792,Converge,122439,128164,122.44,128.16,9,154,35,59
"San Pablo City, Laguna, Philippines",14.06422,121.32326,PLDT,82927,92184,82.93,92.18,6,154,33,52
"Arayat, Pampanga, Philippines",15.15443,120.771,Globe,120463,116910,120.46,116.91,5,153,49,71
"Mexico, Pampanga, Philippines",15.06457,120.72033,PLDT,87656,92018,87.66,92.02,14,153,53,68
"SJDM, Bulacan, Philippines",14.82867,121.04324,Globe,122025,122682,122.03,122.68,8,152,52,68
"Legazpi City, Albay, Philippines",13.11288,123.76295,PLDT,108031,122808,108.03,122.81,8,152,50,76
"San Miguel, Bulacan, Philippines",15.14158,120.9751,PLDT Home Fiber,99728,94344,99.73,94.34,9,151,66,101
"Plaridel, Bulacan, Philippines",14.88591,120.85932,PLDT,80669,89714,80.67,89.71,6,151,49,61
"Trece Martires City, Cavite, Philippines",14.28222,120.86837,Globe,194827,161870,194.83,161.87,6,151,31,42
"Santa Rosa, Nueva Ecija, Philippines",15.42502,120.93838,PLDT Home Fiber,93343,92356,93.34,92.36,10,150,51,73
"Mayoyao, Ifugao, Philippines",16.95131,121.21685,PLDT Home Fiber,138980,168668,138.98,168.67,10,150,53,80
"Libmanan, Camarines Sur, Philippines",13.69376,123.05982,PLDT Home Fiber,60409,47915,60.41,47.92,20,149,30,43
"Daet, Camarines Norte, Philippines",14.10303,122.9325,Converge,91862,102943,91.86,102.94,6,149,32,56
"Magalang, Pampanga, Philippines",15.21394,120.66181,PLDT Home Fiber,92513,91539,92.51,91.54,10,149,66,101
"Santa Rita, Pampanga, Philippines",14.99762,120.61451,PLDT Home Fiber,93463,93827,93.46,93.83,8,148,67,100
"Calapan City, Oriental Mindoro, Philippines",13.36643,121.19395,PLDT,81895,81564,81.90,81.56,14,148,59,75
"Liloan, Cebu, Philippines",10.39926,124.00002,PLDT,196149,283375,196.15,283.38,4,147,50,64
"Santiago, Ilocos Sur, Philippines",17.28073,120.44729,Converge,133356,141759,133.36,141.76,9,147,39,80
"Pili, Camarines Sur, Philippines",13.55521,123.28126,PLDT,29797,23824,29.80,23.82,15,147,27,42
"Naga, Cebu, Philippines",10.20764,123.75821,Converge,100168,167631,100.17,167.63,6,146,29,37
"Olongapo City, Zambales, Philippines",14.88739,120.36661,PLDT Home Fiber,124597,48687,124.60,48.69,9,146,52,66
"Pinamungahan, Cebu, Philippines",10.26958,123.63996,Globe,259148,243631,259.15,243.63,16,145,71,96
"Balagtas, Bulacan, Philippines",14.81784,120.90646,PLDT Home Fiber,173589,137098,173.59,137.10,8,144,57,79
"Porac, Pampanga, Philippines",15.06974,120.55007,PLDT Home Fiber,158529,117127,158.53,117.13,7,144,55,76
"Paombong, Bulacan, Philippines",14.83781,120.78406,PLDT Home Fiber,207293,190391,207.29,190.39,6,144,73,109
"La Paz, Tarlac, Philippines",15.4497,120.7235,PLDT Home Fiber,116464,113742,116.46,113.74,8,143,40,62
"Santa Cruz, Davao del Sur, Philippines",6.83551,125.41659,Globe,121244,117608,121.24,117.61,3,143,50,56
"Balagtas, Bulacan, Philippines",14.81784,120.90646,Converge,238814,211625,238.81,211.63,8,143,36,51
"Ormoc City, Leyte, Philippines",11.03843,124.61927,Globe,97147,102298,97.15,102.30,20,143,43,59
"Balingasag, Misamis Oriental, Philippines",8.72993,124.84034,PLDT Home Fiber,43152,46492,43.15,46.49,4,143,5,10
"Hinigaran, Negros Occidental, Philippines",10.27479,122.92123,PLDT,65740,57301,65.74,57.30,14,143,34,50
"Kapatagan, Lanao del Norte, Philippines",7.86776,123.72942,PLDT Home Fiber,93633,114960,93.63,114.96,7,141,16,24
"Sultan Kudarat (Nuling), Maguindanao, Philippines",7.26221,124.30883,PLDT Home Fiber,178032,179574,178.03,179.57,11,141,11,19
"Pavia, Iloilo, Philippines",10.7748,122.54261,PLDT Home Fiber,90823,82226,90.82,82.23,8,140,37,50
"Tanjay City, Negros Oriental, Philippines",9.49579,122.9663,PLDT Home Fiber,91133,80119,91.13,80.12,13,140,32,56
"Orion, Bataan, Philippines",14.61604,120.56431,PLDT Home Fiber,243656,186934,243.66,186.93,8,139,13,20
"Liloan, Cebu, Philippines",10.39926,124.00002,Converge,188190,171518,188.19,171.52,3,139,38,49
"Carmona, Cavite, Philippines",14.3135,121.05712,Converge,123527,136438,123.53,136.44,6,138,48,70
"Tuguegarao City, Cagayan, Philippines",17.60306,121.75374,Globe,116622,107738,116.62,107.74,10,138,28,41
"Pagadian City, Zamboanga del Sur, Philippines",7.86265,123.37106,PLDT,76583,72504,76.58,72.50,15,137,55,82
"Rodriguez, Rizal, Philippines",14.73202,121.14516,Globe,194565,178648,194.57,178.65,4,137,37,49
"Murcia, Negros Occidental, Philippines",10.60643,123.03944,PLDT,48237,53882,48.24,53.88,13,136,59,70
"Balanga City, Bataan, Philippines",14.67454,120.47033,Converge,104862,136455,104.86,136.46,5,136,37,55
"San Jose, Batangas, Philippines",13.87868,121.09942,Globe,151462,197890,151.46,197.89,6,136,48,66
"Obando, Bulacan, Philippines",14.70986,120.93674,PLDT Home Fiber,163935,127963,163.94,127.96,4,136,40,52
"Iligan City, Lanao del Norte, Philippines",8.22707,124.46418,Globe,127990,50323,127.99,50.32,14,135,39,54
"Boac, Marinduque, Philippines",13.39413,121.87903,PLDT Home Fiber,40670,44308,40.67,44.31,8,135,14,24
"Alfonso, Cavite, Philippines",14.1214,120.86138,PLDT Home Fiber,126582,145438,126.58,145.44,6,134,44,57
"Calinog, Iloilo, Philippines",11.14579,122.51464,PLDT Home Fiber,115813,75124,115.81,75.12,9,133,11,15
"Pozorrubio, Pangasinan, Philippines",16.11642,120.54316,PLDT,94159,94409,94.16,94.41,12,133,28,57
"Meycauayan, Bulacan, Philippines",14.73772,120.96077,Globe,120743,114889,120.74,114.89,8,133,58,71
"La Carlota City, Negros Occidental, Philippines",10.41437,122.97757,PLDT,79712,68811,79.71,68.81,8,133,37,47
"Cadiz City, Negros Occidental, Philippines",10.86192,123.23632,PLDT,55487,63113,55.49,63.11,8,133,44,67
"Bataraza, Palawan, Philippines",8.5878,117.43215,PLDT Home Fiber,23886,20367,23.89,20.37,18,133,16,16
"Butuan City, Agusan Del Norte, Philippines",8.94753,125.54063,PLDT,44591,46510,44.59,46.51,16,132,41,66
"Alicia, Isabela, Philippines",16.80691,121.69674,PLDT Home Fiber,50125,54643,50.13,54.64,12,132,32,44
"Biñan, Laguna, Philippines",14.31456,121.08316,Globe,120036,109234,120.04,109.23,8,131,38,54
"Rodriguez, Rizal, Philippines",14.73202,121.14516,PLDT,47381,48326,47.38,48.33,5,131,22,35
"San Miguel, Bulacan, Philippines",15.14158,120.9751,Globe,94364,93338,94.36,93.34,6,131,38,62
"Puerto Princesa City, Palawan, Philippines",9.78563,118.62648,Converge,80005,83290,80.01,83.29,16,130,40,51
"Calumpit, Bulacan, Philippines",14.91518,120.7662,Converge,144728,150837,144.73,150.84,6,128,34,50
"Gapan City, Nueva Ecija, Philippines",15.29121,121.01057,Globe,117504,106216,117.50,106.22,5,128,39,51
"Pavia, Iloilo, Philippines",10.7748,122.54261,PLDT,78303,89776,78.30,89.78,18,128,48,58
"Don Carlos, Bukidnon, Philippines",7.67895,124.99652,PLDT Home Fiber,94799,94524,94.80,94.52,7,127,55,68
"Balasan, Iloilo, Philippines",11.45927,123.09015,PLDT,5493,3929,5.49,3.93,19,127,5,10
"Dolores, Quezon, Philippines",14.00193,121.41133,PLDT Home Fiber,93980,94491,93.98,94.49,5,127,44,65
"Sibalom, Antique, Philippines",10.76502,122.06102,PLDT Home Fiber,44433,52286,44.43,52.29,10,127,16,17
"Palo, Leyte, Philippines",11.15847,124.99191,PLDT,73544,85590,73.54,85.59,14,126,53,66
"San Isidro, Bohol, Philippines",9.84036,123.94155,PLDT,42005,44992,42.01,44.99,23,126,23,36
"Dumangas, Iloilo, Philippines",10.82109,122.71167,PLDT Home Fiber,52789,58836,52.79,58.84,9,126,24,29
"Moalboal, Cebu, Philippines",9.93681,123.42714,Globe,80375,80488,80.38,80.49,9,126,39,52
"Batangas City, Batangas, Philippines",13.75641,121.05833,Converge,132478,145591,132.48,145.59,7,125,40,59
"Butuan City, Agusan Del Norte, Philippines",8.94753,125.54063,Converge,103525,110034,103.53,110.03,13,125,28,43
"Mahinog, Camiguin, Philippines",9.17901,124.76303,PLDT Home Fiber,82320,210091,82.32,210.09,30,125,10,12
"Santa Cruz, Laguna, Philippines",14.26911,121.41133,PLDT Home Fiber,81525,137165,81.53,137.17,12,125,21,33
"Kiamba, Sarangani, Philippines",6.00076,124.70777,PLDT,17831,29053,17.83,29.05,19,124,15,30
"Dauis, Bohol, Philippines",9.60401,123.82996,PLDT Home Fiber,88567,141760,88.57,141.76,8,124,25,35
"Silay, Negros Occidental, Philippines",10.79968,122.97605,PLDT Home Fiber,90347,110880,90.35,110.88,9,124,51,65
"Padre Garcia, Batangas, Philippines",13.87668,121.24547,PLDT Home Fiber,230384,266191,230.38,266.19,7,124,22,28
"San Mateo, Rizal, Philippines",14.69539,121.11767,PLDT,66448,90232,66.45,90.23,5,123,33,71
"Santo Tomas, Batangas, Philippines",14.08754,121.17764,Globe,117645,107353,117.65,107.35,7,123,42,53
"Bocaue, Bulacan, Philippines",14.7943,120.93073,PLDT,94311,93973,94.31,93.97,6,123,46,67
"San Ildefonso, Bulacan, Philippines",15.07717,120.94171,Converge,71961,78300,71.96,78.30,8,121,19,27
"Talugtug, Nueva Ecija, Philippines",15.7698,120.81544,PLDT,70103,82965,70.10,82.97,12,121,32,46
"Guagua, Pampanga, Philippines",14.96374,120.63244,PLDT Home Fiber,71786,92737,71.79,92.74,8,121,35,60
"Sindangan, Zamboanga del Norte, Philippines",8.19151,123.05639,PLDT Home Fiber,38176,34598,38.18,34.60,12,121,25,43
"Aringay, La Union, Philippines",16.40163,120.40119,PLDT,87240,93827,87.24,93.83,8,120,39,59
"Maramag, Bukidnon, Philippines",7.82687,124.97271,Globe,43252,15188,43.25,15.19,23,120,43,59
"Iriga City, Camarines Sur, Philippines",13.42095,123.41361,PLDT,57953,53907,57.95,53.91,8,120,22,30
"Jaen, Nueva Ecija, Philippines",15.39558,120.87286,PLDT,57351,63019,57.35,63.02,19,120,49,73
"Angono, Rizal, Philippines",14.52592,121.15321,PLDT,98720,96413,98.72,96.41,2,119,49,68
"Pulilan, Bulacan, Philippines",14.90243,120.8459,Converge,145273,178459,145.27,178.46,7,119,26,36
"Tayug, Pangasinan, Philippines",16.01085,120.74649,PLDT,53932,66816,53.93,66.82,10,119,38,67
"Tacloban City, Leyte, Philippines",11.22238,124.99221,Globe,117949,104508,117.95,104.51,16,119,34,47
"San Miguel, Bulacan, Philippines",15.14158,120.9751,Converge,112693,122717,112.69,122.72,6,118,35,46
"Guiguinto, Bulacan, Philippines",14.82832,120.88429,Converge,187959,190229,187.96,190.23,6,118,37,62
"Minglanilla, Cebu, Philippines",10.24543,123.79599,PLDT,141210,120618,141.21,120.62,3,118,37,53
"San Ildefonso, Bulacan, Philippines",15.07717,120.94171,PLDT,53270,51999,53.27,52.00,5,118,27,36
"Taysan, Batangas, Philippines",13.76108,121.2283,Globe,156342,107878,156.34,107.88,7,118,49,62
"Sorsogon City, Sorsogon, Philippines",12.97888,123.98477,PLDT,93578,75795,93.58,75.80,13,117,30,43
"Tagoloan Ii, Lanao del Sur, Philippines",8.09908,124.44201,PLDT Home Fiber,81115,77208,81.12,77.21,7,117,34,54
"Calapan City, Oriental Mindoro, Philippines",13.36643,121.19395,PLDT Home Fiber,94727,81914,94.73,81.91,8,117,42,59
"Consolacion, Cebu, Philippines",10.37581,123.95694,PLDT Home Fiber,110751,112837,110.75,112.84,4,117,40,48
"Burauen, Leyte, Philippines",10.97109,124.84034,PLDT,51558,48542,51.56,48.54,16,116,46,58
"Balamban, Cebu, Philippines",10.48585,123.77412,PLDT,85575,79368,85.58,79.37,6,116,39,52
"Baliwag, Bulacan, Philippines",14.96569,120.89431,Globe,89209,90982,89.21,90.98,7,115,24,29
"Guinobatan, Albay, Philippines",13.15419,123.55041,Converge,42727,84387,42.73,84.39,17,115,15,27
"Binidayan, Lanao del Sur, Philippines",7.74479,124.16432,PLDT Home Fiber,92797,93674,92.80,93.67,6,115,43,62
"Rizal, Laguna, Philippines",14.08408,121.41133,PLDT Home Fiber,135081,173435,135.08,173.44,11,114,35,51
"Santiago, Isabela, Philippines",16.69679,121.55865,PLDT Home Fiber,63278,52688,63.28,52.69,14,114,39,55
"Panabo City, Davao del Norte, Philippines",7.30822,125.68662,PLDT Home Fiber,109603,117912,109.60,117.91,8,113,36,50
"Los Baños, Laguna, Philippines",14.17731,121.22161,PLDT,76808,85455,76.81,85.46,7,113,46,59
"Pili, Camarines Sur, Philippines",13.55521,123.28126,PLDT Home Fiber,110661,139446,110.66,139.45,8,113,45,62
"Tanjay City, Negros Oriental, Philippines",9.49579,122.9663,PLDT,62576,51048,62.58,51.05,13,113,16,23
"Tanza, Cavite, Philippines",14.34293,120.85032,PLDT,98561,124316,98.56,124.32,8,113,30,44
"Norzagaray, Bulacan, Philippines",14.89659,121.14813,Converge,183453,138517,183.45,138.52,8,112,23,36
"Bacolor, Pampanga, Philippines",14.99692,120.65235,Converge,92659,94779,92.66,94.78,4,112,44,70
"Laoag City, Ilocos Norte, Philippines",18.21075,120.58547,PLDT Home Fiber,113238,115538,113.24,115.54,9,112,29,47
"Apalit, Pampanga, Philippines",14.95255,120.76688,PLDT Home Fiber,118678,94367,118.68,94.37,6,112,52,72
"Zamboanga City, Zamboanga del Sur, Philippines",6.90437,122.07612,Converge,112036,126178,112.04,126.18,19,112,42,51
"Santo Domingo, Nueva Ecija, Philippines",15.61284,120.88434,PLDT,58454,73143,58.45,73.14,12,111,31,50
"Cotabato City, Maguindanao, Philippines",7.20467,124.23104,PLDT,114435,111643,114.44,111.64,14,111,40,62
"Guiguinto, Bulacan, Philippines",14.82832,120.88429,PLDT,93572,115663,93.57,115.66,5,111,51,79
"Dona Remedios Trinidad, Bulacan, Philippines",15.11427,121.21685,PLDT,84094,35696,84.09,35.70,12,111,48,71
"Catmon, Cebu, Philippines",10.65242,123.9973,Globe,113233,85885,113.23,85.89,8,111,47,63
"Santa Ignacia, Tarlac, Philippines",15.61667,120.43556,PLDT Home Fiber,63254,60745,63.25,60.75,10,111,12,19
"Bayombong, Nueva Vizcaya, Philippines",16.48042,121.14813,PLDT Home Fiber,107388,87373,107.39,87.37,7,110,41,60
"Polomolok, South Cotabato, Philippines",6.22451,125.06084,Globe,122827,133683,122.83,133.68,13,110,27,37
"Salvador Benedicto, Negros Occidental, Philippines",10.5887,123.23632,PLDT Home Fiber,85568,96596,85.57,96.60,6,109,30,53
"San Fernando, Pampanga, Philippines",15.02781,120.69349,Globe,120142,106376,120.14,106.38,5,109,48,58
"Sorsogon City, Sorsogon, Philippines",12.97888,123.98477,Converge,57280,48898,57.28,48.90,18,109,16,33
"Nasugbu, Batangas, Philippines",14.09404,120.68901,PLDT Home Fiber,103024,103330,103.02,103.33,9,108,31,47
"Panglao, Bohol, Philippines",9.56947,123.78721,PLDT Home Fiber,205210,234325,205.21,234.33,7,108,26,40
"Los Baños, Laguna, Philippines",14.17731,121.22161,Globe,219835,172298,219.84,172.30,6,108,28,45
"Vallehermoso, Negros Oriental, Philippines",10.33905,123.29249,PLDT Home Fiber,62732,88793,62.73,88.79,6,107,46,70
"Candelaria, Quezon, Philippines",13.94899,121.42276,PLDT,69080,78951,69.08,78.95,10,107,43,55
"Biñan, Laguna, Philippines",14.31456,121.08316,Converge,201427,165841,201.43,165.84,7,107,42,75
"Binmaley, Pangasinan, Philippines",16.02892,120.26882,PLDT,87510,49325,87.51,49.33,14,106,21,28
"Mallig, Isabela, Philippines",17.15803,121.61307,PLDT Home Fiber,68066,60046,68.07,60.05,12,106,24,38
"San Leonardo, Nueva Ecija, Philippines",15.37285,120.95321,PLDT,20300,18741,20.30,18.74,13,106,33,52
"Midsayap, Cotabato, Philippines",7.19181,124.53474,PLDT Home Fiber,92844,79605,92.84,79.61,13,105,24,37
"Tanza, Cavite, Philippines",14.34293,120.85032,Globe,136518,142526,136.52,142.53,6,105,52,68
"Zamboanga City, Zamboanga del Sur, Philippines",6.90437,122.07612,PLDT,71358,69189,71.36,69.19,18,105,29,43
"Lambayong (Mariano Marcos), Sultan Kudarat, Philippines",6.79879,124.61927,PLDT Home Fiber,52298,62439,52.30,62.44,12,105,25,31
"San Luis, Aurora, Philippines",15.63572,121.46847,PLDT,52959,39341,52.96,39.34,12,104,26,37
"Laoag City, Ilocos Norte, Philippines",18.21075,120.58547,PLDT,195360,175675,195.36,175.68,8,104,23,33
"Aguinaldo, Ifugao, Philippines",16.95291,121.33129,PLDT Home Fiber,175767,144762,175.77,144.76,10,104,41,65
"Daraga, Albay, Philippines",13.12278,123.69588,Globe,198259,114376,198.26,114.38,23,104,32,43
"Infanta, Quezon, Philippines",14.74071,121.6451,PLDT,53762,54620,53.76,54.62,10,104,36,52
"Urdaneta City, Pangasinan, Philippines",15.98194,120.59698,PLDT Home Fiber,97927,131905,97.93,131.91,7,103,37,51
"Murcia, Negros Occidental, Philippines",10.60643,123.03944,Converge,55583,55883,55.58,55.88,14,103,9,16
"Pandi, Bulacan, Philippines",14.87572,120.95941,PLDT,115988,93732,115.99,93.73,8,103,46,61
"Quezon, Nueva Ecija, Philippines",15.56953,120.82692,Globe,172607,142906,172.61,142.91,5,103,38,54
"Nabua, Camarines Sur, Philippines",13.4069,123.37324,PLDT Home Fiber,54485,56189,54.49,56.19,7,102,29,41
"Carranglan, Nueva Ecija, Philippines",15.97584,121.03351,PLDT,58022,68183,58.02,68.18,9,102,23,29
"Bauang, La Union, Philippines",16.51433,120.35508,PLDT Home Fiber,81853,92118,81.85,92.12,3,101,28,47
"Tagbilaran City, Bohol, Philippines",9.6534,123.86703,Globe,201886,177026,201.89,177.03,7,101,33,38
"San Mateo, Rizal, Philippines",14.69539,121.11767,Globe,230106,230853,230.11,230.85,6,101,33,42
"Ozamiz, Misamis Occidental, Philippines",8.15,123.85033,PLDT Home Fiber,45720,63106,45.72,63.11,5,101,28,36
"Sara, Iloilo, Philippines",11.28199,123.01136,Converge,21033,18830,21.03,18.83,12,100,8,10
"Toledo, Cebu, Philippines",10.38705,123.65017,PLDT,40401,41962,40.40,41.96,12,100,27,35
"Santa Maria, Ilocos Sur, Philippines",17.37881,120.49336,PLDT Home Fiber,42971,112806,42.97,112.81,22,100,24,30
"Valencia City, Bukidnon, Philippines",7.86319,125.17087,Converge,147832,100317,147.83,100.32,9,100,33,50
"City of Cabadbaran, Agusan Del Norte, Philippines",9.14092,125.697,PLDT Home Fiber,66296,54234,66.30,54.23,13,99,15,19
"Naujan, Oriental Mindoro, Philippines",13.24381,121.19395,PLDT Home Fiber,99041,124095,99.04,124.10,7,99,37,53
"Argao, Cebu, Philippines",9.88114,123.60535,PLDT,47577,44641,47.58,44.64,8,99,26,31
"Tingloy, Batangas, Philippines",13.64133,120.9073,Globe,64432,73140,64.43,73.14,6,99,39,65
"Ligao City, Albay, Philippines",13.17242,123.4944,PLDT,51383,89965,51.38,89.97,9,98,15,23
"Jaen, Nueva Ecija, Philippines",15.39558,120.87286,PLDT Home Fiber,54950,49670,54.95,49.67,10,98,32,46
"Masbate City, Masbate, Philippines",12.31777,123.55041,PLDT,142269,95344,142.27,95.34,22,98,32,44
"Panglao, Bohol, Philippines",9.56947,123.78721,Globe,145774,154613,145.77,154.61,8,98,17,26
"Alcala, Pangasinan, Philippines",15.8546,120.53942,PLDT Home Fiber,115952,104818,115.95,104.82,11,98,48,70
"Amulung, Cagayan, Philippines",17.83589,121.7233,Converge,94876,94088,94.88,94.09,12,98,20,40
"General Santos City (Dadiangas), South Cotabato, Philippines",6.14327,125.19286,Converge,149176,179305,149.18,179.31,5,98,45,61
"Agoo, La Union, Philippines",16.3247,120.35508,PLDT,43757,96804,43.76,96.80,9,98,18,27
"San Jose, Batangas, Philippines",13.87868,121.09942,PLDT Home Fiber,176836,130616,176.84,130.62,6,97,28,44
"Talavera, Nueva Ecija, Philippines",15.58575,120.9197,PLDT Home Fiber,68381,65930,68.38,65.93,11,97,26,41
"Borbon, Cebu, Philippines",10.84627,123.9973,Globe,169583,136825,169.58,136.83,20,97,46,54
"San Joaquin, Iloilo, Philippines",10.64155,122.10647,PLDT Home Fiber,95573,113788,95.57,113.79,7,97,9,10
"Compostela, Cebu, Philippines",10.45408,124.013,PLDT Home Fiber,134598,119483,134.60,119.48,6,97,34,57
"Pili, Camarines Sur, Philippines",13.55521,123.28126,Converge,80431,56272,80.43,56.27,3,97,20,38
"Aliaga, Nueva Ecija, Philippines",15.51204,120.86138,PLDT Home Fiber,91787,94634,91.79,94.63,10,96,30,48
"Calauan, Laguna, Philippines",14.14551,121.3146,PLDT,55334,91703,55.33,91.70,18,96,32,49
"Labangan, Zamboanga del Sur, Philippines",7.85732,123.503,PLDT Home Fiber,88249,73944,88.25,73.94,10,96,42,50
"San Rafael, Bulacan, Philippines",15.00184,120.93141,Converge,110281,105416,110.28,105.42,7,96,28,45
"Oton, Iloilo, Philippines",10.69251,122.47868,PLDT Home Fiber,100412,152047,100.41,152.05,7,96,24,33
"Rosario, Cavite, Philippines",14.41672,120.85471,PLDT,63031,89483,63.03,89.48,8,96,28,38
"San Leonardo, Nueva Ecija, Philippines",15.37285,120.95321,PLDT Home Fiber,89679,72704,89.68,72.70,10,96,29,40
"Catarman, Northern Samar, Philippines",12.44271,124.61927,PLDT Home Fiber,111145,135216,111.15,135.22,18,96,23,32
"Bula, Camarines Sur, Philippines",13.44119,123.23632,PLDT Home Fiber,106570,70889,106.57,70.89,9,95,21,33
"Pateros, Metro Manila, Philippines",14.54838,121.07077,Globe,75765,92077,75.77,92.08,5,95,47,69
"Kabankalan City, Negros Occidental, Philippines",9.91341,122.85358,PLDT,51821,54536,51.82,54.54,8,95,25,33
"Rosario, Cavite, Philippines",14.41672,120.85471,PLDT Home Fiber,145509,124878,145.51,124.88,4,95,31,41
"Leyte, Philippines",11.32728,124.48636,PLDT,84676,94391,84.68,94.39,18,95,31,45
"Santa Maria, Bulacan, Philippines",14.82898,120.97616,PLDT,57203,52396,57.20,52.40,11,95,15,27
"Pantukan, Davao de Oro, Philippines",7.20012,126.04584,PLDT Home Fiber,95665,98469,95.67,98.47,10,95,17,31
"Naic, Cavite, Philippines",14.29649,120.79246,Globe,125742,105759,125.74,105.76,6,95,21,25
"Muñoz, Nueva Ecija, Philippines",15.70664,120.9029,PLDT Home Fiber,101046,134091,101.05,134.09,11,94,19,33
"San Nicolas, Ilocos Norte, Philippines",18.14708,120.58547,Converge,181118,108340,181.12,108.34,11,94,41,56
"Vinzons, Camarines Norte, Philippines",14.21145,122.88741,PLDT,1746,1836,1.75,1.84,20,94,3,6
"Virac, Catanduanes, Philippines",13.61939,124.17544,PLDT Home Fiber,66053,87279,66.05,87.28,11,94,30,57
"Bagabag, Nueva Vizcaya, Philippines",16.58337,121.28552,PLDT Home Fiber,52524,78102,52.52,78.10,10,94,10,18
"Hermosa, Bataan, Philippines",14.83566,120.47709,Converge,106617,94928,106.62,94.93,7,94,29,43
"Carmen, Davao del Norte, Philippines",7.35492,125.704,PLDT,42101,44903,42.10,44.90,7,94,15,17
"Pandi, Bulacan, Philippines",14.87572,120.95941,PLDT Home Fiber,93233,96381,93.23,96.38,9,94,37,55
"Puerto Princesa City, Palawan, Philippines",9.78563,118.62648,PLDT,96169,71354,96.17,71.35,18,93,36,56
"Nunungan, Lanao del Norte, Philippines",7.83093,123.9304,PLDT Home Fiber,92696,93377,92.70,93.38,5,93,43,59
"Villasis, Pangasinan, Philippines",15.90523,120.55094,PLDT Home Fiber,158089,165079,158.09,165.08,8,93,29,38
"Baliwag, Bulacan, Philippines",14.96569,120.89431,Converge,186970,144446,186.97,144.45,7,93,29,43
"San Remigio, Cebu, Philippines",10.9601,123.94155,PLDT Home Fiber,65935,61758,65.94,61.76,4,93,10,15
"El Nido, Palawan, Philippines",11.19892,119.42317,PLDT,81064,79822,81.06,79.82,32,93,14,22
"Calasiao, Pangasinan, Philippines",16.00949,120.35759,PLDT,73264,93505,73.26,93.51,14,92,33,50
"Paracale, Camarines Norte, Philippines",14.23721,122.78588,PLDT,41071,30056,41.07,30.06,13,92,16,24
"Panglao, Bohol, Philippines",9.56947,123.78721,Converge,56955,55844,56.96,55.84,28,92,35,48
"Binangonan, Rizal, Philippines",14.48441,121.1869,Globe,151822,114971,151.82,114.97,4,92,34,40
"Ormoc City, Leyte, Philippines",11.03843,124.61927,PLDT Home Fiber,75181,65394,75.18,65.39,5,92,27,34
"Hagonoy, Bulacan, Philippines",14.83564,120.73371,PLDT,71136,77842,71.14,77.84,7,92,35,51
"San Rafael, Bulacan, Philippines",15.00184,120.93141,Globe,82913,94351,82.91,94.35,7,91,39,56
"Talisay, Negros Occidental, Philippines",10.74828,122.98012,PLDT,60558,56765,60.56,56.77,11,91,36,59
"Lopez, Quezon, Philippines",13.80005,122.31075,PLDT,91455,94653,91.46,94.65,7,91,34,43
"Santa Cruz, Laguna, Philippines",14.26911,121.41133,PLDT,78998,85280,79.00,85.28,11,91,34,52
"Tacloban City, Leyte, Philippines",11.22238,124.99221,PLDT Home Fiber,57245,78443,57.25,78.44,6,91,27,39
"San Jose, Camarines Sur, Philippines",13.68724,123.53921,Converge,130181,138454,130.18,138.45,3,91,12,20
"Tanjay City, Negros Oriental, Philippines",9.49579,122.9663,Globe,210757,168429,210.76,168.43,12,90,11,13
"Cauayan City, Isabela, Philippines",16.91662,121.78792,PLDT Home Fiber,133383,180296,133.38,180.30,12,90,22,28
"Minalin, Pampanga, Philippines",14.97052,120.68518,PLDT Home Fiber,121700,125946,121.70,125.95,6,90,18,32
"Floridablanca, Pampanga, Philippines",14.9619,120.49471,Converge,94453,117936,94.45,117.94,4,89,33,42
"Calbayog, Samar, Philippines",12.0685,124.59081,Globe,149550,100059,149.55,100.06,10,89,18,23
"Malolos, Bulacan, Philippines",14.86049,120.80916,Globe,120493,153434,120.49,153.43,7,89,26,37
"Unisan, Quezon, Philippines",13.86351,122.01555,Converge,89215,57965,89.22,57.97,11,89,9,14
"Toledo, Cebu, Philippines",10.38705,123.65017,PLDT Home Fiber,75510,74230,75.51,74.23,4,89,18,27
"Trece Martires City, Cavite, Philippines",14.28222,120.86837,PLDT,71941,78302,71.94,78.30,5,88,32,45
"Maasin, Southern Leyte, Philippines",10.13272,124.84081,PLDT,45961,45796,45.96,45.80,8,88,11,13
"San Fernando City, La Union, Philippines",16.61592,120.32102,PLDT,79175,47360,79.18,47.36,3,88,23,39
"Dapitan City, Zamboanga del Norte, Philippines",8.58118,123.42714,PLDT Home Fiber,95051,84318,95.05,84.32,8,88,14,20
"Alfonso, Cavite, Philippines",14.1214,120.86138,Converge,291439,232781,291.44,232.78,6,88,15,25
"Apalit, Pampanga, Philippines",14.95255,120.76688,Converge,78940,87979,78.94,87.98,5,87,25,32
"Mexico, Pampanga, Philippines",15.06457,120.72033,Globe,143285,121558,143.29,121.56,6,87,29,38
"Norzagaray, Bulacan, Philippines",14.89659,121.14813,PLDT Home Fiber,203292,157471,203.29,157.47,5,87,29,43
"Hagonoy, Bulacan, Philippines",14.83564,120.73371,Converge,117650,107633,117.65,107.63,6,86,17,25
"Arakan, Cotabato, Philippines",7.35122,125.17087,PLDT Home Fiber,88005,85319,88.01,85.32,7,86,26,35
"Rizal, Nueva Ecija, Philippines",15.69357,121.10229,PLDT,282777,301490,282.78,301.49,1,86,42,45
"Guimba, Nueva Ecija, Philippines",15.65641,120.76767,PLDT,22814,39557,22.81,39.56,17,86,14,17
"Balanga City, Bataan, Philippines",14.67454,120.47033,PLDT,73855,57754,73.86,57.75,10,86,45,61
"Isulan, Sultan Kudarat, Philippines",6.6318,124.44201,PLDT,44529,43219,44.53,43.22,12,86,18,24
"Panglao, Bohol, Philippines",9.56947,123.78721,PLDT,67998,68444,68.00,68.44,9,86,13,31
"Cotabato City, Maguindanao, Philippines",7.20467,124.23104,Globe,169739,47715,169.74,47.72,10,86,14,18
"Dulag, Leyte, Philippines",10.95915,125.00577,PLDT,29828,36807,29.83,36.81,12,86,20,27
"Kidapawan, Cotabato, Philippines",7.02127,125.09019,Converge,112064,110366,112.06,110.37,5,85,29,39
"Gerona, Tarlac, Philippines",15.60489,120.59698,PLDT Home Fiber,96945,121275,96.95,121.28,9,85,22,35
"Tagum, Davao del Norte, Philippines",7.44742,125.80246,Converge,117839,134374,117.84,134.37,4,85,27,37
"Mahayag, Zamboanga del Sur, Philippines",8.15835,123.41593,PLDT Home Fiber,180623,186864,180.62,186.86,9,84,9,13
"San Andres, Catanduanes, Philippines",13.6332,124.08641,PLDT,51609,77841,51.61,77.84,12,84,17,24
"Malvar, Batangas, Philippines",14.04329,121.15875,Converge,285977,304963,285.98,304.96,8,84,23,37
"Tagoloan, Misamis Oriental, Philippines",8.51877,124.80722,PLDT,93384,94109,93.38,94.11,22,84,27,35
"Penablanca, Cagayan, Philippines",17.66268,121.94731,PLDT Home Fiber,74277,67890,74.28,67.89,12,84,12,17
"Kalibo, Aklan, Philippines",11.70734,122.36986,Converge,85095,84086,85.10,84.09,13,84,25,42
"General Mariano Alvarez, Cavite, Philippines",14.29525,121.0071,PLDT Home Fiber,106105,121076,106.11,121.08,7,84,26,36
"Lobo, Batangas, Philippines",13.6877,121.23974,PLDT Home Fiber,201620,203900,201.62,203.90,5,83,31,45
"Noveleta, Cavite, Philippines",14.42785,120.88009,PLDT,71064,76532,71.06,76.53,6,83,28,45
"Mamburao, Occidental Mindoro, Philippines",13.27653,120.643,Converge,72541,94342,72.54,94.34,14,83,30,39
"Moises Padilla, Negros Occidental, Philippines",10.26269,123.11266,PLDT Home Fiber,86259,83045,86.26,83.05,7,82,29,44
"Teresa, Rizal, Philippines",14.5597,121.20593,PLDT Home Fiber,145789,159301,145.79,159.30,4,82,30,49
"Carcar, Cebu, Philippines",10.10478,123.64147,PLDT Home Fiber,66800,44157,66.80,44.16,5,82,15,25
"Limay, Bataan, Philippines",14.53661,120.56245,Converge,101086,192018,101.09,192.02,12,81,27,37
"Agoo, La Union, Philippines",16.3247,120.35508,PLDT Home Fiber,24963,96859,24.96,96.86,18,81,16,24
"Malasiqui, Pangasinan, Philippines",15.92028,120.41443,PLDT,195087,182670,195.09,182.67,4,81,21,29
"Pandi, Bulacan, Philippines",14.87572,120.95941,Globe,119794,110973,119.79,110.97,7,81,21,30
"Pinamungahan, Cebu, Philippines",10.26958,123.63996,PLDT,34202,37386,34.20,37.39,6,81,15,22
"Sibulan, Negros Oriental, Philippines",9.35972,123.28476,PLDT Home Fiber,19320,32398,19.32,32.40,11,81,17,19
"Barotac Nuevo, Iloilo, Philippines",10.89705,122.69526,PLDT,27210,28149,27.21,28.15,9,81,13,25
"Paniqui, Tarlac, Philippines",15.66603,120.53942,PLDT Home Fiber,90273,93784,90.27,93.78,11,81,35,51
"Bacacay, Albay, Philippines",13.29586,123.87462,PLDT,46034,37611,46.03,37.61,11,81,18,25
"Tangub City, Misamis Occidental, Philippines",8.09592,123.6847,PLDT,127928,100282,127.93,100.28,21,81,16,21
"San Jose, Occidental Mindoro, Philippines",12.40119,121.10229,Converge,46548,41223,46.55,41.22,9,80,12,29
"Buguias, Benguet, Philippines",16.74318,120.82692,PLDT Home Fiber,198988,158719,198.99,158.72,9,80,24,40
"Maitum, Sarangani, Philippines",6.12408,124.48636,PLDT,11147,12503,11.15,12.50,25,80,24,32
"Alangalang, Leyte, Philippines",11.23565,124.88449,PLDT,33310,46472,33.31,46.47,19,80,25,41
"Cavite, Philippines",14.48151,120.90833,Converge,286698,220359,286.70,220.36,7,80,13,21
"Lucena City, Quezon, Philippines",13.94139,121.62345,Globe,96727,97359,96.73,97.36,9,80,18,21
"Puerto Princesa City, Palawan, Philippines",9.78563,118.62648,Globe,140370,115068,140.37,115.07,15,80,26,37
"Urbiztondo, Pangasinan, Philippines",15.82012,120.35508,PLDT,129612,99396,129.61,99.40,9,80,10,14
"Floridablanca, Pampanga, Philippines",14.9619,120.49471,PLDT Home Fiber,183711,169203,183.71,169.20,11,80,21,35
"Malvar, Batangas, Philippines",14.04329,121.15875,PLDT,85839,100819,85.84,100.82,10,79,26,39
"Tayug, Pangasinan, Philippines",16.01085,120.74649,PLDT Home Fiber,86697,94447,86.70,94.45,10,79,21,50
"City of Catbalogan, Samar, Philippines",11.85683,124.88449,PLDT,32397,49053,32.40,49.05,17,79,33,41
"Mercedes, Camarines Norte, Philippines",13.90012,123.06765,PLDT,85950,89925,85.95,89.93,6,79,12,17
"Calinog, Iloilo, Philippines",11.14579,122.51464,PLDT,47262,48143,47.26,48.14,20,79,24,28
"Pinan (New Pinan), Zamboanga del Norte, Philippines",8.39244,123.42714,PLDT Home Fiber,8770,8377,8.77,8.38,7,79,8,8
"Himamaylan, Negros Occidental, Philippines",10.10162,122.86995,PLDT Home Fiber,92481,93910,92.48,93.91,12,79,7,14
"Muñoz, Nueva Ecija, Philippines",15.70664,120.9029,Globe,118294,105233,118.29,105.23,5,79,33,51
"Camiling, Tarlac, Philippines",15.67495,120.41272,PLDT Home Fiber,45804,55355,45.80,55.36,14,79,24,33
"Catarman, Northern Samar, Philippines",12.44271,124.61927,Globe,94070,70699,94.07,70.70,11,79,27,38
"Kibawe, Bukidnon, Philippines",7.48878,125.06084,PLDT Home Fiber,139484,103237,139.48,103.24,9,78,26,39
"San Luis, Pampanga, Philippines",15.03986,120.81544,PLDT Home Fiber,91675,93301,91.68,93.30,10,78,30,45
"San Remigio, Antique, Philippines",10.90711,122.19731,PLDT,188465,169792,188.47,169.79,10,78,5,7
"Hagonoy, Bulacan, Philippines",14.83564,120.73371,PLDT Home Fiber,161203,145050,161.20,145.05,9,78,35,51
"Pateros, Metro Manila, Philippines",14.54838,121.07077,PLDT Home Fiber,290688,189997,290.69,190.00,3,78,30,41
"Cadiz City, Negros Occidental, Philippines",10.86192,123.23632,Globe,114240,104627,114.24,104.63,12,78,33,47
"Santa Maria, Pangasinan, Philippines",15.95523,120.7005,PLDT Home Fiber,65277,57542,65.28,57.54,11,78,30,37
"Lantapan, Bukidnon, Philippines",8.04797,124.97271,PLDT,93932,69481,93.93,69.48,8,77,29,42
"Navotas, Metro Manila, Philippines",14.65819,120.94743,PLDT,93517,95308,93.52,95.31,4,77,37,53
"City of Mati, Davao Oriental, Philippines",6.95722,126.15454,PLDT Home Fiber,87076,93643,87.08,93.64,12,77,25,37
"Tagum, Davao del Norte, Philippines",7.44742,125.80246,PLDT,94468,94670,94.47,94.67,8,77,29,47
"Tiaong, Quezon, Philippines",13.92962,121.34273,PLDT Home Fiber,87569,94457,87.57,94.46,3,77,21,37
"Sogod, Cebu, Philippines",10.77419,123.9527,Globe,94184,81736,94.18,81.74,18,76,29,39
"Quezon, Nueva Ecija, Philippines",15.56953,120.82692,PLDT Home Fiber,92366,92765,92.37,92.77,10,76,29,39
"Pagalungan, Maguindanao, Philippines",6.93298,124.75198,PLDT Home Fiber,95256,91543,95.26,91.54,12,76,25,37
"Quezon, Philippines",14.06282,122.11783,PLDT,41096,51082,41.10,51.08,14,75,4,8
"Carcar, Cebu, Philippines",10.10478,123.64147,PLDT,28119,28928,28.12,28.93,20,75,11,17
"San Quintin, Pangasinan, Philippines",15.9754,120.83841,PLDT Home Fiber,122519,96039,122.52,96.04,7,75,32,42
"Pagadian City, Zamboanga del Sur, Philippines",7.86265,123.37106,Globe,92404,65514,92.40,65.51,6,75,25,40
"Naval, Biliran, Philippines",11.56681,124.44201,Globe,137095,134187,137.10,134.19,23,75,14,20
"Cabuyao City, Laguna, Philippines",14.27433,121.11961,Globe,265683,209770,265.68,209.77,8,75,23,32
"Santo Tomas, Batangas, Philippines",14.08754,121.17764,PLDT,50907,54208,50.91,54.21,11,75,17,20
"Paniqui, Tarlac, Philippines",15.66603,120.53942,Converge,44824,72144,44.82,72.14,5,75,40,52
"Talavera, Nueva Ecija, Philippines",15.58575,120.9197,Globe,197774,108917,197.77,108.92,5,75,34,43
"Cavite, Philippines",14.48151,120.90833,PLDT,80126,92693,80.13,92.69,2,74,18,30
"San Pascual, Batangas, Philippines",13.81044,121.02204,Globe,215857,190119,215.86,190.12,5,74,26,30
"Mabalacat City, Pampanga, Philippines",15.24525,120.56567,Globe,112649,104684,112.65,104.68,6,74,20,34
"Tagbilaran City, Bohol, Philippines",9.6534,123.86703,Converge,150251,178327,150.25,178.33,27,74,31,50
"Cordova, Cebu, Philippines",10.25278,123.9494,Globe,108169,101809,108.17,101.81,4,74,20,23
"Marawi City, Lanao del Sur, Philippines",8.0292,124.29772,PLDT,47521,31300,47.52,31.30,20,74,33,47
"Dona Remedios Trinidad, Bulacan, Philippines",15.11427,121.21685,PLDT Home Fiber,68501,56799,68.50,56.80,10,74,20,27
"Maasin, Southern Leyte, Philippines",10.13272,124.84081,Globe,94526,94239,94.53,94.24,24,74,24,35
"Kitaotao, Bukidnon, Philippines",7.59444,125.10487,PLDT Home Fiber,55891,87287,55.89,87.29,9,73,29,46
"Majayjay, Laguna, Philippines",14.14491,121.46983,PLDT Home Fiber,96951,91253,96.95,91.25,8,73,20,39
"Hamtic, Antique, Philippines",10.65189,122.01555,PLDT,87585,102108,87.59,102.11,11,73,28,35
"Bagumbayan, Sultan Kudarat, Philippines",6.4606,124.55284,PLDT Home Fiber,30854,14119,30.85,14.12,20,73,11,12
"Baao, Camarines Sur, Philippines",13.49319,123.35984,PLDT,52361,56274,52.36,56.27,11,72,16,26
"City of Catbalogan, Samar, Philippines",11.85683,124.88449,Globe,113852,84292,113.85,84.29,16,72,20,34
"Sipocot, Camarines Sur, Philippines",13.83785,123.01136,PLDT,21596,38821,21.60,38.82,14,72,8,12
"Zaragoza, Nueva Ecija, Philippines",15.46003,120.79246,PLDT Home Fiber,77952,82212,77.95,82.21,12,72,15,25
"Rizal, Nueva Ecija, Philippines",15.69357,121.10229,PLDT Home Fiber,23161,18289,23.16,18.29,14,72,7,11
"Burgos, La Union, Philippines",16.53803,120.47033,PLDT Home Fiber,161213,165834,161.21,165.83,7,72,12,20
"Aroroy, Masbate, Philippines",12.38843,123.32617,Converge,75944,69273,75.94,69.27,19,71,12,14
"Candon City, Ilocos Sur, Philippines",17.19612,120.44729,PLDT Home Fiber,17987,121203,17.99,121.20,78,71,24,29
"Bayombong, Nueva Vizcaya, Philippines",16.48042,121.14813,PLDT,72590,53708,72.59,53.71,7,71,23,38
"Bayawan City, Negros Oriental, Philippines",9.53644,122.7633,PLDT,44733,89100,44.73,89.10,11,71,21,26
"Malita, Davao Occidental, Philippines",6.41184,125.61321,PLDT Home Fiber,141862,123030,141.86,123.03,11,71,15,17
"Talibon, Bohol, Philippines",10.11933,124.26439,PLDT Home Fiber,34391,50270,34.39,50.27,7,71,13,16
"Tublay, Benguet, Philippines",16.52924,120.62073,PLDT Home Fiber,89700,93564,89.70,93.56,9,71,27,38
"Asturias, Cebu, Philippines",10.60209,123.77412,PLDT Home Fiber,22426,20766,22.43,20.77,6,71,11,16
"City of Mati, Davao Oriental, Philippines",6.95722,126.15454,Globe,105530,109008,105.53,109.01,18,70,17,26
"Amadeo, Cavite, Philippines",14.18985,120.92452,Globe,87232,56276,87.23,56.28,6,70,20,33
"Valencia City, Bukidnon, Philippines",7.86319,125.17087,PLDT,78336,34878,78.34,34.88,10,70,14,19
"Dinalupihan, Bataan, Philippines",14.88605,120.44729,PLDT Home Fiber,158046,141177,158.05,141.18,8,70,30,39
"San Fernando, Cebu, Philippines",10.16316,123.70738,PLDT,7417,30024,7.42,30.02,29,70,14,19
"San Pascual, Batangas, Philippines",13.81044,121.02204,PLDT Home Fiber,139328,133746,139.33,133.75,7,70,26,33
"Cordon, Isabela, Philippines",16.67835,121.46847,PLDT Home Fiber,64296,80349,64.30,80.35,13,70,20,30
"Magalang, Pampanga, Philippines",15.21394,120.66181,PLDT,65979,48482,65.98,48.48,11,70,18,32
"Hinunangan, Southern Leyte, Philippines",10.39458,125.14888,PLDT,107180,135553,107.18,135.55,7,70,21,26
"City of Borongan, Eastern Samar, Philippines",11.61739,125.34663,Globe,135054,149931,135.05,149.93,24,70,21,31
"Laurel, Batangas, Philippines",14.05302,120.9073,PLDT Home Fiber,115372,145589,115.37,145.59,7,69,15,24
"Compostela, Cebu, Philippines",10.45408,124.013,PLDT,47039,48877,47.04,48.88,8,69,17,25
"Gapan City, Nueva Ecija, Philippines",15.29121,121.01057,Converge,197056,179371,197.06,179.37,6,69,29,35
"Tabaco City, Albay, Philippines",13.36138,123.72876,Globe,93319,67081,93.32,67.08,19,69,18,20
"Noveleta, Cavite, Philippines",14.42785,120.88009,PLDT Home Fiber,93404,100378,93.40,100.38,7,69,22,30
"Baras, Rizal, Philippines",14.53656,121.27408,PLDT,36035,36758,36.04,36.76,6,69,19,30
"Palayan City, Nueva Ecija, Philippines",15.53906,121.09083,PLDT,75232,72626,75.23,72.63,15,69,27,41
"General Tinio (Papaya), Nueva Ecija, Philippines",15.36345,121.21685,PLDT,38463,20644,38.46,20.64,11,69,21,36
"Guimba, Nueva Ecija, Philippines",15.65641,120.76767,Converge,190513,283016,190.51,283.02,4,68,20,32
"Ubay, Bohol, Philippines",10.05512,124.47421,PLDT,81022,89143,81.02,89.14,11,68,10,13
"Madridejos, Cebu, Philippines",11.25859,123.7406,PLDT,34798,28562,34.80,28.56,10,68,11,16
"Malay, Aklan, Philippines",11.93033,121.95191,PLDT Home Fiber,178579,70159,178.58,70.16,28,68,9,11
"Talavera, Nueva Ecija, Philippines",15.58575,120.9197,PLDT,89654,99659,89.65,99.66,10,68,8,15
"Alaminos City, Pangasinan, Philippines",16.15053,119.98562,Converge,119367,132363,119.37,132.36,5,68,27,34
"Anilao, Iloilo, Philippines",11.00026,122.74072,PLDT,30519,33916,30.52,33.92,11,68,16,20
"Binangonan, Rizal, Philippines",14.48441,121.1869,Converge,167383,136242,167.38,136.24,3,68,29,38
"Loboc, Bohol, Philippines",9.64737,124.04187,PLDT,49535,87861,49.54,87.86,18,68,22,29
"Naga, Cebu, Philippines",10.20764,123.75821,PLDT,104906,136753,104.91,136.75,4,68,21,30
"Cabatuan, Isabela, Philippines",16.92776,121.66253,PLDT Home Fiber,58129,78115,58.13,78.12,11,68,8,12
"Tabaco City, Albay, Philippines",13.36138,123.72876,Converge,100117,116999,100.12,117.00,4,67,15,26
"Sanchez-Mira, Cagayan, Philippines",18.53628,121.19395,PLDT Home Fiber,162282,159458,162.28,159.46,14,67,8,12
"Estancia, Iloilo, Philippines",11.45356,123.13515,PLDT,50537,43170,50.54,43.17,10,67,16,25
"Roxas, Isabela, Philippines",17.12035,121.61915,PLDT Home Fiber,51587,53440,51.59,53.44,12,67,21,30
"Calumpit, Bulacan, Philippines",14.91518,120.7662,PLDT,24687,60751,24.69,60.75,9,67,24,34
"Ozamiz, Misamis Occidental, Philippines",8.15,123.85033,Globe,116454,62681,116.45,62.68,12,67,19,23
"Santo Tomas, Batangas, Philippines",14.08754,121.17764,Converge,186133,187027,186.13,187.03,8,67,25,31
"Cavite, Philippines",14.48151,120.90833,Globe,248379,161237,248.38,161.24,4,67,12,19
"Mabini, Batangas, Philippines",13.72355,120.9073,Converge,26915,77211,26.92,77.21,7,67,8,12
"Ipil, Zamboanga Sibugay, Philippines",7.77318,122.57121,PLDT,46455,54469,46.46,54.47,17,67,26,39
"San Simon, Pampanga, Philippines",14.98432,120.75127,PLDT Home Fiber,88156,94082,88.16,94.08,8,66,33,45
"Muñoz, Nueva Ecija, Philippines",15.70664,120.9029,Converge,96528,131350,96.53,131.35,6,66,21,29
"Guimba, Nueva Ecija, Philippines",15.65641,120.76767,PLDT Home Fiber,51646,54235,51.65,54.24,13,66,24,39
"Manapla, Negros Occidental, Philippines",10.95795,123.12428,PLDT Home Fiber,65760,69780,65.76,69.78,5,66,10,12
"City of Batac, Ilocos Norte, Philippines",18.04961,120.59698,PLDT Home Fiber,140360,150127,140.36,150.13,9,66,17,24
"San Fernando, Cebu, Philippines",10.16316,123.70738,Globe,124824,127753,124.82,127.75,17,66,33,43
"San Miguel, Zamboanga del Sur, Philippines",7.69412,123.27003,PLDT,64957,48321,64.96,48.32,28,66,2,4
"Malay, Aklan, Philippines",11.93033,121.95191,Converge,94979,93998,94.98,94.00,14,65,22,38
"Gingoog City, Misamis Oriental, Philippines",8.81446,125.10406,PLDT Home Fiber,85111,78525,85.11,78.53,5,65,16,22
"Maasin, Southern Leyte, Philippines",10.13272,124.84081,PLDT Home Fiber,177150,206032,177.15,206.03,8,65,14,22
"Norzagaray, Bulacan, Philippines",14.89659,121.14813,PLDT,90218,49867,90.22,49.87,9,65,25,43
"Victorias, Negros Occidental, Philippines",10.901,123.07045,PLDT Home Fiber,91949,134591,91.95,134.59,6,65,15,24
"Oton, Iloilo, Philippines",10.69251,122.47868,PLDT,35356,31311,35.36,31.31,9,65,18,23
"Sagay City, Negros Occidental, Philippines",10.84555,123.37106,Globe,27190,30693,27.19,30.69,7,65,13,18
"Santiago, Isabela, Philippines",16.69679,121.55865,Globe,120826,105111,120.83,105.11,8,64,19,27
"Urdaneta City, Pangasinan, Philippines",15.98194,120.59698,Globe,118513,106439,118.51,106.44,4,64,22,25
"Tupi, South Cotabato, Philippines",6.33849,124.97271,PLDT Home Fiber,93487,95836,93.49,95.84,10,64,11,17
"Alicia, Isabela, Philippines",16.80691,121.69674,PLDT,72194,73756,72.19,73.76,15,64,34,36
"Pililla, Rizal, Philippines",14.44393,121.34273,PLDT Home Fiber,123654,185480,123.65,185.48,6,64,14,17
"Liloy, Zamboanga del Norte, Philippines",8.07325,122.69555,PLDT,53910,38594,53.91,38.59,23,64,8,14
"Calatagan, Batangas, Philippines",13.88203,120.6545,Globe,257999,156533,258.00,156.53,5,64,6,9
"Maria Aurora, Aurora, Philippines",15.75061,121.3999,PLDT,113257,121274,113.26,121.27,11,64,19,25
"Carmona, Cavite, Philippines",14.3135,121.05712,PLDT Home Fiber,142624,161770,142.62,161.77,5,63,27,40
"Lingayen, Pangasinan, Philippines",16.00973,120.22449,PLDT Home Fiber,94094,81453,94.09,81.45,13,63,13,20
"Baler, Aurora, Philippines",15.73361,121.57125,PLDT,58992,56442,58.99,56.44,14,63,19,24
"Candaba, Pampanga, Philippines",15.09289,120.8277,Converge,138648,86837,138.65,86.84,4,63,28,40
"Sagbayan, Bohol, Philippines",9.91005,124.08641,PLDT,64379,68138,64.38,68.14,17,63,16,24
"Ibaan, Batangas, Philippines",13.81895,121.13082,Globe,122081,115420,122.08,115.42,6,63,23,39
"Urdaneta City, Pangasinan, Philippines",15.98194,120.59698,PLDT,64170,67123,64.17,67.12,5,63,27,42
"Roxas, Oriental Mindoro, Philippines",12.62617,121.47989,PLDT Home Fiber,53463,52723,53.46,52.72,8,63,17,24
"San Isidro, Davao Oriental, Philippines",6.78235,126.11108,PLDT Home Fiber,34183,39325,34.18,39.33,13,63,5,6
"Jaen, Nueva Ecija, Philippines",15.39558,120.87286,Globe,115570,104388,115.57,104.39,4,63,16,17
"Bamban, Tarlac, Philippines",15.2885,120.57044,PLDT Home Fiber,53526,48135,53.53,48.14,11,62,9,16
"Guagua, Pampanga, Philippines",14.96374,120.63244,PLDT,26356,58527,26.36,58.53,12,62,26,37
"Carcar, Cebu, Philippines",10.10478,123.64147,Globe,93320,103341,93.32,103.34,7,62,15,24
"Alaminos City, Pangasinan, Philippines",16.15053,119.98562,PLDT Home Fiber,89232,152642,89.23,152.64,8,62,19,26
"Isabela, Basilan, Philippines",6.70387,121.9799,Globe,120489,107807,120.49,107.81,15,62,11,19
"Tanay, Rizal, Philippines",14.61419,121.37703,PLDT,51558,55028,51.56,55.03,13,61,20,28
"Panabo City, Davao del Norte, Philippines",7.30822,125.68662,Globe,113577,62506,113.58,62.51,10,61,25,27
"Carranglan, Nueva Ecija, Philippines",15.97584,121.03351,PLDT Home Fiber,92953,145333,92.95,145.33,10,61,10,17
"Kiamba, Sarangani, Philippines",6.00076,124.70777,PLDT Home Fiber,44081,38889,44.08,38.89,11,61,14,23
"Guiguinto, Bulacan, Philippines",14.82832,120.88429,Globe,119650,115655,119.65,115.66,8,61,25,29
"Lamut, Ifugao, Philippines",16.68241,121.19395,PLDT Home Fiber,100525,105996,100.53,106.00,12,61,27,39
"Infanta, Quezon, Philippines",14.74071,121.6451,PLDT Home Fiber,175378,173985,175.38,173.99,11,61,16,24
"Barotac Viejo, Iloilo, Philippines",11.10187,122.87613,PLDT,38542,60685,38.54,60.69,10,61,17,23
"Cuenca, Batangas, Philippines",13.9144,121.05071,Globe,291574,219174,291.57,219.17,7,61,24,36
"Pigkawayan, Cotabato, Philippines",7.27922,124.43092,PLDT Home Fiber,166369,149113,166.37,149.11,12,61,19,29
"San Jose, Batangas, Philippines",13.87868,121.09942,PLDT,155627,160303,155.63,160.30,6,61,22,29
"Tanauan City, Batangas, Philippines",14.08354,121.14762,Converge,79907,80784,79.91,80.78,8,60,17,36
"Pinamalayan, Oriental Mindoro, Philippines",13.01533,121.37703,PLDT,58701,72358,58.70,72.36,12,60,17,20
"Toboso, Negros Occidental, Philippines",10.71769,123.46077,PLDT,26947,53574,26.95,53.57,7,60,19,29
"Tabogon, Cebu, Philippines",10.92395,123.9973,Globe,93422,94404,93.42,94.40,23,60,25,36
"Odiongan, Romblon, Philippines",12.36445,122.01555,PLDT,23243,22452,23.24,22.45,10,60,28,38
"Batad, Iloilo, Philippines",11.40014,123.09015,Converge,83637,78334,83.64,78.33,14,60,7,10
"Pilar, Sorsogon, Philippines",12.97477,123.6847,PLDT,51736,46100,51.74,46.10,8,60,8,11
"Victoria, Tarlac, Philippines",15.59077,120.68901,PLDT Home Fiber,93692,92890,93.69,92.89,12,60,27,32
"Mawab, Davao de Oro, Philippines",7.51701,125.937,PLDT,48313,52786,48.31,52.79,8,60,14,16
"Polomolok, South Cotabato, Philippines",6.22451,125.06084,PLDT,65132,69708,65.13,69.71,20,60,25,32
"Ilog, Negros Occidental, Philippines",9.8785,122.72943,PLDT,31794,28830,31.79,28.83,7,60,11,14
"Pavia, Iloilo, Philippines",10.7748,122.54261,Globe,58615,53741,58.62,53.74,4,60,20,33
"Nasugbu, Batangas, Philippines",14.09404,120.68901,PLDT,31067,48074,31.07,48.07,9,59,12,23
"Bugallon, Pangasinan, Philippines",15.92022,120.18202,PLDT Home Fiber,92029,51864,92.03,51.86,5,59,6,14
"Kapalong, Davao del Norte, Philippines",7.82951,125.522,PLDT Home Fiber,73046,94710,73.05,94.71,12,59,23,29
"Norala, South Cotabato, Philippines",6.5061,124.66353,PLDT Home Fiber,42170,32531,42.17,32.53,13,59,15,16
"Silay, Negros Occidental, Philippines",10.79968,122.97605,Globe,52887,90606,52.89,90.61,4,59,16,20
"Daraga, Albay, Philippines",13.12278,123.69588,PLDT,94225,98784,94.23,98.78,8,58,23,32
"Castilla, Sorsogon, Philippines",12.95518,123.8188,Converge,113327,82193,113.33,82.19,16,58,4,9
"Tabaco City, Albay, Philippines",13.36138,123.72876,PLDT,168064,208375,168.06,208.38,12,58,10,16
"Sibulan, Negros Oriental, Philippines",9.35972,123.28476,PLDT,129803,128621,129.80,128.62,10,58,18,21
"Rosario, Batangas, Philippines",13.80433,121.28552,Converge,109726,171086,109.73,171.09,13,58,21,33
"Dauis, Bohol, Philippines",9.60401,123.82996,Converge,110604,149823,110.60,149.82,27,58,27,36
"Subic, Zambales, Philippines",14.83066,120.18202,PLDT,153344,114709,153.34,114.71,9,58,14,28
"Gapan City, Nueva Ecija, Philippines",15.29121,121.01057,PLDT,19435,24612,19.44,24.61,9,58,4,9
"Pilar, Bohol, Philippines",9.84115,124.35324,PLDT,82865,93338,82.87,93.34,13,58,22,32
"Samal, Davao del Norte, Philippines",7.08352,125.70578,PLDT Home Fiber,173396,159846,173.40,159.85,7,57,26,32
"General Mariano Alvarez, Cavite, Philippines",14.29525,121.0071,Globe,256869,234824,256.87,234.82,6,57,26,35
"Koronadal, South Cotabato, Philippines",6.50044,124.84333,Globe,61324,95692,61.32,95.69,6,57,23,29
"San Jose City, Nueva Ecija, Philippines",15.79188,120.99008,Converge,129485,137150,129.49,137.15,6,57,23,36
"Toboso, Negros Occidental, Philippines",10.71769,123.46077,PLDT Home Fiber,91320,94179,91.32,94.18,5,57,15,22
"Santo Domingo, Nueva Ecija, Philippines",15.61284,120.88434,PLDT Home Fiber,54416,52884,54.42,52.88,12,57,15,26
"Bacacay, Albay, Philippines",13.29586,123.87462,Converge,152165,116416,152.17,116.42,5,57,12,19
"Bacong, Negros Oriental, Philippines",9.24338,123.27003,PLDT Home Fiber,149804,139031,149.80,139.03,9,57,20,24
"Manaoag, Pangasinan, Philippines",16.04627,120.4876,PLDT,20658,18764,20.66,18.76,13,56,7,8
"Lubao, Pampanga, Philippines",14.92678,120.58795,PLDT,63950,59480,63.95,59.48,12,56,25,31
"Miagao, Iloilo, Philippines",10.64201,122.23632,PLDT,30826,45119,30.83,45.12,9,56,17,22
"Santo Nino, South Cotabato, Philippines",6.44221,124.67459,PLDT Home Fiber,107072,48156,107.07,48.16,13,56,15,21
"Pateros, Metro Manila, Philippines",14.54838,121.07077,Converge,97910,93771,97.91,93.77,3,56,24,36
"Maitum, Sarangani, Philippines",6.12408,124.48636,PLDT Home Fiber,50667,45045,50.67,45.05,14,56,16,20
"Angat, Bulacan, Philippines",14.92586,121.02204,Converge,100116,51243,100.12,51.24,8,56,16,23
"Ronda, Cebu, Philippines",9.99214,123.44956,PLDT Home Fiber,190760,154525,190.76,154.53,6,56,22,36
"Bantayan, Cebu, Philippines",11.18041,123.7406,PLDT,37395,67552,37.40,67.55,10,56,12,18
"Dumaguete City, Negros Oriental, Philippines",9.29841,123.29249,Converge,99220,105808,99.22,105.81,17,56,21,28
"Echague, Isabela, Philippines",16.66606,121.78792,PLDT,39808,24923,39.81,24.92,14,56,13,20
"Escalante City, Negros Occidental, Philippines",10.84117,123.49908,PLDT,140163,143898,140.16,143.90,7,55,22,34
"Lumban, Laguna, Philippines",14.29353,121.52558,PLDT,108556,57200,108.56,57.20,7,55,9,12
"Alabel, Sarangani, Philippines",6.10416,125.28792,PLDT Home Fiber,26667,25228,26.67,25.23,11,55,14,19
"Camalig, Albay, Philippines",13.14101,123.63996,Converge,43086,28459,43.09,28.46,14,55,8,17
"Navotas, Metro Manila, Philippines",14.65819,120.94743,Globe,144200,108264,144.20,108.26,4,55,14,23
"Paracale, Camarines Norte, Philippines",14.23721,122.78588,PLDT Home Fiber,63827,60317,63.83,60.32,8,55,10,13
"Binalbagan, Negros Occidental, Philippines",10.10918,123.01136,PLDT,116352,69942,116.35,69.94,14,55,12,20
"Libungan, Cotabato, Philippines",7.31637,124.53068,PLDT Home Fiber,39467,38613,39.47,38.61,11,55,14,21
"Lagonoy, Camarines Sur, Philippines",13.86688,123.48319,Converge,42112,51176,42.11,51.18,3,55,3,8
"Bulakan, Bulacan, Philippines",14.79484,120.87889,Converge,97437,86811,97.44,86.81,7,55,14,28
"Hinigaran, Negros Occidental, Philippines",10.27479,122.92123,PLDT Home Fiber,128022,89698,128.02,89.70,10,55,14,20
"San Jose de Buenavista, Antique, Philippines",10.74901,121.94128,PLDT Home Fiber,81891,117106,81.89,117.11,8,54,17,22
"Gubat, Sorsogon, Philippines",12.92415,124.09755,PLDT,119057,66397,119.06,66.40,9,54,9,16
"Banisilan, Cotabato, Philippines",7.53701,124.72988,PLDT Home Fiber,137125,156323,137.13,156.32,9,54,8,13
"Tagkawayan, Quezon, Philippines",13.96843,122.53376,Converge,108191,128346,108.19,128.35,12,54,5,8
"Tabogon, Cebu, Philippines",10.92395,123.9973,PLDT Home Fiber,60443,115321,60.44,115.32,6,54,10,14
"Silay, Negros Occidental, Philippines",10.79968,122.97605,Converge,222895,225992,222.90,225.99,14,54,12,17
"Tampakan, South Cotabato, Philippines",6.49121,125.08286,PLDT Home Fiber,171949,126591,171.95,126.59,10,54,9,12
"City of Bayugan, Agusan del Sur, Philippines",8.71381,125.74865,PLDT Home Fiber,75214,68399,75.21,68.40,11,54,14,17
"Santa Cruz, Davao del Sur, Philippines",6.83551,125.41659,PLDT Home Fiber,50247,51733,50.25,51.73,9,54,22,30
