Location Name,Latitude,Longitude,Provider,Download Speed,Upload Speed,Download Speed Mbps,Upload Speed Mbps,Minimum Latency,Test Count,Sample Count,User Count
"Quezon City, Metro Manila, Philippines",14.64879,121.05094,PLDT Home Fiber,160389,161390,160.39,161.39,3,88309,23170,34499
"Quezon City, Metro Manila, Philippines",14.64879,121.05094,Converge,180343,178544,180.34,178.54,4,57873,15154,24559
"Quezon City, Metro Manila, Philippines",14.64879,121.05094,Globe,191980,171688,191.98,171.69,5,52307,14553,22583
"Manila, Metro Manila, Philippines",14.59951,120.98423,PLDT Home Fiber,101494,108679,101.49,108.68,6,38509,9335,14146
"Manila, Metro Manila, Philippines",14.59951,120.98423,Converge,194363,154635,194.36,154.64,4,37166,9349,16277
"Cagayan De Oro City, Misamis Oriental, Philippines",8.48029,124.64975,PLDT Home Fiber,98733,94547,98.73,94.55,8,34855,9026,13277
"Lucena City, Quezon, Philippines",13.94139,121.62345,PLDT,107869,121201,107.87,121.20,6,34013,7753,12704
"Cebu City, Cebu, Philippines",10.29261,123.90219,PLDT Home Fiber,103465,112471,103.47,112.47,6,33072,7497,10679
"Davao City, Davao del Sur, Philippines",7.06475,125.60884,Globe,124835,113468,124.84,113.47,4,31086,8664,12265
"Quezon City, Metro Manila, Philippines",14.64879,121.05094,PLDT,80470,80047,80.47,80.05,8,29969,8529,12337
"Cebu City, Cebu, Philippines",10.29261,123.90219,PLDT,83537,91428,83.54,91.43,9,28053,6826,9761
"Parañaque, Metro Manila, Philippines",14.47929,121.01985,PLDT Home Fiber,112311,149503,112.31,149.50,5,27195,5974,8488
"Cebu City, Cebu, Philippines",10.29261,123.90219,Globe,129054,114856,129.05,114.86,6,25995,7428,10681
"Makati City, Metro Manila, Philippines",14.55474,121.02444,PLDT,84215,85548,84.22,85.55,9,24715,6687,9272
"Pasig, Metro Manila, Philippines",14.56082,121.0776,PLDT Home Fiber,175480,165462,175.48,165.46,3,22717,6527,9937
"Manila, Metro Manila, Philippines",14.59951,120.98423,PLDT,93153,93903,93.15,93.90,5,22417,6096,8617
"Parañaque, Metro Manila, Philippines",14.47929,121.01985,Converge,202910,198993,202.91,198.99,4,22247,6042,9747
"Cebu City, Cebu, Philippines",10.29261,123.90219,Converge,186045,202777,186.05,202.78,5,21846,5428,8009
"Parañaque, Metro Manila, Philippines",14.47929,121.01985,PLDT,111400,99774,111.40,99.77,5,21297,6219,9510
"Cagayan De Oro City, Misamis Oriental, Philippines",8.48029,124.64975,Globe,110504,81518,110.50,81.52,9,20961,5083,7512
"Davao City, Davao del Sur, Philippines",7.06475,125.60884,PLDT Home Fiber,99901,93842,99.90,93.84,8,20763,5096,7214
"Pasig, Metro Manila, Philippines",14.56082,121.0776,Converge,115601,120238,115.60,120.24,4,20491,5897,8231
"Valenzuela, Metro Manila, Philippines",14.69247,120.96991,Converge,185065,175360,185.07,175.36,4,19632,4919,8859
"Davao City, Davao del Sur, Philippines",7.06475,125.60884,Converge,110998,110288,111.00,110.29,3,18583,5113,7624
"Antipolo City, 1870 Rizal, Philippines",14.58584,121.17569,PLDT Home Fiber,142825,140287,142.83,140.29,3,18271,4607,6717
"Taguig, Metro Manila, Philippines",14.53063,121.05755,Converge,199533,199250,199.53,199.25,4,18100,4715,7639
"Calamba, Laguna, Philippines",14.19488,121.15974,Converge,154080,133348,154.08,133.35,6,17879,4714,7691
"Tanza, Cavite, Philippines",14.34293,120.85032,Converge,209865,215307,209.87,215.31,5,17213,3743,5994
"Angeles, Pampanga, Philippines",15.16061,120.60908,Converge,124454,137084,124.45,137.08,4,16755,4291,6129
"Pandi, Bulacan, Philippines",14.87572,120.95941,Converge,209327,104628,209.33,104.63,7,16352,4089,6499
"Taguig, Metro Manila, Philippines",14.53063,121.05755,Globe,187132,166004,187.13,166.00,4,15692,4844,7596
"Pasay City, Metro Manila, Philippines",14.53767,121.00081,PLDT Home Fiber,114259,124135,114.26,124.14,5,15431,4121,6173
"Iligan City, Lanao del Norte, Philippines",8.22707,124.46418,PLDT Home Fiber,92977,93173,92.98,93.17,6,15384,3427,5145
"Makati City, Metro Manila, Philippines",14.55474,121.02444,PLDT Home Fiber,169570,152212,169.57,152.21,4,15186,4020,5844
"Caloocan, Metro Manila, Philippines",14.65136,120.99022,PLDT Home Fiber,167050,169245,167.05,169.25,3,14904,3785,5486
"Baguio, Benguet, Philippines",16.41297,120.5914,PLDT Home Fiber,100874,98510,100.87,98.51,6,14869,3986,5838
"Marikina, Metro Manila, Philippines",14.63493,121.10195,Converge,188881,182795,188.88,182.80,3,14851,4120,6729
"Imus, Cavite, Philippines",14.42764,120.93724,PLDT Home Fiber,164114,149826,164.11,149.83,4,14700,3646,5542
"Cainta, Rizal, Philippines",14.58056,121.11565,PLDT Home Fiber,181030,187197,181.03,187.20,3,14091,3729,5551
"Mexico, Pampanga, Philippines",15.06457,120.72033,Converge,172850,187111,172.85,187.11,4,13333,3715,5885
"Batangas City, Batangas, Philippines",13.75641,121.05833,Globe,117664,105691,117.66,105.69,10,12633,3191,5217
"San Pablo City, Laguna, Philippines",14.06422,121.32326,Converge,124020,140636,124.02,140.64,7,12212,3032,5087
"Davao City, Davao del Sur, Philippines",7.06475,125.60884,PLDT,92526,91826,92.53,91.83,8,11200,3071,4188
"Tanauan City, Batangas, Philippines",14.08354,121.14762,PLDT Home Fiber,136615,129056,136.62,129.06,7,11055,3101,4908
"Las Piñas, Metro Manila, Philippines",14.44934,120.98186,PLDT Home Fiber,159370,154987,159.37,154.99,4,11019,2704,3719
"Iloilo City, Iloilo, Philippines",10.73019,122.55911,Globe,112235,102531,112.24,102.53,8,10929,2863,4461
"Capas, Tarlac, Philippines",15.34633,120.59344,Converge,144450,151242,144.45,151.24,4,10565,3100,4864
"Malabon, Metro Manila, Philippines",14.65793,120.95118,PLDT Home Fiber,118812,140430,118.81,140.43,3,10536,2792,4272
"Taguig, Metro Manila, Philippines",14.53063,121.05755,PLDT Home Fiber,182536,174928,182.54,174.93,4,10171,2647,3692
"Taguig, Metro Manila, Philippines",14.53063,121.05755,PLDT,85314,89015,85.31,89.02,7,10089,2816,3912
"Antipolo City, 1870 Rizal, Philippines",14.58584,121.17569,Converge,187690,192029,187.69,192.03,4,10032,2689,4150
"Tarlac City, Tarlac, Philippines",15.48808,120.58719,Converge,128363,114668,128.36,114.67,4,10028,2800,4231
"San Fernando, Pampanga, Philippines",15.02781,120.69349,PLDT Home Fiber,148310,99044,148.31,99.04,8,9961,2632,3867
"Taytay, Rizal, Philippines",14.55288,121.12571,PLDT Home Fiber,176676,189552,176.68,189.55,4,9917,2671,3855
"Bacoor, Cavite, Philippines",14.43122,120.96567,PLDT Home Fiber,144612,132508,144.61,132.51,5,9802,2492,3549
"SJDM, Bulacan, Philippines",14.82867,121.04324,Converge,152153,111532,152.15,111.53,7,9786,2395,3391
"Calamba, Laguna, Philippines",14.19488,121.15974,PLDT Home Fiber,124948,124064,124.95,124.06,8,9542,2719,4120
"Muntinlupa, Metro Manila, Philippines",14.39453,121.04483,PLDT,99879,95365,99.88,95.37,5,9381,2488,3602
"Magpet, Cotabato, Philippines",7.1332,125.17087,PLDT,135372,97033,135.37,97.03,8,9361,3053,4298
"Pasig, Metro Manila, Philippines",14.56082,121.0776,PLDT,77422,77426,77.42,77.43,8,9236,2830,4080
"Bacolod, Negros Occidental, Philippines",10.66764,122.94556,PLDT Home Fiber,94337,100642,94.34,100.64,8,9208,2285,3370
"Minglanilla, Cebu, Philippines",10.24543,123.79599,Converge,226133,237963,226.13,237.96,5,9188,2485,3773
"Dasmariñas, Cavite, Philippines",14.33385,120.95423,PLDT Home Fiber,138658,136444,138.66,136.44,5,8899,2228,3311
"Dasmariñas, Cavite, Philippines",14.33385,120.95423,Globe,203798,195004,203.80,195.00,5,8792,2623,3901
"Pasig, Metro Manila, Philippines",14.56082,121.0776,Globe,235091,212286,235.09,212.29,5,8740,2230,3194
"Valenzuela, Metro Manila, Philippines",14.69247,120.96991,PLDT Home Fiber,161386,167922,161.39,167.92,3,8717,2488,3780
"San Carlos City, Negros Occidental, Philippines",10.48344,123.30371,PLDT,129112,143819,129.11,143.82,5,8457,2753,4087
"Makati City, Metro Manila, Philippines",14.55474,121.02444,Globe,173484,142980,173.48,142.98,4,8276,2159,3125
"Mandaluyong City, Metro Manila, Philippines",14.57627,121.03924,Globe,182445,151710,182.45,151.71,5,8117,2231,3437
"Bago, Negros Occidental, Philippines",10.53757,122.83609,Converge,158808,139441,158.81,139.44,13,8016,2223,3556
"La Trinidad, Benguet, Philippines",16.44844,120.59047,Converge,99251,107439,99.25,107.44,3,7955,2387,3509
"Magpet, Cotabato, Philippines",7.1332,125.17087,PLDT Home Fiber,117408,96642,117.41,96.64,8,7933,2650,3745
"San Fernando, Pampanga, Philippines",15.02781,120.69349,Converge,95366,100017,95.37,100.02,4,7914,2381,3287
"San Juan City, Metro Manila, Philippines",14.60196,121.0355,PLDT,61626,59558,61.63,59.56,12,7571,2352,3359
"Naga City, Camarines Sur, Philippines",13.6475,123.27003,Converge,93514,90678,93.51,90.68,10,7411,1355,2201
"Polangui, Albay, Philippines",13.29368,123.48542,Converge,103669,79098,103.67,79.10,14,7368,1458,2861
"San Juan City, Metro Manila, Philippines",14.60196,121.0355,Globe,204467,181180,204.47,181.18,5,7175,2047,3108
"General Trias, Cavite, Philippines",14.38159,120.87915,Converge,167573,163739,167.57,163.74,6,6902,1515,2483
"Candelaria, Quezon, Philippines",13.94899,121.42276,Converge,194052,189548,194.05,189.55,5,6790,1912,3309
"Imus, Cavite, Philippines",14.42764,120.93724,Converge,201633,181321,201.63,181.32,6,6630,1925,3080
"Pasay City, Metro Manila, Philippines",14.53767,121.00081,PLDT,86452,90458,86.45,90.46,8,6572,1613,2463
"Bacolor, Pampanga, Philippines",14.99692,120.65235,PLDT Home Fiber,160442,119001,160.44,119.00,8,6554,1994,2924
"San Rafael, Bulacan, Philippines",15.00184,120.93141,PLDT Home Fiber,135983,113045,135.98,113.05,7,6431,1797,2869
"Marikina, Metro Manila, Philippines",14.63493,121.10195,PLDT Home Fiber,194771,185076,194.77,185.08,3,6362,1805,2576
"Cabanatuan City, Nueva Ecija, Philippines",15.49943,121.01057,Globe,153040,125579,153.04,125.58,6,6282,1756,2542
"Makati City, Metro Manila, Philippines",14.55474,121.02444,Converge,170421,160084,170.42,160.08,5,6251,1750,2625
"Santa Cruz, Davao del Sur, Philippines",6.83551,125.41659,Converge,127284,137773,127.28,137.77,4,6175,1732,2604
"General Trias, Cavite, Philippines",14.38159,120.87915,PLDT Home Fiber,150913,125481,150.91,125.48,5,6089,1381,1854
"Baguio, Benguet, Philippines",16.41297,120.5914,Converge,97070,103847,97.07,103.85,4,6053,1553,2225
"Subic Bay Freeport Zone, Philippines",14.80319,120.30033,Converge,117143,128374,117.14,128.37,4,5986,1609,2389
"Iriga City, Camarines Sur, Philippines",13.42095,123.41361,Converge,101455,102970,101.46,102.97,4,5964,1437,2613
"Muntinlupa, Metro Manila, Philippines",14.39453,121.04483,PLDT Home Fiber,156476,118882,156.48,118.88,4,5941,1431,2014
"Claveria, Misamis Oriental, Philippines",8.62972,124.90655,Converge,132088,113807,132.09,113.81,9,5853,1701,2772
"Murcia, Negros Occidental, Philippines",10.60643,123.03944,Globe,162494,134156,162.49,134.16,9,5823,1745,2553
"Mandaluyong City, Metro Manila, Philippines",14.57627,121.03924,Converge,183556,171952,183.56,171.95,4,5812,1564,2416
"Los Baños, Laguna, Philippines",14.17731,121.22161,PLDT Home Fiber,133103,130374,133.10,130.37,7,5770,1702,2610
"Silang, Cavite, Philippines",14.22025,120.96469,PLDT Home Fiber,152388,151789,152.39,151.79,5,5731,1615,2548
"Caloocan, Metro Manila, Philippines",14.65136,120.99022,Globe,177214,154036,177.21,154.04,5,5651,1707,2445
"San Antonio, Nueva Ecija, Philippines",15.31921,120.82692,Globe,225399,209490,225.40,209.49,5,5651,1645,2598
"Bacolod, Negros Occidental, Philippines",10.66764,122.94556,Globe,116258,107276,116.26,107.28,8,5579,1411,1946
"Parañaque, Metro Manila, Philippines",14.47929,121.01985,Globe,168743,164810,168.74,164.81,4,5561,1464,2024
"La Paz, Tarlac, Philippines",15.4497,120.7235,Globe,94219,94444,94.22,94.44,5,5534,1470,2764
"Biñan, Laguna, Philippines",14.31456,121.08316,PLDT Home Fiber,112690,116230,112.69,116.23,8,5533,1475,2239
"Malabon, Metro Manila, Philippines",14.65793,120.95118,Converge,180537,169141,180.54,169.14,4,5459,1325,2178
"Antipolo City, 1870 Rizal, Philippines",14.58584,121.17569,PLDT,73280,75568,73.28,75.57,10,5370,1419,2090
"Butuan City, Agusan Del Norte, Philippines",8.94753,125.54063,Globe,120896,60993,120.90,60.99,12,5337,1482,2034
"San Juan City, Metro Manila, Philippines",14.60196,121.0355,PLDT Home Fiber,170391,162867,170.39,162.87,3,5276,1478,2073
"Naga City, Camarines Sur, Philippines",13.6475,123.27003,PLDT Home Fiber,119704,121724,119.70,121.72,7,5255,1257,1995
"Caloocan, Metro Manila, Philippines",14.65136,120.99022,Converge,200658,194435,200.66,194.44,4,5245,1137,1710
"Concepcion, Tarlac, Philippines",15.324,120.65596,Converge,104868,114233,104.87,114.23,3,5229,1550,2394
"Olongapo City, Zambales, Philippines",14.88739,120.36661,Converge,107353,109477,107.35,109.48,5,5204,1377,2171
"Caloocan, Metro Manila, Philippines",14.65136,120.99022,PLDT,93287,94063,93.29,94.06,3,5169,1327,2070
"Santa Ana, Pampanga, Philippines",15.09442,120.76623,Converge,151691,172304,151.69,172.30,4,5158,1452,2288
"Santa Maria, Bulacan, Philippines",14.82898,120.97616,Converge,181239,141004,181.24,141.00,7,5098,1358,2140
"Las Piñas, Metro Manila, Philippines",14.44934,120.98186,PLDT,93717,93904,93.72,93.90,6,5095,1124,1639
"Canlaon City, Negros Oriental, Philippines",10.36048,123.19137,PLDT Home Fiber,110888,140560,110.89,140.56,6,5089,1600,2428
"Cagayan De Oro City, Misamis Oriental, Philippines",8.48029,124.64975,Converge,120442,111333,120.44,111.33,8,5064,1239,1707
"San Pablo City, Laguna, Philippines",14.06422,121.32326,PLDT Home Fiber,135761,143396,135.76,143.40,6,5033,1201,1930
"Binangonan, Rizal, Philippines",14.48441,121.1869,PLDT,149740,161993,149.74,161.99,3,5016,1527,2553
"Batangas City, Batangas, Philippines",13.75641,121.05833,PLDT Home Fiber,127483,126728,127.48,126.73,8,4834,1203,1807
"San Carlos City, Negros Occidental, Philippines",10.48344,123.30371,PLDT Home Fiber,130813,162897,130.81,162.90,6,4808,1643,2447
"Kawit, Cavite, Philippines",14.44588,120.90871,PLDT Home Fiber,94264,94819,94.26,94.82,8,4804,1219,1863
"Itogon, Benguet, Philippines",16.36116,120.6787,PLDT,100602,98626,100.60,98.63,6,4803,1426,2279
"Iligan City, Lanao del Norte, Philippines",8.22707,124.46418,Converge,159241,160555,159.24,160.56,7,4662,1467,2120
"Tarlac City, Tarlac, Philippines",15.48808,120.58719,Globe,115776,104363,115.78,104.36,5,4575,1276,1927
"Itogon, Benguet, Philippines",16.36116,120.6787,PLDT Home Fiber,98529,97051,98.53,97.05,6,4570,1341,2172
"Calapan City, Oriental Mindoro, Philippines",13.36643,121.19395,Converge,98290,94639,98.29,94.64,11,4508,913,1601
"Bago, Negros Occidental, Philippines",10.53757,122.83609,PLDT Home Fiber,129225,145265,129.23,145.27,5,4506,1484,2129
"Danao, Cebu, Philippines",10.52013,124.02712,Globe,107789,100022,107.79,100.02,7,4503,1497,2353
"Iloilo City, Iloilo, Philippines",10.73019,122.55911,PLDT Home Fiber,107253,110432,107.25,110.43,10,4502,1104,1699
"Bamban, Tarlac, Philippines",15.2885,120.57044,Converge,138856,141355,138.86,141.36,3,4406,1342,2057
"Lucena City, Quezon, Philippines",13.94139,121.62345,PLDT Home Fiber,96377,105592,96.38,105.59,6,4399,1006,1582
"Butuan City, Agusan Del Norte, Philippines",8.94753,125.54063,PLDT Home Fiber,85051,91985,85.05,91.99,9,4311,877,1271
"Talakag, Bukidnon, Philippines",8.05293,124.72988,PLDT Home Fiber,98097,95519,98.10,95.52,5,4264,1276,1975
"Tanauan City, Batangas, Philippines",14.08354,121.14762,PLDT,103595,106237,103.60,106.24,8,4231,1203,1846
"Burgos, La Union, Philippines",16.53803,120.47033,Converge,97685,106665,97.69,106.67,4,4157,1187,1829
"Iloilo City, Iloilo, Philippines",10.73019,122.55911,Converge,107352,103822,107.35,103.82,13,3950,911,1438
"San Juan City, Metro Manila, Philippines",14.60196,121.0355,Converge,183925,173350,183.93,173.35,4,3919,1043,1706
"Mandaluyong City, Metro Manila, Philippines",14.57627,121.03924,PLDT Home Fiber,197403,196585,197.40,196.59,3,3907,1060,1409
"Calamba, Laguna, Philippines",14.19488,121.15974,PLDT,90360,93223,90.36,93.22,9,3877,1090,1564
"San Mateo, Rizal, Philippines",14.69539,121.11767,PLDT Home Fiber,178449,186772,178.45,186.77,4,3858,975,1379
"Lipa City, Batangas, Philippines",13.94047,121.19395,PLDT Home Fiber,158444,158772,158.44,158.77,7,3840,1066,1512
"New Lucena, Iloilo, Philippines",10.87841,122.59781,Converge,137664,111794,137.66,111.79,12,3688,989,1805
"Bacolod, Negros Occidental, Philippines",10.66764,122.94556,PLDT,84518,88780,84.52,88.78,9,3638,878,1220
"Bacoor, Cavite, Philippines",14.43122,120.96567,PLDT,89684,82543,89.68,82.54,8,3614,1019,1423
"Angeles, Pampanga, Philippines",15.16061,120.60908,PLDT Home Fiber,105579,107094,105.58,107.09,9,3589,803,1120
"Taytay, Rizal, Philippines",14.55288,121.12571,Converge,217130,224202,217.13,224.20,3,3523,926,1436
"Manila, Metro Manila, Philippines",14.59951,120.98423,Globe,190345,171170,190.35,171.17,5,3471,872,1219
"Malabon, Metro Manila, Philippines",14.65793,120.95118,PLDT,82716,82476,82.72,82.48,7,3423,1011,1433
"Marilao, Bulacan, Philippines",14.77237,120.96001,PLDT Home Fiber,97518,96917,97.52,96.92,10,3329,805,1141
"Arayat, Pampanga, Philippines",15.15443,120.771,Converge,121568,154053,121.57,154.05,4,3284,998,1589
"Malolos, Bulacan, Philippines",14.86049,120.80916,PLDT Home Fiber,134001,124901,134.00,124.90,7,3279,877,1313
"Magalang, Pampanga, Philippines",15.21394,120.66181,Converge,125657,129385,125.66,129.39,3,3264,883,1393
"Navotas, Metro Manila, Philippines",14.65819,120.94743,Globe,174107,152004,174.11,152.00,5,3214,1013,1478
"Rosario, Cavite, Philippines",14.41672,120.85471,Converge,177895,162656,177.90,162.66,6,3151,717,1121
"Iloilo City, Iloilo, Philippines",10.73019,122.55911,PLDT,79069,84754,79.07,84.75,12,3141,809,1148
"Bacoor, Cavite, Philippines",14.43122,120.96567,Converge,185892,156971,185.89,156.97,6,3108,850,1350
"Bacolod, Negros Occidental, Philippines",10.66764,122.94556,Converge,133938,121075,133.94,121.08,14,3048,820,1194
"Kawit, Cavite, Philippines",14.44588,120.90871,Globe,157836,139310,157.84,139.31,6,3031,787,1186
"Valenzuela, Metro Manila, Philippines",14.69247,120.96991,PLDT,78273,90327,78.27,90.33,9,2931,754,1064
"Cardona, Rizal, Philippines",14.48493,121.232,PLDT,163351,155604,163.35,155.60,3,2924,901,1488
"City of Santa Rosa, Laguna, Philippines",14.31471,121.11232,PLDT Home Fiber,132145,121055,132.15,121.06,7,2923,601,821
"Murcia, Negros Occidental, Philippines",10.60643,123.03944,PLDT Home Fiber,133629,140755,133.63,140.76,6,2897,885,1340
"San Pedro, Laguna, Philippines",14.36443,121.06192,Converge,158350,152571,158.35,152.57,7,2879,579,995
"Balamban, Cebu, Philippines",10.48585,123.77412,Globe,213739,183631,213.74,183.63,7,2831,863,1265
"Baliwag, Bulacan, Philippines",14.96569,120.89431,PLDT Home Fiber,129059,114121,129.06,114.12,7,2804,767,1136
"Bago, Negros Occidental, Philippines",10.53757,122.83609,Globe,99622,94860,99.62,94.86,4,2771,911,1300
"Taytay, Rizal, Philippines",14.55288,121.12571,PLDT,68363,74484,68.36,74.48,8,2757,830,1235
"Mabalacat City, Pampanga, Philippines",15.24525,120.56567,Converge,101427,118096,101.43,118.10,3,2755,633,844
"Las Piñas, Metro Manila, Philippines",14.44934,120.98186,Globe,235362,182346,235.36,182.35,5,2727,606,780
"City of Santa Rosa, Laguna, Philippines",14.31471,121.11232,PLDT,94610,96148,94.61,96.15,8,2717,787,1133
"Cainta, Rizal, Philippines",14.58056,121.11565,Globe,224045,203786,224.05,203.79,5,2691,718,949
"Valenzuela, Metro Manila, Philippines",14.69247,120.96991,Globe,206416,183097,206.42,183.10,5,2678,543,676
"Mandaluyong City, Metro Manila, Philippines",14.57627,121.03924,PLDT,59381,44477,59.38,44.48,10,2652,817,1186
"Urdaneta City, Pangasinan, Philippines",15.98194,120.59698,Converge,97885,107604,97.89,107.60,5,2622,746,1232
"Subic, Zambales, Philippines",14.83066,120.18202,Converge,103900,107962,103.90,107.96,5,2592,771,1229
"Zamboanga City, Zamboanga del Sur, Philippines",6.90437,122.07612,PLDT Home Fiber,106983,78540,106.98,78.54,10,2537,483,641
"Meycauayan, Bulacan, Philippines",14.73772,120.96077,PLDT Home Fiber,98733,101666,98.73,101.67,9,2534,635,941
"Tarlac City, Tarlac, Philippines",15.48808,120.58719,PLDT Home Fiber,97129,95393,97.13,95.39,10,2532,633,983
"Magpet, Cotabato, Philippines",7.1332,125.17087,Globe,63237,93087,63.24,93.09,6,2531,874,1325
"Santo Domingo, Nueva Ecija, Philippines",15.61284,120.88434,Globe,179061,161214,179.06,161.21,6,2530,706,1029
"Dagupan City, Pangasinan, Philippines",16.03375,120.33202,PLDT Home Fiber,101397,108430,101.40,108.43,6,2530,664,1019
"Santa Barbara, Pangasinan, Philippines",15.9774,120.42424,Converge,97936,108109,97.94,108.11,5,2519,697,1146
"Cainta, Rizal, Philippines",14.58056,121.11565,PLDT,86227,91759,86.23,91.76,5,2469,795,1154
"Sariaya, Quezon, Philippines",13.96301,121.52388,Converge,193484,195946,193.48,195.95,5,2424,757,1233
"Batangas City, Batangas, Philippines",13.75641,121.05833,PLDT,94182,100545,94.18,100.55,8,2407,709,1060
"Bacoor, Cavite, Philippines",14.43122,120.96567,Globe,210283,190290,210.28,190.29,6,2386,602,774
"Marikina, Metro Manila, Philippines",14.63493,121.10195,Globe,127141,120507,127.14,120.51,5,2356,707,1018
"San Pedro, Laguna, Philippines",14.36443,121.06192,PLDT Home Fiber,150987,133217,150.99,133.22,5,2349,609,822
"Muntinlupa, Metro Manila, Philippines",14.39453,121.04483,Converge,175556,167532,175.56,167.53,4,2332,594,766
"Bustos, Bulacan, Philippines",14.95239,120.91735,PLDT Home Fiber,148831,124019,148.83,124.02,7,2288,714,1082
"Nabua, Camarines Sur, Philippines",13.4069,123.37324,Converge,103735,104895,103.74,104.90,4,2248,545,1007
"Calamba, Laguna, Philippines",14.19488,121.15974,Globe,180252,162475,180.25,162.48,5,2228,663,936
"Danao, Cebu, Philippines",10.52013,124.02712,PLDT Home Fiber,139969,163723,139.97,163.72,5,2223,692,1009
"Pitogo, Quezon, Philippines",13.80951,122.10647,Converge,97870,94767,97.87,94.77,10,2219,475,752
"Imus, Cavite, Philippines",14.42764,120.93724,Globe,276035,244791,276.04,244.79,6,2191,659,960
"Kidapawan, Cotabato, Philippines",7.02127,125.09019,Globe,61904,93622,61.90,93.62,5,2190,715,1059
"Rodriguez, Rizal, Philippines",14.73202,121.14516,PLDT Home Fiber,132341,141003,132.34,141.00,4,2167,503,682
"Dasmariñas, Cavite, Philippines",14.33385,120.95423,Converge,196811,171116,196.81,171.12,6,2152,678,1068
"San Nicolas, Pangasinan, Philippines",16.12066,120.78097,PLDT,94929,96646,94.93,96.65,6,2141,757,1170
"Bansalan, Davao del Sur, Philippines",6.84825,125.22584,PLDT Home Fiber,111299,101509,111.30,101.51,9,2138,662,1019
"Biñan, Laguna, Philippines",14.31456,121.08316,PLDT,94333,95060,94.33,95.06,7,2134,648,848
"City of Tayabas, Quezon, Philippines",14.01135,121.55983,PLDT Home Fiber,137259,133234,137.26,133.23,7,2125,587,953
"Malolos, Bulacan, Philippines",14.86049,120.80916,PLDT,93435,94348,93.44,94.35,8,2114,490,711
"Antipolo City, 1870 Rizal, Philippines",14.58584,121.17569,Globe,200531,194422,200.53,194.42,5,2086,534,701
"Cabuyao City, Laguna, Philippines",14.27433,121.11961,PLDT Home Fiber,147667,130266,147.67,130.27,7,2077,520,741
"Candelaria, Quezon, Philippines",13.94899,121.42276,PLDT Home Fiber,91584,94542,91.58,94.54,7,2063,495,836
"Arayat, Pampanga, Philippines",15.15443,120.771,PLDT Home Fiber,94352,94629,94.35,94.63,9,2059,587,871
"Candaba, Pampanga, Philippines",15.09289,120.8277,PLDT Home Fiber,94549,96672,94.55,96.67,7,2048,645,988
"Las Piñas, Metro Manila, Philippines",14.44934,120.98186,Converge,180986,171067,180.99,171.07,4,2030,502,733
"Santo Tomas, Batangas, Philippines",14.08754,121.17764,PLDT Home Fiber,135398,140797,135.40,140.80,10,2024,479,657
"Baguio, Benguet, Philippines",16.41297,120.5914,PLDT,89902,92188,89.90,92.19,5,2017,552,817
"General Santos City (Dadiangas), South Cotabato, Philippines",6.14327,125.19286,PLDT Home Fiber,93294,85940,93.29,85.94,10,2016,465,601
"Bulakan, Bulacan, Philippines",14.79484,120.87889,PLDT Home Fiber,142019,117899,142.02,117.90,6,1986,512,841
"Zamboanga City, Zamboanga del Sur, Philippines",6.90437,122.07612,Globe,115789,57766,115.79,57.77,14,1971,261,355
"Matalam, Cotabato, Philippines",7.17236,124.92861,PLDT Home Fiber,152915,97300,152.92,97.30,8,1965,639,944
"Nagcarlan, Laguna, Philippines",14.14903,121.38847,PLDT Home Fiber,184415,189317,184.42,189.32,9,1964,505,815
"General Trias, Cavite, Philippines",14.38159,120.87915,Globe,121855,108873,121.86,108.87,6,1943,551,750
"Talavera, Nueva Ecija, Philippines",15.58575,120.9197,Converge,120527,109073,120.53,109.07,5,1920,476,857
"SJDM, Bulacan, Philippines",14.82867,121.04324,PLDT Home Fiber,145577,142619,145.58,142.62,6,1907,451,637
"Pasay City, Metro Manila, Philippines",14.53767,121.00081,Converge,198832,201405,198.83,201.41,4,1907,549,764
"Binangonan, Rizal, Philippines",14.48441,121.1869,PLDT Home Fiber,180398,194968,180.40,194.97,4,1907,547,826
"Marikina, Metro Manila, Philippines",14.63493,121.10195,PLDT,87421,87994,87.42,87.99,9,1866,564,804
"Santa Maria, Bulacan, Philippines",14.82898,120.97616,PLDT Home Fiber,122817,122797,122.82,122.80,8,1864,484,709
"San Nicolas, Pangasinan, Philippines",16.12066,120.78097,PLDT Home Fiber,104872,105761,104.87,105.76,7,1853,494,787
"Cadiz City, Negros Occidental, Philippines",10.86192,123.23632,PLDT Home Fiber,75931,81125,75.93,81.13,7,1844,486,730
"Marilao, Bulacan, Philippines",14.77237,120.96001,Converge,161893,140474,161.89,140.47,8,1843,375,492
"Cainta, Rizal, Philippines",14.58056,121.11565,Converge,199430,194543,199.43,194.54,3,1840,495,669
"Dasmariñas, Cavite, Philippines",14.33385,120.95423,PLDT,68048,75048,68.05,75.05,11,1836,484,718
"SJDM, Bulacan, Philippines",14.82867,121.04324,PLDT,81113,76359,81.11,76.36,7,1832,427,617
"Lipa City, Batangas, Philippines",13.94047,121.19395,Globe,137897,124219,137.90,124.22,7,1808,543,803
"Tarlac City, Tarlac, Philippines",15.48808,120.58719,PLDT,89578,94180,89.58,94.18,10,1806,477,684
"Mandaue, Cebu, Philippines",10.3279,123.94273,Globe,119773,116504,119.77,116.50,5,1800,316,405
"Koronadal, South Cotabato, Philippines",6.50044,124.84333,PLDT Home Fiber,74165,78683,74.17,78.68,10,1800,411,580
"San Luis, Pampanga, Philippines",15.03986,120.81544,Converge,130799,149471,130.80,149.47,4,1799,596,881
"General Mamerto Natividad, Nueva Ecija, Philippines",15.58788,121.04498,Converge,141749,137343,141.75,137.34,6,1795,482,859
"Bokod, Benguet, Philippines",16.45641,120.78097,PLDT,97531,97105,97.53,97.11,6,1775,600,923
"Lucban, Quezon, Philippines",14.1144,121.55472,PLDT Home Fiber,167520,177856,167.52,177.86,8,1732,476,766
"Lapu-Lapu, Cebu, Philippines",10.31838,123.96395,Globe,182443,167298,182.44,167.30,5,1732,351,443
"Marilao, Bulacan, Philippines",14.77237,120.96001,PLDT,69521,82575,69.52,82.58,10,1719,507,750
"Silang, Cavite, Philippines",14.22025,120.96469,Globe,99593,94131,99.59,94.13,6,1715,447,733
"Lapu-Lapu, Cebu, Philippines",10.31838,123.96395,Converge,143702,171942,143.70,171.94,3,1712,408,598
"Santa Fe, Nueva Vizcaya, Philippines",16.18249,120.91878,PLDT Home Fiber,133418,112263,133.42,112.26,6,1707,460,741
"Orani, Bataan, Philippines",14.80086,120.53616,Converge,96790,97430,96.79,97.43,5,1706,423,668
"San Pedro, Laguna, Philippines",14.36443,121.06192,PLDT,121650,100407,121.65,100.41,7,1700,426,578
"Cabiao, Nueva Ecija, Philippines",15.25221,120.85957,PLDT Home Fiber,97277,95014,97.28,95.01,10,1700,506,800
"Tuguegarao City, Cagayan, Philippines",17.60306,121.75374,Converge,75583,69227,75.58,69.23,12,1687,272,382
"San Antonio, Nueva Ecija, Philippines",15.31921,120.82692,PLDT Home Fiber,96289,101695,96.29,101.70,11,1674,483,817
"Tagaytay City, Cavite, Philippines",14.11541,120.96202,Converge,128135,105506,128.14,105.51,6,1664,509,816
"San Fernando, Pampanga, Philippines",15.02781,120.69349,PLDT,77113,80400,77.11,80.40,12,1660,491,703
"Cabanatuan City, Nueva Ecija, Philippines",15.49943,121.01057,PLDT Home Fiber,114714,109354,114.71,109.35,10,1650,398,561
"Jamindan, Capiz, Philippines",11.39423,122.42407,Converge,146160,145845,146.16,145.85,14,1649,374,754
"Atok, Benguet, Philippines",16.59745,120.68901,PLDT Home Fiber,94327,94697,94.33,94.70,6,1629,498,794
"Arakan, Cotabato, Philippines",7.35122,125.17087,PLDT,92842,94036,92.84,94.04,8,1628,524,775
"Cabiao, Nueva Ecija, Philippines",15.25221,120.85957,Globe,194202,151174,194.20,151.17,6,1614,338,497
"Angeles, Pampanga, Philippines",15.16061,120.60908,PLDT,64791,71814,64.79,71.81,10,1586,513,799
"Manaoag, Pangasinan, Philippines",16.04627,120.4876,Converge,96837,106538,96.84,106.54,5,1579,479,780
"Mauban, Quezon, Philippines",14.23756,121.69674,Converge,125186,133599,125.19,133.60,11,1570,382,642
"Malaybalay City, Bukidnon, Philippines",8.15775,125.17087,PLDT Home Fiber,94091,94007,94.09,94.01,9,1558,436,608
"Mexico, Pampanga, Philippines",15.06457,120.72033,PLDT Home Fiber,106462,96796,106.46,96.80,8,1542,472,698
"Kayapa, Nueva Vizcaya, Philippines",16.49326,120.94174,PLDT Home Fiber,120971,109840,120.97,109.84,6,1532,489,786
"Subic Bay Freeport Zone, Philippines",14.80319,120.30033,PLDT,76200,67942,76.20,67.94,12,1527,355,560
"Mandaue, Cebu, Philippines",10.3279,123.94273,PLDT Home Fiber,181590,183710,181.59,183.71,3,1499,425,569
"Barili, Cebu, Philippines",10.1254,123.55041,PLDT Home Fiber,98608,144417,98.61,144.42,9,1498,451,677
"Lapu-Lapu, Cebu, Philippines",10.31838,123.96395,PLDT Home Fiber,139177,168954,139.18,168.95,3,1487,380,490
"Lipa City, Batangas, Philippines",13.94047,121.19395,PLDT,91308,99086,91.31,99.09,9,1485,373,502
"Bulakan, Bulacan, Philippines",14.79484,120.87889,PLDT,93597,93959,93.60,93.96,5,1479,420,713
"Candaba, Pampanga, Philippines",15.09289,120.8277,Globe,166974,154845,166.97,154.85,7,1458,370,572
"Panglao, Bohol, Philippines",9.56947,123.78721,Converge,62284,59799,62.28,59.80,28,1451,124,180
"Alicia, Isabela, Philippines",16.80691,121.69674,Converge,99136,109033,99.14,109.03,8,1423,371,614
"Carmen, Cebu, Philippines",10.58876,123.96385,PLDT Home Fiber,134948,152876,134.95,152.88,5,1395,439,677
"Baguio, Benguet, Philippines",16.41297,120.5914,Globe,138649,121836,138.65,121.84,6,1390,268,377
"Kawit, Cavite, Philippines",14.44588,120.90871,Converge,199813,220582,199.81,220.58,6,1389,411,627
"Silay, Negros Occidental, Philippines",10.79968,122.97605,PLDT,66579,79867,66.58,79.87,20,1388,326,496
"Tanza, Cavite, Philippines",14.34293,120.85032,PLDT Home Fiber,158040,148529,158.04,148.53,4,1382,392,510
"Sariaya, Quezon, Philippines",13.96301,121.52388,PLDT Home Fiber,94285,110847,94.29,110.85,6,1380,361,544
"Kibungan, Benguet, Philippines",16.68162,120.68901,PLDT Home Fiber,100555,94635,100.56,94.64,6,1355,460,699
"Catmon, Cebu, Philippines",10.65242,123.9973,PLDT Home Fiber,126705,167493,126.71,167.49,5,1336,429,620
"General Santos City (Dadiangas), South Cotabato, Philippines",6.14327,125.19286,Globe,116445,123265,116.45,123.27,15,1327,219,287
"Lucena City, Quezon, Philippines",13.94139,121.62345,Converge,145349,138821,145.35,138.82,10,1320,260,394
"Umingan, Pangasinan, Philippines",15.90396,120.82692,Globe,61331,53455,61.33,53.46,6,1312,364,729
"Mandaue, Cebu, Philippines",10.3279,123.94273,Converge,166138,172763,166.14,172.76,3,1309,321,503
"Asturias, Cebu, Philippines",10.60209,123.77412,Globe,128183,107209,128.18,107.21,7,1302,433,650
"Mambajao, Camiguin, Philippines",9.22153,124.71882,PLDT Home Fiber,60537,87767,60.54,87.77,15,1300,130,177
"Victoria, Tarlac, Philippines",15.59077,120.68901,Globe,61460,53778,61.46,53.78,5,1294,328,741
"Concepcion, Tarlac, Philippines",15.324,120.65596,PLDT Home Fiber,106409,94589,106.41,94.59,11,1278,288,447
"Matanao, Davao del Sur, Philippines",6.70421,125.22584,PLDT Home Fiber,110134,96712,110.13,96.71,9,1262,379,533
"Trece Martires City, Cavite, Philippines",14.28222,120.86837,PLDT Home Fiber,139168,161045,139.17,161.05,5,1262,276,345
"Dagupan City, Pangasinan, Philippines",16.03375,120.33202,Converge,98352,100174,98.35,100.17,5,1223,333,484
"City of Guihulngan, Negros Oriental, Philippines",10.18323,123.21385,PLDT Home Fiber,96186,114700,96.19,114.70,7,1200,364,548
"Guagua, Pampanga, Philippines",14.96374,120.63244,Converge,54416,52537,54.42,52.54,4,1199,286,512
"Cagayan De Oro City, Misamis Oriental, Philippines",8.48029,124.64975,PLDT,74395,67754,74.40,67.75,19,1195,354,538
"Lapu-Lapu, Cebu, Philippines",10.31838,123.96395,PLDT,103978,109987,103.98,109.99,3,1187,303,423
"Compostela, Cebu, Philippines",10.45408,124.013,Globe,63990,56608,63.99,56.61,6,1182,378,580
"Navotas, Metro Manila, Philippines",14.65819,120.94743,PLDT Home Fiber,146127,162227,146.13,162.23,4,1175,296,436
"San Ildefonso, Bulacan, Philippines",15.07717,120.94171,PLDT Home Fiber,95421,95357,95.42,95.36,8,1173,365,579
"Naga, Cebu, Philippines",10.20764,123.75821,Globe,130687,110952,130.69,110.95,17,1160,486,625
"Kawit, Cavite, Philippines",14.44588,120.90871,PLDT,67404,74865,67.40,74.87,13,1149,320,475
"Tuguegarao City, Cagayan, Philippines",17.60306,121.75374,PLDT,63660,74819,63.66,74.82,13,1144,298,437
"Bokod, Benguet, Philippines",16.45641,120.78097,PLDT Home Fiber,98283,99341,98.28,99.34,4,1137,359,565
"Muntinlupa, Metro Manila, Philippines",14.39453,121.04483,Globe,193734,191974,193.73,191.97,6,1121,278,372
"San Isidro, Nueva Ecija, Philippines",15.29656,120.9073,PLDT Home Fiber,115941,100089,115.94,100.09,11,1119,241,411
"Tagum, Davao del Norte, Philippines",7.44742,125.80246,PLDT Home Fiber,97483,103125,97.48,103.13,8,1118,318,437
"City of Santa Rosa, Laguna, Philippines",14.31471,121.11232,Globe,212277,189084,212.28,189.08,6,1111,319,441
"General Santos City (Dadiangas), South Cotabato, Philippines",6.14327,125.19286,PLDT,88796,87796,88.80,87.80,10,1108,301,409
"Tagum, Davao del Norte, Philippines",7.44742,125.80246,PLDT,91376,94655,91.38,94.66,13,1084,290,434
"Polomolok, South Cotabato, Philippines",6.22451,125.06084,PLDT Home Fiber,88141,88463,88.14,88.46,10,1072,349,514
"General Trias, Cavite, Philippines",14.38159,120.87915,PLDT,156246,144744,156.25,144.74,8,1068,243,320
"Angono, Rizal, Philippines",14.52592,121.15321,PLDT Home Fiber,179155,189234,179.16,189.23,4,1066,241,332
"Surallah, South Cotabato, Philippines",6.3195,124.75198,PLDT Home Fiber,57988,55289,57.99,55.29,11,1055,210,290
"San Manuel, Pangasinan, Philippines",16.10561,120.67751,PLDT Home Fiber,110218,119450,110.22,119.45,6,1051,305,503
"Escalante City, Negros Occidental, Philippines",10.84117,123.49908,Globe,18135,5387,18.14,5.39,37,1050,286,568
"Puerto Princesa City, Palawan, Philippines",9.78563,118.62648,PLDT Home Fiber,78591,95439,78.59,95.44,19,1046,231,314
"Liliw, Laguna, Philippines",14.12617,121.4399,PLDT Home Fiber,173982,170839,173.98,170.84,9,1033,297,493
"Pagadian City, Zamboanga del Sur, Philippines",7.86265,123.37106,PLDT Home Fiber,85243,91260,85.24,91.26,6,1024,163,222
"La Castellana, Negros Occidental, Philippines",10.33198,123.10141,PLDT Home Fiber,97053,117365,97.05,117.37,6,1024,307,439
"City of Santa Rosa, Laguna, Philippines",14.31471,121.11232,Converge,98333,108889,98.33,108.89,6,1023,217,344
"Cabanatuan City, Nueva Ecija, Philippines",15.49943,121.01057,PLDT,71240,80474,71.24,80.47,11,1020,217,329
"Tuburan, Cebu, Philippines",10.66879,123.86345,PLDT Home Fiber,103208,112237,103.21,112.24,5,1010,298,431
"Mabalacat City, Pampanga, Philippines",15.24525,120.56567,PLDT Home Fiber,126485,124475,126.49,124.48,7,1005,198,260
"Bocaue, Bulacan, Philippines",14.7943,120.93073,PLDT Home Fiber,93360,95487,93.36,95.49,10,1004,305,426
"San Quintin, Pangasinan, Philippines",15.9754,120.83841,Globe,60842,53137,60.84,53.14,6,1000,228,484
"Laoag City, Ilocos Norte, Philippines",18.21075,120.58547,Converge,121402,133448,121.40,133.45,10,987,284,453
"La Trinidad, Benguet, Philippines",16.44844,120.59047,PLDT Home Fiber,107791,110269,107.79,110.27,8,987,295,431
"Tuburan, Cebu, Philippines",10.66879,123.86345,Globe,140190,107288,140.19,107.29,9,982,320,456
"Carmona, Cavite, Philippines",14.3135,121.05712,PLDT,161200,190301,161.20,190.30,7,978,258,360
"Plaridel, Bulacan, Philippines",14.88591,120.85932,PLDT Home Fiber,139845,114602,139.85,114.60,7,976,282,434
"Silang, Cavite, Philippines",14.22025,120.96469,PLDT,110440,113247,110.44,113.25,8,974,297,445
"Malolos, Bulacan, Philippines",14.86049,120.80916,Converge,124177,129625,124.18,129.63,6,974,242,314
"Dumaguete City, Negros Oriental, Philippines",9.29841,123.29249,Globe,123050,110911,123.05,110.91,11,966,149,233
"Baungon, Bukidnon, Philippines",8.21754,124.75198,PLDT Home Fiber,94623,99607,94.62,99.61,5,963,335,503
"Concepcion, Tarlac, Philippines",15.324,120.65596,PLDT,51823,51635,51.82,51.64,10,960,239,349
"Toledo, Cebu, Philippines",10.38705,123.65017,Globe,137684,129581,137.68,129.58,16,959,306,424
"Lipa City, Batangas, Philippines",13.94047,121.19395,Converge,101861,110167,101.86,110.17,8,955,203,330
"Malvar, Batangas, Philippines",14.04329,121.15875,PLDT Home Fiber,86124,146114,86.12,146.11,10,941,219,299
"San Mateo, Rizal, Philippines",14.69539,121.11767,Converge,185699,192247,185.70,192.25,4,934,312,407
"Santa Ana, Pampanga, Philippines",15.09442,120.76623,PLDT Home Fiber,93146,94074,93.15,94.07,9,917,283,434
"Kabacan, Cotabato, Philippines",7.10719,124.84034,PLDT Home Fiber,77757,93482,77.76,93.48,11,916,197,262
"Indang, Cavite, Philippines",14.19204,120.87286,PLDT,89573,93521,89.57,93.52,8,913,241,356
"Palayan City, Nueva Ecija, Philippines",15.53906,121.09083,Converge,94902,94187,94.90,94.19,7,901,219,324
"Talisay, Cebu, Philippines",10.25859,123.82413,Converge,168508,166301,168.51,166.30,7,896,181,260
"Paombong, Bulacan, Philippines",14.83781,120.78406,PLDT Home Fiber,159446,152566,159.45,152.57,6,893,279,421
"Santo Nino, Cagayan, Philippines",17.91267,121.49132,Converge,96822,103440,96.82,103.44,12,891,222,388
"Legazpi City, Albay, Philippines",13.11288,123.76295,Converge,103772,111805,103.77,111.81,5,881,149,223
"Naga City, Camarines Sur, Philippines",13.6475,123.27003,PLDT,57494,62933,57.49,62.93,13,880,252,363
"Imus, Cavite, Philippines",14.42764,120.93724,PLDT,117490,126372,117.49,126.37,7,874,228,301
"Cabuyao City, Laguna, Philippines",14.27433,121.11961,PLDT,93502,98323,93.50,98.32,8,862,253,360
"Kayapa, Nueva Vizcaya, Philippines",16.49326,120.94174,PLDT,93636,94706,93.64,94.71,6,861,269,453
"Tagum, Davao del Norte, Philippines",7.44742,125.80246,Globe,122396,122417,122.40,122.42,5,858,149,192
"Mandaue, Cebu, Philippines",10.3279,123.94273,PLDT,72732,64722,72.73,64.72,4,852,256,356
"Sagay City, Negros Occidental, Philippines",10.84555,123.37106,PLDT Home Fiber,69469,90146,69.47,90.15,7,852,226,337
"Salvador Benedicto, Negros Occidental, Philippines",10.5887,123.23632,PLDT Home Fiber,143161,151602,143.16,151.60,7,850,293,448
"Navotas, Metro Manila, Philippines",14.65819,120.94743,Converge,191322,169694,191.32,169.69,5,850,239,345
"Guiguinto, Bulacan, Philippines",14.82832,120.88429,PLDT Home Fiber,159396,162590,159.40,162.59,9,845,239,328
"Calatrava, Negros Occidental, Philippines",10.62843,123.39349,PLDT,93022,99997,93.02,100.00,6,843,293,431
"Porac, Pampanga, Philippines",15.06974,120.55007,Converge,139566,136450,139.57,136.45,3,841,241,345
"Mabalacat City, Pampanga, Philippines",15.24525,120.56567,PLDT,92064,87968,92.06,87.97,10,841,249,359
"Consolacion, Cebu, Philippines",10.37581,123.95694,PLDT,114887,116452,114.89,116.45,3,839,175,229
"Talisay, Cebu, Philippines",10.25859,123.82413,PLDT,132015,139543,132.02,139.54,3,837,207,272
"Santa Rita, Pampanga, Philippines",14.99762,120.61451,PLDT Home Fiber,128574,103901,128.57,103.90,8,837,269,432
"Daet, Camarines Norte, Philippines",14.10303,122.9325,PLDT,107153,120570,107.15,120.57,8,832,158,214
"Porac, Pampanga, Philippines",15.06974,120.55007,PLDT Home Fiber,132762,115830,132.76,115.83,8,831,235,337
"Bay, Laguna, Philippines",14.14064,121.26836,PLDT Home Fiber,188577,179901,188.58,179.90,4,827,236,357
"Talisay, Cebu, Philippines",10.25859,123.82413,Globe,149689,135843,149.69,135.84,14,824,260,355
"San Pedro, Laguna, Philippines",14.36443,121.06192,Globe,196510,169108,196.51,169.11,8,806,228,312
"Escalante City, Negros Occidental, Philippines",10.84117,123.49908,PLDT Home Fiber,84161,90593,84.16,90.59,7,806,196,296
"Calumpit, Bulacan, Philippines",14.91518,120.7662,PLDT Home Fiber,144620,128892,144.62,128.89,8,803,211,294
"Plaridel, Bulacan, Philippines",14.88591,120.85932,Converge,147901,107508,147.90,107.51,7,803,175,248
"Silang, Cavite, Philippines",14.22025,120.96469,Converge,215141,183198,215.14,183.20,6,800,201,282
"Bakun, Benguet, Philippines",16.80796,120.68901,PLDT Home Fiber,92708,94049,92.71,94.05,5,796,214,347
"Guiguinto, Bulacan, Philippines",14.82832,120.88429,PLDT,93986,97950,93.99,97.95,7,791,225,355
"Tagaytay City, Cavite, Philippines",14.11541,120.96202,PLDT,123661,140847,123.66,140.85,8,785,217,332
"Roxas City, Capiz, Philippines",11.55288,122.74072,PLDT Home Fiber,89086,94164,89.09,94.16,9,782,142,184
"Malasiqui, Pangasinan, Philippines",15.92028,120.41443,PLDT Home Fiber,116841,155492,116.84,155.49,8,781,227,356
"San Jose, Batangas, Philippines",13.87868,121.09942,Globe,140971,135809,140.97,135.81,7,780,183,286
"Marilao, Bulacan, Philippines",14.77237,120.96001,Globe,226857,213550,226.86,213.55,8,778,183,232
"Daraga, Albay, Philippines",13.12278,123.69588,Converge,142838,105844,142.84,105.84,14,771,85,128
"Calauan, Laguna, Philippines",14.14551,121.3146,PLDT Home Fiber,154397,151565,154.40,151.57,8,769,166,243
"Meycauayan, Bulacan, Philippines",14.73772,120.96077,Converge,167056,157218,167.06,157.22,8,769,203,285
"Iligan City, Lanao del Norte, Philippines",8.22707,124.46418,PLDT,75088,77882,75.09,77.88,21,762,247,337
"Surigao, Surigao del Norte, Philippines",9.79022,125.49311,PLDT Home Fiber,85982,86984,85.98,86.98,11,760,127,163
"Talisay, Negros Occidental, Philippines",10.74828,122.98012,PLDT Home Fiber,93063,95945,93.06,95.95,9,754,215,326
"Dumaguete City, Negros Oriental, Philippines",9.29841,123.29249,PLDT,88382,95967,88.38,95.97,6,750,134,182
"Tacloban City, Leyte, Philippines",11.22238,124.99221,PLDT,93341,95219,93.34,95.22,6,746,241,326
"San Jose, Batangas, Philippines",13.87868,121.09942,PLDT Home Fiber,92384,94423,92.38,94.42,7,744,142,244
"Rodriguez, Rizal, Philippines",14.73202,121.14516,Converge,198274,197796,198.27,197.80,4,743,257,340
"Meycauayan, Bulacan, Philippines",14.73772,120.96077,PLDT,86189,93330,86.19,93.33,7,743,209,312
"Consolacion, Cebu, Philippines",10.37581,123.95694,Globe,150246,153705,150.25,153.71,5,735,189,245
"Santa Maria, Bulacan, Philippines",14.82898,120.97616,Globe,169206,155494,169.21,155.49,8,734,159,212
"Naga City, Camarines Sur, Philippines",13.6475,123.27003,Globe,121220,112028,121.22,112.03,12,734,163,215
"Dipolog City, Zamboanga del Norte, Philippines",8.58717,123.34035,PLDT Home Fiber,117511,107240,117.51,107.24,10,732,150,211
"Consolacion, Cebu, Philippines",10.37581,123.95694,Converge,140464,143134,140.46,143.13,3,731,129,172
"Gapan City, Nueva Ecija, Philippines",15.29121,121.01057,PLDT Home Fiber,90809,85282,90.81,85.28,12,730,166,266
"Sagay City, Negros Occidental, Philippines",10.84555,123.37106,PLDT,53400,67299,53.40,67.30,12,728,189,279
"Mambusao, Capiz, Philippines",11.44257,122.59383,Converge,104034,102898,104.03,102.90,15,725,201,370
"Balanga City, Bataan, Philippines",14.67454,120.47033,PLDT Home Fiber,139796,117675,139.80,117.68,7,721,184,253
"Cabuyao City, Laguna, Philippines",14.27433,121.11961,Converge,108323,107155,108.32,107.16,6,720,130,197
"Legazpi City, Albay, Philippines",13.11288,123.76295,PLDT,98127,119234,98.13,119.23,7,720,178,256
"Talisay, Cebu, Philippines",10.25859,123.82413,PLDT Home Fiber,149509,185387,149.51,185.39,3,714,182,249
"Pasay City, Metro Manila, Philippines",14.53767,121.00081,Globe,123234,117209,123.23,117.21,4,710,165,256
"Cardona, Rizal, Philippines",14.48493,121.232,PLDT Home Fiber,141325,146055,141.33,146.06,4,709,216,360
"Taytay, Rizal, Philippines",14.55288,121.12571,Globe,245313,210364,245.31,210.36,5,704,156,215
"Tanay, Rizal, Philippines",14.61419,121.37703,PLDT Home Fiber,121611,144886,121.61,144.89,5,703,79,116
"Pililla, Rizal, Philippines",14.44393,121.34273,PLDT,116626,136173,116.63,136.17,4,702,249,395
"Toboso, Negros Occidental, Philippines",10.71769,123.46077,Globe,16124,6042,16.12,6.04,36,702,176,369
"Naic, Cavite, Philippines",14.29649,120.79246,PLDT Home Fiber,104806,130769,104.81,130.77,7,699,143,180
"Liloan, Cebu, Philippines",10.39926,124.00002,PLDT Home Fiber,117610,161383,117.61,161.38,5,699,253,365
"Roxas City, Capiz, Philippines",11.55288,122.74072,Globe,107734,91319,107.73,91.32,12,696,100,125
"Rosario, Batangas, Philippines",13.80433,121.28552,Globe,132356,119986,132.36,119.99,7,696,222,353
"San Manuel, Pangasinan, Philippines",16.10561,120.67751,PLDT,91068,93524,91.07,93.52,7,695,200,328
"Tuguegarao City, Cagayan, Philippines",17.60306,121.75374,PLDT Home Fiber,89325,93841,89.33,93.84,12,694,182,250
"Magsaysay, Davao del Sur, Philippines",6.75271,125.15221,PLDT Home Fiber,107336,95751,107.34,95.75,9,693,206,331
"Vallehermoso, Negros Oriental, Philippines",10.33905,123.29249,PLDT Home Fiber,86598,93865,86.60,93.87,5,692,216,320
"Angono, Rizal, Philippines",14.52592,121.15321,Converge,258038,265048,258.04,265.05,3,688,233,330
"Legazpi City, Albay, Philippines",13.11288,123.76295,Globe,112124,105696,112.12,105.70,24,684,117,162
"Nunungan, Lanao del Norte, Philippines",7.83093,123.9304,PLDT Home Fiber,93054,92893,93.05,92.89,5,677,220,331
"Tanauan City, Batangas, Philippines",14.08354,121.14762,Globe,122678,106152,122.68,106.15,6,676,234,344
"Bambang, Nueva Vizcaya, Philippines",16.40415,121.10229,PLDT Home Fiber,98779,94130,98.78,94.13,8,674,127,200
"Lagawe, Ifugao, Philippines",16.80825,121.19395,PLDT Home Fiber,94491,97290,94.49,97.29,10,670,173,306
"Malabon, Metro Manila, Philippines",14.65793,120.95118,Globe,207755,209011,207.76,209.01,5,670,182,239
"Lobo, Batangas, Philippines",13.6877,121.23974,Globe,144584,137380,144.58,137.38,9,668,168,240
"Diadi, Nueva Vizcaya, Philippines",16.6595,121.33129,Converge,101585,109208,101.59,109.21,9,668,191,319
"Kapatagan, Lanao del Norte, Philippines",7.86776,123.72942,PLDT Home Fiber,80254,80113,80.25,80.11,8,665,48,71
"Rosario, Batangas, Philippines",13.80433,121.28552,PLDT Home Fiber,108438,103333,108.44,103.33,6,665,153,215
"Baras, Rizal, Philippines",14.53656,121.27408,PLDT Home Fiber,95575,95575,95.58,95.58,4,660,104,131
"Lubao, Pampanga, Philippines",14.92678,120.58795,PLDT Home Fiber,97224,94218,97.22,94.22,9,659,201,298
"Santo Tomas, Davao del Norte, Philippines",7.50929,125.63142,PLDT Home Fiber,77536,73681,77.54,73.68,9,653,103,131
"Bayombong, Nueva Vizcaya, Philippines",16.48042,121.14813,Converge,97531,108945,97.53,108.95,8,652,150,241
"President Roxas, Cotabato, Philippines",7.37928,125.06084,PLDT Home Fiber,129317,103167,129.32,103.17,8,651,222,332
"Ormoc City, Leyte, Philippines",11.03843,124.61927,Globe,119308,112820,119.31,112.82,20,651,114,156
"Trece Martires City, Cavite, Philippines",14.28222,120.86837,Converge,194244,184226,194.24,184.23,6,651,182,226
"Kidapawan, Cotabato, Philippines",7.02127,125.09019,PLDT Home Fiber,100775,96360,100.78,96.36,10,650,211,284
"San Fernando City, La Union, Philippines",16.61592,120.32102,PLDT Home Fiber,145458,135983,145.46,135.98,3,648,144,197
"Daet, Camarines Norte, Philippines",14.10303,122.9325,Converge,107400,92696,107.40,92.70,6,645,103,162
"Magalang, Pampanga, Philippines",15.21394,120.66181,PLDT Home Fiber,94537,94389,94.54,94.39,10,641,197,324
"Taysan, Batangas, Philippines",13.76108,121.2283,Globe,125723,109505,125.72,109.51,7,640,232,332
"San Jose City, Nueva Ecija, Philippines",15.79188,120.99008,PLDT Home Fiber,95348,85498,95.35,85.50,12,636,107,158
"SJDM, Bulacan, Philippines",14.82867,121.04324,Globe,158798,159700,158.80,159.70,8,634,160,224
"San Miguel, Bulacan, Philippines",15.14158,120.9751,PLDT Home Fiber,101739,96754,101.74,96.75,9,631,187,293
"Mangaldan, Pangasinan, Philippines",16.06513,120.40474,PLDT Home Fiber,89830,123194,89.83,123.19,8,630,145,207
"Calabanga, Camarines Sur, Philippines",13.71633,123.28126,PLDT Home Fiber,102885,123206,102.89,123.21,7,629,67,86
"Santiago, Ilocos Sur, Philippines",17.28073,120.44729,Converge,102678,120338,102.68,120.34,9,628,138,252
"Santa Rosa, Nueva Ecija, Philippines",15.42502,120.93838,PLDT Home Fiber,91448,88431,91.45,88.43,10,627,164,257
"Villareal, Samar, Philippines",11.53963,124.92861,Converge,29244,26628,29.24,26.63,7,627,12,13
"Burauen, Leyte, Philippines",10.97109,124.84034,PLDT,65610,84073,65.61,84.07,18,624,145,198
"Santa Fe, Nueva Vizcaya, Philippines",16.18249,120.91878,PLDT,89169,91167,89.17,91.17,7,624,175,274
"Dolores, Quezon, Philippines",14.00193,121.41133,PLDT Home Fiber,92722,96206,92.72,96.21,8,622,182,258
"Naic, Cavite, Philippines",14.29649,120.79246,PLDT,104094,110985,104.09,110.99,8,620,212,281
"Tubod, Lanao del Norte, Philippines",7.99427,123.87462,PLDT Home Fiber,108456,94616,108.46,94.62,5,619,137,174
"Pandi, Bulacan, Philippines",14.87572,120.95941,PLDT,87846,91667,87.85,91.67,8,618,194,261
"Natividad, Pangasinan, Philippines",16.03821,120.83841,PLDT Home Fiber,142408,100746,142.41,100.75,6,618,198,314
"Cotabato City, Maguindanao, Philippines",7.20467,124.23104,PLDT Home Fiber,95445,97997,95.45,98.00,12,617,145,207
"San Pablo City, Laguna, Philippines",14.06422,121.32326,PLDT,88099,89742,88.10,89.74,5,617,145,210
"Obando, Bulacan, Philippines",14.70986,120.93674,PLDT Home Fiber,153067,159271,153.07,159.27,4,616,95,127
"Mayoyao, Ifugao, Philippines",16.95131,121.21685,PLDT Home Fiber,90133,94286,90.13,94.29,11,616,182,293
"Dumaguete City, Negros Oriental, Philippines",9.29841,123.29249,PLDT Home Fiber,107910,128199,107.91,128.20,5,605,126,168
"Mariveles, Bataan, Philippines",14.4354,120.49003,Converge,95462,115610,95.46,115.61,9,603,114,165
"San Ildefonso, Bulacan, Philippines",15.07717,120.94171,Converge,145471,131709,145.47,131.71,7,602,65,88
"Iligan City, Lanao del Norte, Philippines",8.22707,124.46418,Globe,124751,43030,124.75,43.03,15,602,134,181
"Naic, Cavite, Philippines",14.29649,120.79246,Converge,196915,189668,196.92,189.67,6,602,99,150
"San Nicolas, Ilocos Norte, Philippines",18.14708,120.58547,Converge,99742,109127,99.74,109.13,11,601,160,243
"Toledo, Cebu, Philippines",10.38705,123.65017,PLDT,46787,40466,46.79,40.47,12,600,82,114
"Banga, South Cotabato, Philippines",6.38791,124.79617,PLDT Home Fiber,78387,68814,78.39,68.81,11,600,164,246
"Ligao City, Albay, Philippines",13.17242,123.4944,Converge,75279,85620,75.28,85.62,17,599,131,197
"Bayombong, Nueva Vizcaya, Philippines",16.48042,121.14813,PLDT Home Fiber,87937,84919,87.94,84.92,7,595,149,208
"Pinamungahan, Cebu, Philippines",10.26958,123.63996,Globe,213748,158134,213.75,158.13,16,591,247,330
"Santiago, Isabela, Philippines",16.69679,121.55865,PLDT Home Fiber,85458,68379,85.46,68.38,14,590,126,197
"Guagua, Pampanga, Philippines",14.96374,120.63244,PLDT Home Fiber,129968,130350,129.97,130.35,8,589,162,228
"Zamboanga City, Zamboanga del Sur, Philippines",6.90437,122.07612,Converge,88184,93685,88.18,93.69,20,589,142,177
"Obando, Bulacan, Philippines",14.70986,120.93674,PLDT,93236,94090,93.24,94.09,5,583,187,319
"Puerto Princesa City, Palawan, Philippines",9.78563,118.62648,PLDT,65316,83020,65.32,83.02,20,583,162,219
"Navotas, Metro Manila, Philippines",14.65819,120.94743,PLDT,91100,93761,91.10,93.76,5,582,222,314
"Butuan City, Agusan Del Norte, Philippines",8.94753,125.54063,PLDT,59692,58217,59.69,58.22,16,582,129,206
"Liloan, Cebu, Philippines",10.39926,124.00002,Globe,142404,161659,142.40,161.66,4,581,136,177
"Digos, Davao del Sur, Philippines",6.74347,125.35515,PLDT Home Fiber,95670,94696,95.67,94.70,8,578,181,265
"Angeles, Pampanga, Philippines",15.16061,120.60908,Globe,124582,108625,124.58,108.63,5,574,143,199
"Gapan City, Nueva Ecija, Philippines",15.29121,121.01057,Converge,197056,164413,197.06,164.41,8,574,145,196
"Calapan City, Oriental Mindoro, Philippines",13.36643,121.19395,PLDT,85370,84686,85.37,84.69,13,570,190,253
"Mariveles, Bataan, Philippines",14.4354,120.49003,PLDT Home Fiber,83051,76230,83.05,76.23,9,569,117,144
"Baliwag, Bulacan, Philippines",14.96569,120.89431,PLDT,77875,49219,77.88,49.22,9,569,115,169
"Meycauayan, Bulacan, Philippines",14.73772,120.96077,Globe,152667,150170,152.67,150.17,8,566,170,220
"Sorsogon City, Sorsogon, Philippines",12.97888,123.98477,PLDT,106169,129323,106.17,129.32,12,565,119,164
"San Ildefonso, Bulacan, Philippines",15.07717,120.94171,Globe,187550,165862,187.55,165.86,7,565,195,281
"Tagbilaran City, Bohol, Philippines",9.6534,123.86703,PLDT Home Fiber,86389,104522,86.39,104.52,8,564,151,214
"Goa, Camarines Sur, Philippines",13.73619,123.41593,PLDT Home Fiber,58438,62915,58.44,62.92,9,564,101,139
"Biñan, Laguna, Philippines",14.31456,121.08316,Globe,126297,114806,126.30,114.81,7,554,150,203
"Pinamalayan, Oriental Mindoro, Philippines",13.01533,121.37703,PLDT Home Fiber,104060,119187,104.06,119.19,6,550,71,115
"Candelaria, Quezon, Philippines",13.94899,121.42276,PLDT,81780,88857,81.78,88.86,9,548,168,221
"Kapangan, Benguet, Philippines",16.61238,120.59698,PLDT Home Fiber,94105,94663,94.11,94.66,7,548,152,264
"Liloan, Cebu, Philippines",10.39926,124.00002,Converge,138901,174444,138.90,174.44,3,548,108,135
"Bustos, Bulacan, Philippines",14.95239,120.91735,PLDT,83330,72352,83.33,72.35,11,548,105,158
"San Leonardo, Nueva Ecija, Philippines",15.37285,120.95321,PLDT Home Fiber,87528,85764,87.53,85.76,11,546,131,204
"San Juan, Batangas, Philippines",13.75044,121.37703,PLDT Home Fiber,118105,128172,118.11,128.17,9,546,149,234
"San Simon, Pampanga, Philippines",14.98432,120.75127,PLDT Home Fiber,93732,94311,93.73,94.31,7,544,176,268
"Digos, Davao del Sur, Philippines",6.74347,125.35515,Globe,116837,111221,116.84,111.22,4,544,85,118
"Tanza, Cavite, Philippines",14.34293,120.85032,Globe,156712,153807,156.71,153.81,7,543,161,209
"Biñan, Laguna, Philippines",14.31456,121.08316,Converge,174281,170545,174.28,170.55,6,542,146,230
"Jaen, Nueva Ecija, Philippines",15.39558,120.87286,PLDT,48066,52967,48.07,52.97,20,537,167,265
"San Simon, Pampanga, Philippines",14.98432,120.75127,Converge,103578,82106,103.58,82.11,4,537,25,38
"Balamban, Cebu, Philippines",10.48585,123.77412,PLDT,86438,81904,86.44,81.90,8,537,121,165
"Binmaley, Pangasinan, Philippines",16.02892,120.26882,PLDT,63879,55581,63.88,55.58,15,536,102,151
"Angono, Rizal, Philippines",14.52592,121.15321,PLDT,96256,105632,96.26,105.63,3,533,171,261
"Candon City, Ilocos Sur, Philippines",17.19612,120.44729,Converge,94113,106214,94.11,106.21,11,532,128,198
"Taal, Batangas, Philippines",13.87826,120.92508,Globe,252253,252395,252.25,252.40,6,532,149,235
"Danao, Cebu, Philippines",10.52013,124.02712,PLDT,55942,71246,55.94,71.25,7,529,119,162
"Cotabato City, Maguindanao, Philippines",7.20467,124.23104,PLDT,92175,93712,92.18,93.71,13,527,139,196
"Trece Martires City, Cavite, Philippines",14.28222,120.86837,Globe,155320,131488,155.32,131.49,6,527,129,168
"Rodriguez, Rizal, Philippines",14.73202,121.14516,Globe,161513,126637,161.51,126.64,4,527,102,136
"Capas, Tarlac, Philippines",15.34633,120.59344,PLDT,75276,86460,75.28,86.46,7,523,90,138
"Valencia City, Bukidnon, Philippines",7.86319,125.17087,PLDT Home Fiber,98002,94261,98.00,94.26,6,522,133,194
"Virac, Catanduanes, Philippines",13.61939,124.17544,PLDT Home Fiber,75109,74374,75.11,74.37,9,522,122,179
"Bongabong, Oriental Mindoro, Philippines",12.71953,121.30841,PLDT,91968,89355,91.97,89.36,9,521,24,37
"Carmona, Cavite, Philippines",14.3135,121.05712,Converge,129466,166858,129.47,166.86,7,519,121,203
"Pagadian City, Zamboanga del Sur, Philippines",7.86265,123.37106,PLDT,72693,73992,72.69,73.99,14,519,150,225
"Palo, Leyte, Philippines",11.15847,124.99191,PLDT,77619,83157,77.62,83.16,21,519,151,217
"La Paz, Tarlac, Philippines",15.4497,120.7235,PLDT Home Fiber,113666,94196,113.67,94.20,9,519,150,224
"Odiongan, Romblon, Philippines",12.36445,122.01555,PLDT,66185,92408,66.19,92.41,12,517,76,105
"Tacurong City, Sultan Kudarat, Philippines",6.6866,124.66353,PLDT Home Fiber,87748,87696,87.75,87.70,11,517,104,140
"Bago, Negros Occidental, Philippines",10.53757,122.83609,PLDT,81777,80035,81.78,80.04,7,516,113,156
"Aguinaldo, Ifugao, Philippines",16.95291,121.33129,PLDT Home Fiber,122900,105172,122.90,105.17,12,511,140,239
"Pili, Camarines Sur, Philippines",13.55521,123.28126,PLDT,44820,46685,44.82,46.69,14,509,63,88
"Plaridel, Bulacan, Philippines",14.88591,120.85932,PLDT,87070,92899,87.07,92.90,5,508,154,214
"Olongapo City, Zambales, Philippines",14.88739,120.36661,PLDT,131315,83469,131.32,83.47,7,508,135,193
"Sindangan, Zamboanga del Norte, Philippines",8.19151,123.05639,PLDT Home Fiber,60653,53765,60.65,53.77,12,507,55,92
"Murcia, Negros Occidental, Philippines",10.60643,123.03944,PLDT,63116,64002,63.12,64.00,19,505,190,238
"Pandi, Bulacan, Philippines",14.87572,120.95941,PLDT Home Fiber,88223,93151,88.22,93.15,8,505,162,235
"Minglanilla, Cebu, Philippines",10.24543,123.79599,Globe,165350,141295,165.35,141.30,14,504,161,202
"General Mariano Alvarez, Cavite, Philippines",14.29525,121.0071,PLDT,117012,125731,117.01,125.73,7,503,109,141
"Bocaue, Bulacan, Philippines",14.7943,120.93073,Converge,149595,142942,149.60,142.94,7,502,143,188
"Moises Padilla, Negros Occidental, Philippines",10.26269,123.11266,PLDT Home Fiber,111550,108749,111.55,108.75,6,501,103,152
"Silay, Negros Occidental, Philippines",10.79968,122.97605,PLDT Home Fiber,99575,110880,99.58,110.88,9,501,165,242
"Hinigaran, Negros Occidental, Philippines",10.27479,122.92123,PLDT,75667,74676,75.67,74.68,12,500,111,176
"Angat, Bulacan, Philippines",14.92586,121.02204,PLDT Home Fiber,95859,95591,95.86,95.59,6,500,118,188
"Roxas City, Capiz, Philippines",11.55288,122.74072,Converge,65858,72387,65.86,72.39,14,499,80,129
"Calumpit, Bulacan, Philippines",14.91518,120.7662,Converge,173596,157918,173.60,157.92,6,499,86,133
"Quezon, Nueva Ecija, Philippines",15.56953,120.82692,Globe,225857,225524,225.86,225.52,5,498,138,207
"Bocaue, Bulacan, Philippines",14.7943,120.93073,PLDT,97791,94723,97.79,94.72,6,497,164,248
"Alcala, Pangasinan, Philippines",15.8546,120.53942,PLDT Home Fiber,101950,125633,101.95,125.63,12,497,173,262
"San Luis, Aurora, Philippines",15.63572,121.46847,PLDT,68514,43293,68.51,43.29,14,495,55,80
"San Rafael, Bulacan, Philippines",15.00184,120.93141,Converge,102387,93775,102.39,93.78,7,490,100,146
"Alicia, Isabela, Philippines",16.80691,121.69674,PLDT Home Fiber,53090,53834,53.09,53.83,13,490,97,139
"Pulilan, Bulacan, Philippines",14.90243,120.8459,PLDT Home Fiber,94750,105342,94.75,105.34,6,488,148,208
"Naujan, Oriental Mindoro, Philippines",13.24381,121.19395,PLDT Home Fiber,94308,95015,94.31,95.02,7,488,125,180
"General Santos City (Dadiangas), South Cotabato, Philippines",6.14327,125.19286,Converge,130285,145092,130.29,145.09,5,487,142,181
"Los Baños, Laguna, Philippines",14.17731,121.22161,PLDT,88941,92029,88.94,92.03,7,486,165,228
"Mercedes, Camarines Norte, Philippines",13.90012,123.06765,PLDT,83340,83847,83.34,83.85,6,485,33,44
"Catarman, Northern Samar, Philippines",12.44271,124.61927,Globe,93234,90251,93.23,90.25,14,484,71,96
"Ormoc City, Leyte, Philippines",11.03843,124.61927,Converge,99587,118480,99.59,118.48,5,481,92,149
"Bacolor, Pampanga, Philippines",14.99692,120.65235,Converge,97806,111843,97.81,111.84,4,481,130,181
"Tanjay City, Negros Oriental, Philippines",9.49579,122.9663,PLDT Home Fiber,92377,86752,92.38,86.75,12,478,99,148
"Tingloy, Batangas, Philippines",13.64133,120.9073,Globe,61745,54051,61.75,54.05,6,478,152,265
"Santa Cruz, Davao del Sur, Philippines",6.83551,125.41659,Globe,166321,142011,166.32,142.01,4,478,136,169
"Apalit, Pampanga, Philippines",14.95255,120.76688,PLDT Home Fiber,130751,94811,130.75,94.81,6,477,161,234
"Santo Tomas, Batangas, Philippines",14.08754,121.17764,Globe,154363,134031,154.36,134.03,7,475,129,170
"Nabua, Camarines Sur, Philippines",13.4069,123.37324,PLDT Home Fiber,85682,93308,85.68,93.31,8,472,105,153
"Guiguinto, Bulacan, Philippines",14.82832,120.88429,Converge,133287,103027,133.29,103.03,7,472,118,181
"Orion, Bataan, Philippines",14.61604,120.56431,PLDT Home Fiber,94832,112617,94.83,112.62,8,471,46,70
"Rosario, Cavite, Philippines",14.41672,120.85471,PLDT Home Fiber,106618,106020,106.62,106.02,7,469,135,181
"Panabo City, Davao del Norte, Philippines",7.30822,125.68662,PLDT Home Fiber,104457,105213,104.46,105.21,7,469,142,212
"Nasugbu, Batangas, Philippines",14.09404,120.68901,Globe,150776,111185,150.78,111.19,6,468,155,195
"Lubao, Pampanga, Philippines",14.92678,120.58795,Converge,72719,82242,72.72,82.24,4,466,108,160
"Puerto Princesa City, Palawan, Philippines",9.78563,118.62648,Converge,106921,109373,106.92,109.37,14,466,94,126
"San Leonardo, Nueva Ecija, Philippines",15.37285,120.95321,PLDT,26522,27165,26.52,27.17,12,463,107,168
"Rizal, Laguna, Philippines",14.08408,121.41133,PLDT Home Fiber,161296,173766,161.30,173.77,9,462,115,189
"Cavite, Philippines",14.48151,120.90833,PLDT Home Fiber,190918,189387,190.92,189.39,5,460,134,178
"Cordon, Isabela, Philippines",16.67835,121.46847,PLDT Home Fiber,54707,59903,54.71,59.90,14,459,84,117
"Balanga City, Bataan, Philippines",14.67454,120.47033,Converge,104546,128438,104.55,128.44,5,458,120,164
"Liloan, Cebu, Philippines",10.39926,124.00002,PLDT,195660,262276,195.66,262.28,4,457,116,150
"Tanjay City, Negros Oriental, Philippines",9.49579,122.9663,PLDT,51766,81556,51.77,81.56,13,457,45,69
"Pavia, Iloilo, Philippines",10.7748,122.54261,PLDT Home Fiber,187884,196123,187.88,196.12,10,457,122,156
"Libmanan, Camarines Sur, Philippines",13.69376,123.05982,PLDT Home Fiber,65838,60891,65.84,60.89,14,454,68,94
"President Roxas, Cotabato, Philippines",7.37928,125.06084,PLDT,158800,126912,158.80,126.91,9,454,186,281
"Magalang, Pampanga, Philippines",15.21394,120.66181,PLDT,71216,61142,71.22,61.14,12,454,103,161
"Marawi City, Lanao del Sur, Philippines",8.0292,124.29772,Globe,30034,39731,30.03,39.73,10,453,64,96
"Dona Remedios Trinidad, Bulacan, Philippines",15.11427,121.21685,PLDT,51382,32120,51.38,32.12,12,452,170,241
"Minglanilla, Cebu, Philippines",10.24543,123.79599,PLDT,180967,149002,180.97,149.00,3,452,127,167
"Balanga City, Bataan, Philippines",14.67454,120.47033,PLDT,62097,55860,62.10,55.86,10,450,170,221
"Balagtas, Bulacan, Philippines",14.81784,120.90646,PLDT Home Fiber,171638,124693,171.64,124.69,8,449,144,206
"City of Cabadbaran, Agusan Del Norte, Philippines",9.14092,125.697,PLDT Home Fiber,66419,63692,66.42,63.69,11,447,38,54
"Tacloban City, Leyte, Philippines",11.22238,124.99221,Globe,104322,93969,104.32,93.97,15,447,87,127
"Tayug, Pangasinan, Philippines",16.01085,120.74649,PLDT,94018,94413,94.02,94.41,9,446,141,231
"Cadiz City, Negros Occidental, Philippines",10.86192,123.23632,PLDT,71100,60664,71.10,60.66,9,445,131,193
"Apalit, Pampanga, Philippines",14.95255,120.76688,PLDT,78210,85545,78.21,85.55,13,442,112,147
"Palayan City, Nueva Ecija, Philippines",15.53906,121.09083,PLDT,90639,92743,90.64,92.74,15,442,109,155
"Tagoloan Ii, Lanao del Sur, Philippines",8.09908,124.44201,PLDT Home Fiber,83057,88700,83.06,88.70,5,440,96,162
"Leyte, Philippines",11.32728,124.48636,PLDT,55501,64315,55.50,64.32,16,440,85,129
"Maramag, Bukidnon, Philippines",7.82687,124.97271,Globe,58608,17053,58.61,17.05,22,436,101,147
"San Fernando, Pampanga, Philippines",15.02781,120.69349,Globe,121899,111101,121.90,111.10,6,436,133,176
"Midsayap, Cotabato, Philippines",7.19181,124.53474,PLDT Home Fiber,99400,95034,99.40,95.03,13,434,94,133
"Ormoc City, Leyte, Philippines",11.03843,124.61927,PLDT Home Fiber,97485,92464,97.49,92.46,4,432,80,108
"Mexico, Pampanga, Philippines",15.06457,120.72033,PLDT,79544,90939,79.54,90.94,15,432,124,174
"Santo Domingo, Nueva Ecija, Philippines",15.61284,120.88434,PLDT,86055,73820,86.06,73.82,17,432,110,153
"Pozorrubio, Pangasinan, Philippines",16.11642,120.54316,PLDT,78282,73499,78.28,73.50,10,432,112,183
"San Mateo, Rizal, Philippines",14.69539,121.11767,Globe,249990,220861,249.99,220.86,5,430,109,140
"Catarman, Northern Samar, Philippines",12.44271,124.61927,PLDT Home Fiber,121570,126498,121.57,126.50,17,429,91,120
"Gapan City, Nueva Ecija, Philippines",15.29121,121.01057,Globe,163377,114717,163.38,114.72,6,429,136,199
"Talavera, Nueva Ecija, Philippines",15.58575,120.9197,PLDT Home Fiber,77480,86949,77.48,86.95,10,426,100,160
"Gerona, Tarlac, Philippines",15.60489,120.59698,PLDT Home Fiber,104115,116826,104.12,116.83,10,425,88,119
"Naga, Cebu, Philippines",10.20764,123.75821,PLDT,99790,108149,99.79,108.15,4,425,85,103
"Buenavista, Guimaras, Philippines",10.69691,122.6481,PLDT,48230,52519,48.23,52.52,19,424,108,156
"Malolos, Bulacan, Philippines",14.86049,120.80916,Globe,166388,166691,166.39,166.69,7,424,92,123
"Arayat, Pampanga, Philippines",15.15443,120.771,Globe,141672,171903,141.67,171.90,6,422,147,197
"Balagtas, Bulacan, Philippines",14.81784,120.90646,Converge,183156,153634,183.16,153.63,7,421,101,138
"Mabitac, Laguna, Philippines",14.43383,121.41133,Converge,116024,151873,116.02,151.87,10,419,98,163
"Pili, Camarines Sur, Philippines",13.55521,123.28126,PLDT Home Fiber,91426,98801,91.43,98.80,8,417,127,178
"Pantukan, Davao de Oro, Philippines",7.20012,126.04584,PLDT Home Fiber,85958,98469,85.96,98.47,11,416,65,96
"Binidayan, Lanao del Sur, Philippines",7.74479,124.16432,PLDT Home Fiber,92825,92174,92.83,92.17,6,415,127,184
"Pagadian City, Zamboanga del Sur, Philippines",7.86265,123.37106,Globe,88763,67368,88.76,67.37,6,414,98,136
"Dumangas, Iloilo, Philippines",10.82109,122.71167,PLDT Home Fiber,54277,70772,54.28,70.77,12,414,55,69
"Concepcion, Tarlac, Philippines",15.324,120.65596,Globe,193261,175956,193.26,175.96,4,413,172,253
"Tagbilaran City, Bohol, Philippines",9.6534,123.86703,Converge,118713,114082,118.71,114.08,26,413,115,158
"San Miguel, Bulacan, Philippines",15.14158,120.9751,Globe,136527,110765,136.53,110.77,6,413,100,154
"Kabankalan City, Negros Occidental, Philippines",9.91341,122.85358,PLDT,65263,67114,65.26,67.11,7,413,81,102
"Isabela, Basilan, Philippines",6.70387,121.9799,Globe,114491,108499,114.49,108.50,14,413,38,47
"Mapandan, Pangasinan, Philippines",16.02726,120.45379,Converge,98716,108069,98.72,108.07,5,412,172,244
"Talisay, Negros Occidental, Philippines",10.74828,122.98012,PLDT,61143,60896,61.14,60.90,16,412,115,177
"Carranglan, Nueva Ecija, Philippines",15.97584,121.03351,PLDT,30909,65452,30.91,65.45,9,411,90,126
"Rosario, Cavite, Philippines",14.41672,120.85471,PLDT,88844,94128,88.84,94.13,8,410,99,144
"Talugtug, Nueva Ecija, Philippines",15.7698,120.81544,PLDT,89736,84337,89.74,84.34,11,410,97,136
"Muñoz, Nueva Ecija, Philippines",15.70664,120.9029,PLDT Home Fiber,91455,97742,91.46,97.74,13,410,70,106
"Alangalang, Leyte, Philippines",11.23565,124.88449,PLDT,25004,34019,25.00,34.02,21,409,104,181
"Jaen, Nueva Ecija, Philippines",15.39558,120.87286,PLDT Home Fiber,89904,79208,89.90,79.21,10,408,126,210
"Olongapo City, Zambales, Philippines",14.88739,120.36661,PLDT Home Fiber,134708,72092,134.71,72.09,9,407,143,187
"Sultan Kudarat (Nuling), Maguindanao, Philippines",7.26221,124.30883,PLDT Home Fiber,81009,80573,81.01,80.57,12,406,56,78
"Santa Barbara, Pangasinan, Philippines",15.9774,120.42424,PLDT Home Fiber,87672,96265,87.67,96.27,6,405,89,113
"Kiamba, Sarangani, Philippines",6.00076,124.70777,PLDT,20181,21006,20.18,21.01,13,405,29,55
"Batangas City, Batangas, Philippines",13.75641,121.05833,Converge,145994,144371,145.99,144.37,7,405,109,181
"Ibaan, Batangas, Philippines",13.81895,121.13082,Globe,145206,155794,145.21,155.79,7,404,112,181
"Calasiao, Pangasinan, Philippines",16.00949,120.35759,PLDT Home Fiber,92835,99344,92.84,99.34,7,404,140,193
"Don Carlos, Bukidnon, Philippines",7.67895,124.99652,PLDT Home Fiber,94813,94946,94.81,94.95,7,401,142,197
"Panabo City, Davao del Norte, Philippines",7.30822,125.68662,PLDT,98254,57373,98.25,57.37,7,401,86,116
"El Nido, Palawan, Philippines",11.19892,119.42317,PLDT,77561,74096,77.56,74.10,33,401,61,107
"Alaminos City, Pangasinan, Philippines",16.15053,119.98562,PLDT Home Fiber,79469,101174,79.47,101.17,9,397,69,100
"Puerto Princesa City, Palawan, Philippines",9.78563,118.62648,Globe,157049,146224,157.05,146.22,16,396,95,137
"Laoag City, Ilocos Norte, Philippines",18.21075,120.58547,PLDT Home Fiber,116966,126369,116.97,126.37,9,396,103,143
"Moalboal, Cebu, Philippines",9.93681,123.42714,Globe,86914,70647,86.91,70.65,13,395,99,143
"Malvar, Batangas, Philippines",14.04329,121.15875,PLDT,72098,183790,72.10,183.79,15,393,77,97
"Iriga City, Camarines Sur, Philippines",13.42095,123.41361,PLDT,58971,55653,58.97,55.65,8,391,53,78
"Norzagaray, Bulacan, Philippines",14.89659,121.14813,Converge,184461,155725,184.46,155.73,7,390,68,105
"Tigaon, Camarines Sur, Philippines",13.61703,123.47198,Converge,101384,9048,101.38,9.05,13,389,31,47
"Guinobatan, Albay, Philippines",13.15419,123.55041,Converge,59336,94365,59.34,94.37,16,388,43,63
"La Carlota City, Negros Occidental, Philippines",10.41437,122.97757,PLDT,75039,73102,75.04,73.10,7,387,73,99
"Valencia City, Bukidnon, Philippines",7.86319,125.17087,Converge,107894,106512,107.89,106.51,9,386,99,135
"Catmon, Cebu, Philippines",10.65242,123.9973,Globe,114904,93998,114.90,94.00,8,385,123,190
"Floridablanca, Pampanga, Philippines",14.9619,120.49471,Converge,77480,89073,77.48,89.07,4,384,97,124
"Calasiao, Pangasinan, Philippines",16.00949,120.35759,PLDT,84875,94011,84.88,94.01,8,384,82,138
"Limay, Bataan, Philippines",14.53661,120.56245,Converge,97146,116315,97.15,116.32,12,383,84,106
"Borbon, Cebu, Philippines",10.84627,123.9973,Globe,114420,99023,114.42,99.02,20,382,124,161
"Pulilan, Bulacan, Philippines",14.90243,120.8459,Converge,125615,128018,125.62,128.02,7,380,68,89
"Daraga, Albay, Philippines",13.12278,123.69588,Globe,137050,113456,137.05,113.46,24,380,75,95
"Dinalupihan, Bataan, Philippines",14.88605,120.44729,PLDT Home Fiber,173903,146905,173.90,146.91,8,379,83,106
"Mallig, Isabela, Philippines",17.15803,121.61307,PLDT Home Fiber,51607,60766,51.61,60.77,13,379,68,96
"Camiling, Tarlac, Philippines",15.67495,120.41272,PLDT Home Fiber,68301,78866,68.30,78.87,13,377,60,75
"San Luis, Pampanga, Philippines",15.03986,120.81544,PLDT Home Fiber,88599,89951,88.60,89.95,9,375,92,160
"Hinunangan, Southern Leyte, Philippines",10.39458,125.14888,PLDT,56570,127860,56.57,127.86,9,375,53,65
"Calapan City, Oriental Mindoro, Philippines",13.36643,121.19395,PLDT Home Fiber,120273,131968,120.27,131.97,9,374,115,167
"Cotabato City, Maguindanao, Philippines",7.20467,124.23104,Globe,174531,54276,174.53,54.28,12,374,40,51
"Amulung, Cagayan, Philippines",17.83589,121.7233,Converge,89478,93369,89.48,93.37,13,373,101,179
"Masbate City, Masbate, Philippines",12.31777,123.55041,PLDT,91944,87088,91.94,87.09,21,372,82,110
"Anao, Tarlac, Philippines",15.7435,120.61424,PLDT,41489,47136,41.49,47.14,23,372,60,84
"Tagbilaran City, Bohol, Philippines",9.6534,123.86703,Globe,171154,140017,171.15,140.02,10,371,78,101
"Guimba, Nueva Ecija, Philippines",15.65641,120.76767,PLDT,83174,94830,83.17,94.83,17,371,28,36
"Tagum, Davao del Norte, Philippines",7.44742,125.80246,Converge,119486,121142,119.49,121.14,4,370,81,105
"Kalibo, Aklan, Philippines",11.70734,122.36986,Converge,86169,89258,86.17,89.26,15,369,76,111
"Labangan, Zamboanga del Sur, Philippines",7.85732,123.503,PLDT Home Fiber,86005,91730,86.01,91.73,10,368,98,136
"City of Mati, Davao Oriental, Philippines",6.95722,126.15454,Globe,101568,77811,101.57,77.81,16,367,52,67
"Bautista, Pangasinan, Philippines",15.79528,120.51639,PLDT,105320,111561,105.32,111.56,13,366,90,137
"Cauayan City, Isabela, Philippines",16.91662,121.78792,PLDT Home Fiber,105109,93301,105.11,93.30,13,365,86,119
"Butuan City, Agusan Del Norte, Philippines",8.94753,125.54063,Converge,147773,126041,147.77,126.04,12,365,84,120
"Mexico, Pampanga, Philippines",15.06457,120.72033,Globe,174286,196817,174.29,196.82,6,365,95,124
"Alfonso, Cavite, Philippines",14.1214,120.86138,Converge,268561,250313,268.56,250.31,6,364,38,56
"Rodriguez, Rizal, Philippines",14.73202,121.14516,PLDT,46303,44581,46.30,44.58,5,364,83,113
"San Andres, Catanduanes, Philippines",13.6332,124.08641,PLDT,80757,84504,80.76,84.50,10,363,34,53
"Binangonan, Rizal, Philippines",14.48441,121.1869,Globe,229394,197361,229.39,197.36,4,361,102,136
"Mahayag, Zamboanga del Sur, Philippines",8.15835,123.41593,PLDT Home Fiber,53191,47574,53.19,47.57,9,361,22,26
"Baliwag, Bulacan, Philippines",14.96569,120.89431,Globe,117325,103802,117.33,103.80,7,361,85,112
"Tanza, Cavite, Philippines",14.34293,120.85032,PLDT,120877,135918,120.88,135.92,8,360,85,120
"Dauis, Bohol, Philippines",9.60401,123.82996,PLDT Home Fiber,113426,144254,113.43,144.25,8,360,61,86
"Bauang, La Union, Philippines",16.51433,120.35508,PLDT Home Fiber,93786,94496,93.79,94.50,3,359,80,115
"Lamut, Ifugao, Philippines",16.68241,121.19395,PLDT Home Fiber,102731,104248,102.73,104.25,11,359,106,147
"Gasan, Marinduque, Philippines",13.32138,121.89041,PLDT Home Fiber,103423,128529,103.42,128.53,8,358,28,37
"Santa Cruz, Laguna, Philippines",14.26911,121.41133,PLDT Home Fiber,121596,134539,121.60,134.54,12,358,70,89
"San Ildefonso, Bulacan, Philippines",15.07717,120.94171,PLDT,58949,60351,58.95,60.35,11,357,69,104
"San Fernando, Cebu, Philippines",10.16316,123.70738,Globe,145971,121783,145.97,121.78,17,357,113,158
"Sagay City, Negros Occidental, Philippines",10.84555,123.37106,Globe,83251,73988,83.25,73.99,14,355,33,47
"Passi City, Iloilo, Philippines",11.1688,122.65035,PLDT,56794,59124,56.79,59.12,10,355,110,151
"Zaragoza, Nueva Ecija, Philippines",15.46003,120.79246,Globe,61084,53351,61.08,53.35,5,354,126,233
"Lopez, Quezon, Philippines",13.80005,122.31075,PLDT,90515,103882,90.52,103.88,6,354,65,88
"Paniqui, Tarlac, Philippines",15.66603,120.53942,PLDT Home Fiber,113775,118192,113.78,118.19,12,354,88,126
"Polomolok, South Cotabato, Philippines",6.22451,125.06084,Globe,121807,129952,121.81,129.95,14,353,61,79
"Dulag, Leyte, Philippines",10.95915,125.00577,PLDT,46470,68281,46.47,68.28,18,353,66,108
"San Pascual, Batangas, Philippines",13.81044,121.02204,Globe,120053,106156,120.05,106.16,6,353,87,135
"Pili, Camarines Sur, Philippines",13.55521,123.28126,Converge,75783,77626,75.78,77.63,4,352,67,114
"San Pascual, Batangas, Philippines",13.81044,121.02204,PLDT Home Fiber,129385,119045,129.39,119.05,7,352,94,120
"San Jose City, Nueva Ecija, Philippines",15.79188,120.99008,Converge,148182,159934,148.18,159.93,5,352,100,124
"Ligao City, Albay, Philippines",13.17242,123.4944,PLDT,70672,89965,70.67,89.97,9,352,41,50
"Santa Catalina, Negros Oriental, Philippines",9.28676,122.94377,PLDT,62338,46767,62.34,46.77,8,351,29,43
"Nasugbu, Batangas, Philippines",14.09404,120.68901,PLDT Home Fiber,107425,103585,107.43,103.59,8,351,79,113
"San Quintin, Pangasinan, Philippines",15.9754,120.83841,PLDT Home Fiber,113495,107498,113.50,107.50,13,350,73,114
"Tayug, Pangasinan, Philippines",16.01085,120.74649,PLDT Home Fiber,91153,100743,91.15,100.74,12,350,76,131
"San Miguel, Bulacan, Philippines",15.14158,120.9751,Converge,105113,111356,105.11,111.36,6,348,95,120
"Santa Maria, Bulacan, Philippines",14.82898,120.97616,PLDT,88620,60127,88.62,60.13,9,348,50,74
"Sorsogon City, Sorsogon, Philippines",12.97888,123.98477,Converge,128913,109425,128.91,109.43,17,348,54,87
"Sibalom, Antique, Philippines",10.76502,122.06102,PLDT Home Fiber,53084,53299,53.08,53.30,13,347,35,40
"Compostela, Cebu, Philippines",10.45408,124.013,PLDT Home Fiber,154272,115132,154.27,115.13,5,347,92,142
"San Rafael, Bulacan, Philippines",15.00184,120.93141,Globe,94557,95996,94.56,96.00,7,346,125,181
"Pateros, Metro Manila, Philippines",14.54838,121.07077,PLDT Home Fiber,203731,198093,203.73,198.09,3,345,104,134
"Talavera, Nueva Ecija, Philippines",15.58575,120.9197,Globe,122354,124350,122.35,124.35,5,345,96,150
"Zamboanga City, Zamboanga del Sur, Philippines",6.90437,122.07612,PLDT,47118,50970,47.12,50.97,16,344,84,140
"San Fernando City, La Union, Philippines",16.61592,120.32102,PLDT,96647,94948,96.65,94.95,3,344,83,116
"Baroy, Lanao del Norte, Philippines",7.97974,123.82996,PLDT Home Fiber,68010,64406,68.01,64.41,6,344,16,20
"Hagonoy, Bulacan, Philippines",14.83564,120.73371,PLDT,82275,88497,82.28,88.50,7,343,87,118
"Sogod, Southern Leyte, Philippines",10.44929,125.01679,PLDT Home Fiber,43937,86102,43.94,86.10,12,342,37,41
"Pavia, Iloilo, Philippines",10.7748,122.54261,PLDT,61538,67785,61.54,67.79,17,342,114,155
"City of Mati, Davao Oriental, Philippines",6.95722,126.15454,PLDT Home Fiber,127210,123747,127.21,123.75,12,340,71,100
"Kalibo, Aklan, Philippines",11.70734,122.36986,Globe,113418,91002,113.42,91.00,14,340,63,90
"Consolacion, Cebu, Philippines",10.37581,123.95694,PLDT Home Fiber,135091,130143,135.09,130.14,4,340,79,97
"Baliwag, Bulacan, Philippines",14.96569,120.89431,Converge,155183,145776,155.18,145.78,7,340,88,125
"Candaba, Pampanga, Philippines",15.09289,120.8277,Converge,129971,101003,129.97,101.00,5,337,99,143
"Hamtic, Antique, Philippines",10.65189,122.01555,PLDT,69765,78991,69.77,78.99,14,337,82,98
"Santo Domingo, Nueva Ecija, Philippines",15.61284,120.88434,PLDT Home Fiber,101285,95518,101.29,95.52,12,337,70,113
"Aringay, La Union, Philippines",16.40163,120.40119,PLDT,85646,87170,85.65,87.17,8,337,111,165
"Apalit, Pampanga, Philippines",14.95255,120.76688,Converge,77759,90021,77.76,90.02,5,336,60,98
"Lingayen, Pangasinan, Philippines",16.00973,120.22449,PLDT Home Fiber,94094,123016,94.09,123.02,12,336,67,97
"Guimba, Nueva Ecija, Philippines",15.65641,120.76767,PLDT Home Fiber,84128,97636,84.13,97.64,12,335,84,124
"Panglao, Bohol, Philippines",9.56947,123.78721,PLDT Home Fiber,119917,121557,119.92,121.56,8,335,84,120
"La Carlota City, Negros Occidental, Philippines",10.41437,122.97757,PLDT Home Fiber,95833,97223,95.83,97.22,6,334,103,151
"Hermosa, Bataan, Philippines",14.83566,120.47709,Converge,136812,130073,136.81,130.07,6,332,93,121
"Los Baños, Laguna, Philippines",14.17731,121.22161,Globe,204447,228545,204.45,228.55,5,332,102,151
"Tuguegarao City, Cagayan, Philippines",17.60306,121.75374,Globe,103937,103906,103.94,103.91,10,331,60,81
"General Mamerto Natividad, Nueva Ecija, Philippines",15.58788,121.04498,PLDT Home Fiber,88905,94512,88.91,94.51,11,330,74,103
"Tanay, Rizal, Philippines",14.61419,121.37703,PLDT,39920,50211,39.92,50.21,10,330,89,129
"Argao, Cebu, Philippines",9.88114,123.60535,PLDT,83335,98722,83.34,98.72,7,330,78,95
"Naval, Biliran, Philippines",11.56681,124.44201,Globe,129396,129284,129.40,129.28,22,329,40,61
"Alicia, Isabela, Philippines",16.80691,121.69674,PLDT,64132,66029,64.13,66.03,14,329,99,124
"San Mateo, Rizal, Philippines",14.69539,121.11767,PLDT,77860,87834,77.86,87.83,6,328,109,175
"Mahinog, Camiguin, Philippines",9.17901,124.76303,PLDT Home Fiber,22484,134409,22.48,134.41,28,328,20,24
"Trece Martires City, Cavite, Philippines",14.28222,120.86837,PLDT,66765,66456,66.77,66.46,6,327,78,108
"Dapitan City, Zamboanga del Norte, Philippines",8.58118,123.42714,PLDT Home Fiber,122201,152633,122.20,152.63,8,326,41,58
"Pulilan, Bulacan, Philippines",14.90243,120.8459,PLDT,114913,128797,114.91,128.80,5,325,89,146
"Urdaneta City, Pangasinan, Philippines",15.98194,120.59698,Globe,120309,106468,120.31,106.47,5,324,40,52
"City of Catbalogan, Samar, Philippines",11.85683,124.88449,PLDT,42663,45909,42.66,45.91,17,324,84,116
"Hagonoy, Bulacan, Philippines",14.83564,120.73371,PLDT Home Fiber,161506,127566,161.51,127.57,9,323,100,138
"Carcar, Cebu, Philippines",10.10478,123.64147,PLDT Home Fiber,156939,189870,156.94,189.87,5,321,54,77
"Infanta, Quezon, Philippines",14.74071,121.6451,PLDT,33819,40985,33.82,40.99,12,320,112,169
"General Mariano Alvarez, Cavite, Philippines",14.29525,121.0071,PLDT Home Fiber,112011,141690,112.01,141.69,6,318,78,100
"Sogod, Cebu, Philippines",10.77419,123.9527,Globe,95184,98386,95.18,98.39,19,318,103,137
"San Jose, Occidental Mindoro, Philippines",12.40119,121.10229,Converge,47051,45802,47.05,45.80,10,318,55,96
"Calatrava, Negros Occidental, Philippines",10.62843,123.39349,PLDT Home Fiber,85496,91860,85.50,91.86,7,317,108,149
"Guimba, Nueva Ecija, Philippines",15.65641,120.76767,Globe,123632,149913,123.63,149.91,6,316,119,181
"Santa Cruz, Laguna, Philippines",14.26911,121.41133,PLDT,94199,106566,94.20,106.57,10,316,78,121
"Limay, Bataan, Philippines",14.53661,120.56245,PLDT Home Fiber,97523,112922,97.52,112.92,8,315,69,92
"Panglao, Bohol, Philippines",9.56947,123.78721,PLDT,85405,78328,85.41,78.33,9,313,44,85
"Oton, Iloilo, Philippines",10.69251,122.47868,PLDT Home Fiber,89372,92039,89.37,92.04,10,313,68,84
"Santo Tomas, Batangas, Philippines",14.08754,121.17764,Converge,142693,163025,142.69,163.03,8,311,72,100
"Kapangan, Benguet, Philippines",16.61238,120.59698,Converge,195128,191298,195.13,191.30,3,310,96,161
"Kidapawan, Cotabato, Philippines",7.02127,125.09019,Converge,81448,61932,81.45,61.93,5,308,74,108
"Norzagaray, Bulacan, Philippines",14.89659,121.14813,PLDT,93604,71435,93.60,71.44,8,307,81,128
"Sariaya, Quezon, Philippines",13.96301,121.52388,PLDT,103428,94275,103.43,94.28,8,307,100,143
"Urdaneta City, Pangasinan, Philippines",15.98194,120.59698,PLDT,90523,85091,90.52,85.09,6,305,90,134
"Tacloban City, Leyte, Philippines",11.22238,124.99221,PLDT Home Fiber,113226,121462,113.23,121.46,6,304,81,111
"Lubao, Pampanga, Philippines",14.92678,120.58795,PLDT,53114,53261,53.11,53.26,13,304,83,120
"Baler, Aurora, Philippines",15.73361,121.57125,PLDT,57290,57489,57.29,57.49,14,302,69,90
"Tiaong, Quezon, Philippines",13.92962,121.34273,PLDT Home Fiber,114122,109021,114.12,109.02,4,302,79,129
"Victoria, Tarlac, Philippines",15.59077,120.68901,PLDT Home Fiber,102426,93499,102.43,93.50,10,301,77,125
"Ozamiz, Misamis Occidental, Philippines",8.15,123.85033,PLDT Home Fiber,62116,61189,62.12,61.19,5,300,65,86
"Bayambang, Pangasinan, Philippines",15.80947,120.45714,PLDT Home Fiber,142861,141183,142.86,141.18,13,300,62,85
"Talavera, Nueva Ecija, Philippines",15.58575,120.9197,PLDT,112636,116600,112.64,116.60,10,299,26,50
"Norzagaray, Bulacan, Philippines",14.89659,121.14813,PLDT Home Fiber,124136,94668,124.14,94.67,6,298,73,104
"Lambayong (Mariano Marcos), Sultan Kudarat, Philippines",6.79879,124.61927,PLDT Home Fiber,71243,61370,71.24,61.37,11,298,54,77
"Pavia, Iloilo, Philippines",10.7748,122.54261,Globe,114881,118659,114.88,118.66,4,297,67,96
"Cavite, Philippines",14.48151,120.90833,Converge,217283,201637,217.28,201.64,6,296,36,61
"Rizal, Nueva Ecija, Philippines",15.69357,121.10229,PLDT Home Fiber,37736,52006,37.74,52.01,12,296,23,34
"Amadeo, Cavite, Philippines",14.18985,120.92452,PLDT,140769,184449,140.77,184.45,8,296,89,107
"Floridablanca, Pampanga, Philippines",14.9619,120.49471,PLDT Home Fiber,160251,113338,160.25,113.34,11,296,80,107
"San Remigio, Antique, Philippines",10.90711,122.19731,PLDT,65224,91021,65.22,91.02,13,295,7,9
"Carmona, Cavite, Philippines",14.3135,121.05712,PLDT Home Fiber,184425,170640,184.43,170.64,5,293,74,107
"Arakan, Cotabato, Philippines",7.35122,125.17087,PLDT Home Fiber,82495,89895,82.50,89.90,8,293,81,124
"Malasiqui, Pangasinan, Philippines",15.92028,120.41443,PLDT,105783,112589,105.78,112.59,5,292,46,70
"Paniqui, Tarlac, Philippines",15.66603,120.53942,Converge,76063,88069,76.06,88.07,5,291,105,142
"Bula, Camarines Sur, Philippines",13.44119,123.23632,PLDT Home Fiber,63138,73936,63.14,73.94,8,290,59,96
"Isulan, Sultan Kudarat, Philippines",6.6318,124.44201,PLDT,37966,46924,37.97,46.92,11,289,49,64
"San Jose, Camarines Sur, Philippines",13.68724,123.53921,Converge,173854,139521,173.85,139.52,3,289,24,39
"Echague, Isabela, Philippines",16.66606,121.78792,PLDT Home Fiber,81211,93532,81.21,93.53,14,285,49,71
"M'lang, Cotabato, Philippines",6.93822,124.90655,PLDT Home Fiber,139837,127992,139.84,127.99,10,284,82,108
"Tagkawayan, Quezon, Philippines",13.96843,122.53376,PLDT,74647,93954,74.65,93.95,4,283,32,47
"Villasis, Pangasinan, Philippines",15.90523,120.55094,PLDT Home Fiber,154182,161378,154.18,161.38,8,283,87,117
"Lantapan, Bukidnon, Philippines",8.04797,124.97271,PLDT,92055,34618,92.06,34.62,8,283,105,147
"Aliaga, Nueva Ecija, Philippines",15.51204,120.86138,PLDT Home Fiber,104547,94683,104.55,94.68,10,281,81,119
"Tanjay City, Negros Oriental, Philippines",9.49579,122.9663,Globe,93509,80624,93.51,80.62,14,281,34,47
"San Isidro, Bohol, Philippines",9.84036,123.94155,PLDT,43281,46517,43.28,46.52,21,281,54,90
"Tagoloan, Misamis Oriental, Philippines",8.51877,124.80722,PLDT,80437,85101,80.44,85.10,25,281,77,110
"Laurel, Batangas, Philippines",14.05302,120.9073,PLDT Home Fiber,136034,138044,136.03,138.04,6,280,41,64
"Gumaca, Quezon, Philippines",13.89105,122.10647,PLDT,93286,126051,93.29,126.05,6,280,51,70
"Dona Remedios Trinidad, Bulacan, Philippines",15.11427,121.21685,PLDT Home Fiber,87056,82376,87.06,82.38,10,280,77,105
"Ragay, Camarines Sur, Philippines",13.83123,122.78588,PLDT,75608,88645,75.61,88.65,14,280,14,18
"Dagupan City, Pangasinan, Philippines",16.03375,120.33202,PLDT,50548,48763,50.55,48.76,7,279,90,132
"Mabalacat City, Pampanga, Philippines",15.24525,120.56567,Globe,119369,107862,119.37,107.86,4,277,76,110
"Malay, Aklan, Philippines",11.93033,121.95191,Converge,69198,58972,69.20,58.97,17,277,72,111
"Lobo, Batangas, Philippines",13.6877,121.23974,PLDT Home Fiber,127312,132546,127.31,132.55,6,277,91,152
"Balingasag, Misamis Oriental, Philippines",8.72993,124.84034,PLDT Home Fiber,152129,156485,152.13,156.49,4,276,15,23
"Santa Ignacia, Tarlac, Philippines",15.61667,120.43556,PLDT Home Fiber,51027,56926,51.03,56.93,12,276,29,37
"Pandi, Bulacan, Philippines",14.87572,120.95941,Globe,120777,113456,120.78,113.46,7,275,62,76
"Salvador Benedicto, Negros Occidental, Philippines",10.5887,123.23632,Globe,155205,168192,155.21,168.19,12,274,107,147
"San Jose, Batangas, Philippines",13.87868,121.09942,PLDT,192047,171381,192.05,171.38,7,273,77,110
"Narra, Palawan, Philippines",9.229,118.33047,PLDT,96044,129328,96.04,129.33,35,273,39,57
"Boac, Marinduque, Philippines",13.39413,121.87903,PLDT Home Fiber,77495,87092,77.50,87.09,9,273,42,71
"Santa Maria, Ilocos Sur, Philippines",17.37881,120.49336,PLDT Home Fiber,43678,91550,43.68,91.55,19,273,40,52
"Guiguinto, Bulacan, Philippines",14.82832,120.88429,Globe,139137,122508,139.14,122.51,7,272,71,90
"General Tinio (Papaya), Nueva Ecija, Philippines",15.36345,121.21685,PLDT,55217,26898,55.22,26.90,11,271,76,120
"Urdaneta City, Pangasinan, Philippines",15.98194,120.59698,PLDT Home Fiber,102721,137046,102.72,137.05,7,271,91,135
"Marawi City, Lanao del Sur, Philippines",8.0292,124.29772,PLDT,53415,43108,53.42,43.11,21,271,90,123
"Naic, Cavite, Philippines",14.29649,120.79246,Globe,126480,108467,126.48,108.47,7,271,48,58
"Pilar, Sorsogon, Philippines",12.97477,123.6847,PLDT Home Fiber,120793,95931,120.79,95.93,39,270,1,3
"Polomolok, South Cotabato, Philippines",6.22451,125.06084,PLDT,46494,48302,46.49,48.30,22,270,71,99
"Roxas, Isabela, Philippines",17.12035,121.61915,PLDT Home Fiber,51162,52441,51.16,52.44,13,270,51,70
"Ilog, Negros Occidental, Philippines",9.8785,122.72943,PLDT,43845,44458,43.85,44.46,10,269,26,33
"Himamaylan, Negros Occidental, Philippines",10.10162,122.86995,PLDT Home Fiber,105922,91630,105.92,91.63,13,269,28,43
"Tublay, Benguet, Philippines",16.52924,120.62073,PLDT Home Fiber,83553,84188,83.55,84.19,6,269,70,125
"Santo Tomas, Batangas, Philippines",14.08754,121.17764,PLDT,45207,53937,45.21,53.94,12,269,70,95
"Alfonso, Cavite, Philippines",14.1214,120.86138,PLDT Home Fiber,198266,180407,198.27,180.41,5,268,77,102
"Tanauan City, Batangas, Philippines",14.08354,121.14762,Converge,99422,118679,99.42,118.68,8,267,64,113
"Pateros, Metro Manila, Philippines",14.54838,121.07077,Converge,98969,117819,98.97,117.82,4,267,83,109
"Cadiz City, Negros Occidental, Philippines",10.86192,123.23632,Globe,119682,109221,119.68,109.22,12,266,88,130
"Sibulan, Negros Oriental, Philippines",9.35972,123.28476,PLDT,170312,171370,170.31,171.37,7,266,41,48
"San Fernando City, La Union, Philippines",16.61592,120.32102,Converge,115031,123963,115.03,123.96,4,265,87,113
"Sibulan, Negros Oriental, Philippines",9.35972,123.28476,PLDT Home Fiber,105841,86818,105.84,86.82,6,265,53,65
"Palayan City, Nueva Ecija, Philippines",15.53906,121.09083,PLDT Home Fiber,97946,82351,97.95,82.35,11,265,54,80
"Tigaon, Camarines Sur, Philippines",13.61703,123.47198,PLDT Home Fiber,110036,124274,110.04,124.27,7,265,46,60
"Binangonan, Rizal, Philippines",14.48441,121.1869,Converge,148298,159502,148.30,159.50,4,265,99,121
"Unisan, Quezon, Philippines",13.86351,122.01555,Converge,45485,54766,45.49,54.77,10,265,22,31
"Alimodian, Iloilo, Philippines",10.85495,122.39009,PLDT,69049,65767,69.05,65.77,10,264,20,29
"San Mateo, Isabela, Philippines",16.87673,121.59408,PLDT Home Fiber,48597,52104,48.60,52.10,13,263,50,70
"Cauayan City, Isabela, Philippines",16.91662,121.78792,Converge,153996,151495,154.00,151.50,9,262,64,97
"Ozamiz, Misamis Occidental, Philippines",8.15,123.85033,Globe,127031,51448,127.03,51.45,11,262,53,75
"Sampaloc, Quezon, Philippines",14.17744,121.6169,PLDT,84265,89408,84.27,89.41,14,262,67,96
"San Joaquin, Iloilo, Philippines",10.64155,122.10647,PLDT Home Fiber,90334,86527,90.33,86.53,11,261,26,29
"City of Catbalogan, Samar, Philippines",11.85683,124.88449,Globe,104949,90767,104.95,90.77,16,261,61,97
"Panabo City, Davao del Norte, Philippines",7.30822,125.68662,Globe,113577,72005,113.58,72.01,7,260,53,64
"Baao, Camarines Sur, Philippines",13.49319,123.35984,PLDT,44886,78232,44.89,78.23,11,260,37,51
"Dipolog City, Zamboanga del Norte, Philippines",8.58717,123.34035,Globe,59329,40744,59.33,40.74,12,260,52,70
"Oton, Iloilo, Philippines",10.69251,122.47868,Globe,223524,196621,223.52,196.62,6,259,54,75
"Santa Cruz, Davao del Sur, Philippines",6.83551,125.41659,PLDT Home Fiber,46192,43064,46.19,43.06,8,259,44,59
"Samal, Davao del Norte, Philippines",7.08352,125.70578,PLDT Home Fiber,94305,99968,94.31,99.97,8,258,60,78
"Calauan, Laguna, Philippines",14.14551,121.3146,PLDT,58436,61296,58.44,61.30,17,257,78,120
"Quezon, Nueva Ecija, Philippines",15.56953,120.82692,PLDT Home Fiber,84378,67187,84.38,67.19,11,255,73,109
"Enrique B. Magalona, Negros Occidental, Philippines",10.87695,122.98281,PLDT Home Fiber,67896,94495,67.90,94.50,12,255,83,124
"Oton, Iloilo, Philippines",10.69251,122.47868,PLDT,39583,48948,39.58,48.95,12,254,46,56
"Binmaley, Pangasinan, Philippines",16.02892,120.26882,PLDT Home Fiber,114669,116530,114.67,116.53,14,254,59,79
"Balasan, Iloilo, Philippines",11.45927,123.09015,PLDT,31280,31117,31.28,31.12,12,253,22,27
"Arakan, Cotabato, Philippines",7.35122,125.17087,Globe,213897,189770,213.90,189.77,4,253,100,132
"Alaminos City, Pangasinan, Philippines",16.15053,119.98562,Converge,152043,135165,152.04,135.17,5,253,69,91
"Alabel, Sarangani, Philippines",6.10416,125.28792,PLDT Home Fiber,40605,41849,40.61,41.85,11,252,51,67
"Loboc, Bohol, Philippines",9.64737,124.04187,PLDT,35541,67494,35.54,67.49,21,252,54,74
"Guagua, Pampanga, Philippines",14.96374,120.63244,PLDT,47541,64569,47.54,64.57,11,251,66,97
"Infanta, Quezon, Philippines",14.74071,121.6451,PLDT Home Fiber,129756,129559,129.76,129.56,10,250,48,72
"Panglao, Bohol, Philippines",9.56947,123.78721,Globe,114021,101905,114.02,101.91,12,250,46,81
"Pilar, Bataan, Philippines",14.60553,120.51639,PLDT Home Fiber,147594,109722,147.59,109.72,7,249,55,71
"Bagabag, Nueva Vizcaya, Philippines",16.58337,121.28552,PLDT Home Fiber,82586,95049,82.59,95.05,10,247,36,68
"Talisay, Negros Occidental, Philippines",10.74828,122.98012,Converge,131355,116694,131.36,116.69,13,247,93,116
"Vigan City, Ilocos Sur, Philippines",17.56485,120.38781,PLDT,88773,92659,88.77,92.66,11,246,59,87
"Daraga, Albay, Philippines",13.12278,123.69588,PLDT,78127,98784,78.13,98.78,8,246,99,123
"Ipil, Zamboanga Sibugay, Philippines",7.77318,122.57121,PLDT,63256,66779,63.26,66.78,17,245,69,90
"San Carlos City, Pangasinan, Philippines",15.92589,120.34827,Converge,84551,92686,84.55,92.69,5,245,65,81
"Gattaran, Cagayan, Philippines",18.07365,121.87903,PLDT,34818,36141,34.82,36.14,20,245,60,75
"Polanco, Zamboanga del Norte, Philippines",8.49106,123.38228,PLDT,81218,94442,81.22,94.44,23,244,57,87
"Escalante City, Negros Occidental, Philippines",10.84117,123.49908,PLDT,73531,83090,73.53,83.09,8,243,63,98
"Muñoz, Nueva Ecija, Philippines",15.70664,120.9029,Converge,96528,132369,96.53,132.37,5,243,59,79
"Pinamungahan, Cebu, Philippines",10.26958,123.63996,PLDT,55839,64706,55.84,64.71,7,243,33,51
"Barotac Nuevo, Iloilo, Philippines",10.89705,122.69526,PLDT,30527,41438,30.53,41.44,15,242,35,54
"New Corella, Davao del Norte, Philippines",7.59777,125.84981,Globe,111648,93411,111.65,93.41,14,242,91,139
"Maasin, Southern Leyte, Philippines",10.13272,124.84081,Globe,62875,50533,62.88,50.53,17,241,81,110
"Magalang, Pampanga, Philippines",15.21394,120.66181,Globe,127707,167403,127.71,167.40,4,241,78,108
"Tangub City, Misamis Occidental, Philippines",8.09592,123.6847,PLDT,67899,80991,67.90,80.99,23,240,43,56
"Guinayangan, Quezon, Philippines",13.88505,122.42407,PLDT,74488,206316,74.49,206.32,5,240,20,23
"Calinog, Iloilo, Philippines",11.14579,122.51464,PLDT Home Fiber,123699,91008,123.70,91.01,11,239,20,26
"Teresa, Rizal, Philippines",14.5597,121.20593,PLDT Home Fiber,92821,94722,92.82,94.72,4,239,83,137
"Barotac Viejo, Iloilo, Philippines",11.10187,122.87613,PLDT,31477,35473,31.48,35.47,12,239,41,55
"Tabaco City, Albay, Philippines",13.36138,123.72876,Converge,117183,113483,117.18,113.48,5,239,47,77
"La Paz, Tarlac, Philippines",15.4497,120.7235,Converge,90069,93340,90.07,93.34,5,239,80,107
"Camiling, Tarlac, Philippines",15.67495,120.41272,Converge,71362,101184,71.36,101.18,4,239,42,52
"Aroroy, Masbate, Philippines",12.38843,123.32617,Converge,73940,71796,73.94,71.80,18,239,27,39
"Subic, Zambales, Philippines",14.83066,120.18202,PLDT,70424,57267,70.42,57.27,9,238,55,79
"Alaminos, Laguna, Philippines",14.0454,121.25119,Converge,93367,188247,93.37,188.25,13,238,37,54
"Calbayog, Samar, Philippines",12.0685,124.59081,Globe,64611,56741,64.61,56.74,11,236,45,68
"Quezon, Nueva Ecija, Philippines",15.56953,120.82692,PLDT,49670,52031,49.67,52.03,12,236,83,103
"Nagcarlan, Laguna, Philippines",14.14903,121.38847,PLDT,73717,80827,73.72,80.83,11,236,85,125
"Maitum, Sarangani, Philippines",6.12408,124.48636,PLDT,12501,13851,12.50,13.85,15,236,40,60
"Kibawe, Bukidnon, Philippines",7.48878,125.06084,PLDT Home Fiber,139153,97289,139.15,97.29,7,235,80,114
"Bataraza, Palawan, Philippines",8.5878,117.43215,PLDT Home Fiber,62394,47501,62.39,47.50,22,235,24,25
"Libungan, Cotabato, Philippines",7.31637,124.53068,PLDT Home Fiber,55364,93581,55.36,93.58,10,235,59,77
"Bayombong, Nueva Vizcaya, Philippines",16.48042,121.14813,PLDT,55406,56029,55.41,56.03,7,235,84,118
"Padre Garcia, Batangas, Philippines",13.87668,121.24547,PLDT Home Fiber,213146,247937,213.15,247.94,7,235,38,62
"Malaybalay City, Bukidnon, Philippines",8.15775,125.17087,Converge,83681,91958,83.68,91.96,9,235,64,84
"Mabini, Batangas, Philippines",13.72355,120.9073,Converge,104841,157158,104.84,157.16,7,235,36,46
"Pilar, Bohol, Philippines",9.84115,124.35324,PLDT,75550,87666,75.55,87.67,17,234,69,89
"Tubungan, Iloilo, Philippines",10.80645,122.29941,PLDT,44983,42002,44.98,42.00,15,233,36,44
"Bacacay, Albay, Philippines",13.29586,123.87462,PLDT,50141,38590,50.14,38.59,12,233,46,52
"Gandara, Samar, Philippines",12.06444,124.79617,PLDT Home Fiber,26119,21092,26.12,21.09,22,232,23,27
"Toledo, Cebu, Philippines",10.38705,123.65017,PLDT Home Fiber,77222,75856,77.22,75.86,4,232,39,55
"Agoo, La Union, Philippines",16.3247,120.35508,PLDT,90187,150481,90.19,150.48,4,231,37,56
"Sara, Iloilo, Philippines",11.28199,123.01136,PLDT Home Fiber,50737,50907,50.74,50.91,11,231,27,35
"Toboso, Negros Occidental, Philippines",10.71769,123.46077,PLDT Home Fiber,85765,92414,85.77,92.41,5,231,50,76
"Lucena City, Quezon, Philippines",13.94139,121.62345,Globe,94122,88553,94.12,88.55,9,231,47,56
"Nasugbu, Batangas, Philippines",14.09404,120.68901,Converge,153310,173055,153.31,173.06,7,230,63,118
"Murcia, Negros Occidental, Philippines",10.60643,123.03944,Converge,121481,83450,121.48,83.45,13,229,29,37
"Dumaguete City, Negros Oriental, Philippines",9.29841,123.29249,Converge,107779,93418,107.78,93.42,16,229,82,114
"Mamburao, Occidental Mindoro, Philippines",13.27653,120.643,Converge,75599,93459,75.60,93.46,14,229,80,99
"Ronda, Cebu, Philippines",9.99214,123.44956,PLDT Home Fiber,206991,175027,206.99,175.03,5,227,72,108
"Gerona, Tarlac, Philippines",15.60489,120.59698,Converge,89138,94078,89.14,94.08,4,227,74,103
"Nueva Valencia, Guimaras, Philippines",10.46356,122.54859,PLDT Home Fiber,119697,92617,119.70,92.62,11,227,20,30
"San Antonio, Quezon, Philippines",13.89506,121.29697,Globe,133514,108112,133.51,108.11,8,226,91,141
"San Rafael, Bulacan, Philippines",15.00184,120.93141,PLDT,93579,88840,93.58,88.84,6,225,67,82
"Dagupan City, Pangasinan, Philippines",16.03375,120.33202,Globe,117427,106792,117.43,106.79,5,225,49,61
"Angat, Bulacan, Philippines",14.92586,121.02204,Converge,90520,89659,90.52,89.66,7,225,52,74
"Bayawan City, Negros Oriental, Philippines",9.53644,122.7633,PLDT,73705,62345,73.71,62.35,11,224,41,50
"Candon City, Ilocos Sur, Philippines",17.19612,120.44729,PLDT Home Fiber,73714,101695,73.71,101.70,12,224,48,57
"Kabayan, Benguet, Philippines",16.61702,120.82692,PLDT Home Fiber,92417,94503,92.42,94.50,5,223,84,123
"Banayoyo, Ilocos Sur, Philippines",17.23507,120.49912,Converge,95098,101501,95.10,101.50,9,223,51,90
"Pigkawayan, Cotabato, Philippines",7.27922,124.43092,PLDT Home Fiber,108325,73796,108.33,73.80,12,222,60,97
"Mariveles, Bataan, Philippines",14.4354,120.49003,Globe,150454,156970,150.45,156.97,12,222,35,50
"Zaragoza, Nueva Ecija, Philippines",15.46003,120.79246,PLDT Home Fiber,99178,90231,99.18,90.23,11,222,54,94
"Hinigaran, Negros Occidental, Philippines",10.27479,122.92123,PLDT Home Fiber,72986,52925,72.99,52.93,11,221,41,51
"Panabo City, Davao del Norte, Philippines",7.30822,125.68662,Converge,153748,209836,153.75,209.84,4,221,58,77
"Santa Ana, Pampanga, Philippines",15.09442,120.76623,Globe,153635,122264,153.64,122.26,5,221,76,111
"Cavite, Philippines",14.48151,120.90833,Globe,288967,242707,288.97,242.71,4,220,29,47
"Malvar, Batangas, Philippines",14.04329,121.15875,Converge,163537,160004,163.54,160.00,7,219,52,85
"Calaca, Batangas, Philippines",13.93129,120.80724,PLDT Home Fiber,29790,28507,29.79,28.51,8,219,42,56
"Minalin, Pampanga, Philippines",14.97052,120.68518,PLDT Home Fiber,94092,93413,94.09,93.41,7,218,49,80
"Calbayog, Samar, Philippines",12.0685,124.59081,PLDT Home Fiber,126929,158858,126.93,158.86,14,218,41,56
"Kapalong, Davao del Norte, Philippines",7.82951,125.522,PLDT Home Fiber,48254,64872,48.25,64.87,12,217,45,58
"Bagumbayan, Sultan Kudarat, Philippines",6.4606,124.55284,PLDT Home Fiber,45424,45273,45.42,45.27,19,217,30,37
"Pagsanjan, Laguna, Philippines",14.26244,121.45704,PLDT,55378,65834,55.38,65.83,12,217,69,101
"Malasiqui, Pangasinan, Philippines",15.92028,120.41443,Converge,97632,129644,97.63,129.64,5,217,40,51
"Iriga City, Camarines Sur, Philippines",13.42095,123.41361,PLDT Home Fiber,84353,116541,84.35,116.54,8,217,56,76
"Balud, Masbate, Philippines",12.04326,123.23632,Converge,57376,82900,57.38,82.90,6,217,8,14
"Alfonso Lista, Ifugao, Philippines",16.98852,121.49132,PLDT Home Fiber,69615,94036,69.62,94.04,12,217,51,89
"Mapandan, Pangasinan, Philippines",16.02726,120.45379,PLDT Home Fiber,95216,94256,95.22,94.26,8,216,68,89
"Noveleta, Cavite, Philippines",14.42785,120.88009,PLDT Home Fiber,112436,120265,112.44,120.27,6,216,57,75
"Bulan, Sorsogon, Philippines",12.70367,123.90809,PLDT,108880,91852,108.88,91.85,19,214,38,53
"City of Tayabas, Quezon, Philippines",14.01135,121.55983,PLDT,133724,121021,133.72,121.02,7,214,44,59
"Alfonso, Cavite, Philippines",14.1214,120.86138,PLDT,187232,193488,187.23,193.49,8,213,45,70
"Dumanjug, Cebu, Philippines",10.02819,123.47198,PLDT Home Fiber,134535,117909,134.54,117.91,4,213,65,95
"Atimonan, Quezon, Philippines",13.96507,121.87903,PLDT Home Fiber,116863,117853,116.86,117.85,5,213,33,51
"New Corella, Davao del Norte, Philippines",7.59777,125.84981,PLDT Home Fiber,82897,70894,82.90,70.89,10,212,45,67
"Bacong, Negros Oriental, Philippines",9.24338,123.27003,PLDT Home Fiber,101412,133215,101.41,133.22,8,212,44,60
"Nasugbu, Batangas, Philippines",14.09404,120.68901,PLDT,66702,119833,66.70,119.83,8,212,52,72
"General Mariano Alvarez, Cavite, Philippines",14.29525,121.0071,Converge,212056,231090,212.06,231.09,7,212,67,109
