Location Name,Latitude,Longitude,Provider,Download Speed,Upload Speed,Download Speed Mbps,Upload Speed Mbps,Minimum Latency,Test Count,Sample Count,User Count
"Quezon City, Metro Manila, Philippines",14.64879,121.05094,PLDT Home Fiber,108933,137701,108.93,137.70,3,137414,30766,45212
"Quezon City, Metro Manila, Philippines",14.64879,121.05094,Converge,201187,194303,201.19,194.30,4,123102,29605,43395
"Quezon City, Metro Manila, Philippines",14.64879,121.05094,Globe,162903,139095,162.90,139.10,5,71206,18663,28217
"Manila, Metro Manila, Philippines",14.59951,120.98423,Converge,207132,186747,207.13,186.75,4,67463,15149,26022
"Davao City, Davao del Sur, Philippines",7.06475,125.60884,PLDT Home Fiber,96284,95839,96.28,95.84,8,66181,14994,21930
"Manila, Metro Manila, Philippines",14.59951,120.98423,PLDT Home Fiber,93933,101119,93.93,101.12,6,59390,12671,18898
"Cebu City, Cebu, Philippines",10.29261,123.90219,PLDT Home Fiber,94547,100384,94.55,100.38,7,54905,11055,16230
"Davao City, Davao del Sur, Philippines",7.06475,125.60884,Globe,122343,138096,122.34,138.10,5,53718,12066,16240
"Quezon City, Metro Manila, Philippines",14.64879,121.05094,PLDT,73488,71867,73.49,71.87,8,50728,12825,19133
"Valenzuela, Metro Manila, Philippines",14.69247,120.96991,Converge,211161,202543,211.16,202.54,3,50500,11546,19647
"Taguig, Metro Manila, Philippines",14.53063,121.05755,Converge,207523,206201,207.52,206.20,4,48286,11221,17391
"Parañaque, Metro Manila, Philippines",14.47929,121.01985,Converge,217489,209369,217.49,209.37,4,45442,11389,18167
"Cebu City, Cebu, Philippines",10.29261,123.90219,PLDT,81491,88945,81.49,88.95,9,43125,9174,13252
"Cebu City, Cebu, Philippines",10.29261,123.90219,Globe,122798,108989,122.80,108.99,6,40181,10562,15728
"Cebu City, Cebu, Philippines",10.29261,123.90219,Converge,168337,170898,168.34,170.90,4,38033,9311,14274
"Marikina, Metro Manila, Philippines",14.63493,121.10195,Converge,208990,203951,208.99,203.95,3,37482,9683,14656
"San Pablo City, Laguna, Philippines",14.06422,121.32326,Converge,195657,187285,195.66,187.29,5,34690,8141,13999
"Pasig, Metro Manila, Philippines",14.56082,121.0776,PLDT Home Fiber,120286,130388,120.29,130.39,3,32455,8048,12222
"Biñan, Laguna, Philippines",14.31456,121.08316,PLDT,96866,118303,96.87,118.30,9,32111,7315,12363
"Manila, Metro Manila, Philippines",14.59951,120.98423,PLDT,87860,87141,87.86,87.14,6,30985,7861,11199
"Parañaque, Metro Manila, Philippines",14.47929,121.01985,PLDT Home Fiber,96801,118845,96.80,118.85,5,30721,6157,8570
"Las Piñas, Metro Manila, Philippines",14.44934,120.98186,PLDT Home Fiber,96257,129270,96.26,129.27,6,29218,4746,6340
"Pasig, Metro Manila, Philippines",14.56082,121.0776,Converge,125446,122560,125.45,122.56,3,28106,7160,9428
"Calamba, Laguna, Philippines",14.19488,121.15974,Converge,157123,131884,157.12,131.88,6,27993,6732,10462
"Davao City, Davao del Sur, Philippines",7.06475,125.60884,Converge,114014,111408,114.01,111.41,3,26358,6576,9687
"Baguio, Benguet, Philippines",16.41297,120.5914,PLDT Home Fiber,93582,96001,93.58,96.00,6,26078,6181,9387
"Cagayan De Oro City, Misamis Oriental, Philippines",8.48029,124.64975,Globe,107615,89202,107.62,89.20,8,25386,5515,8080
"Antipolo City, 1870 Rizal, Philippines",14.58584,121.17569,PLDT Home Fiber,104639,130460,104.64,130.46,3,25246,5791,8585
"Makati City, Metro Manila, Philippines",14.55474,121.02444,PLDT,73436,74723,73.44,74.72,11,24384,6681,10037
"Pasay City, Metro Manila, Philippines",14.53767,121.00081,PLDT Home Fiber,97213,105517,97.21,105.52,5,23728,5589,8307
"Caloocan, Metro Manila, Philippines",14.65136,120.99022,PLDT Home Fiber,104167,144325,104.17,144.33,3,23583,5540,7678
"Iligan City, Lanao del Norte, Philippines",8.22707,124.46418,PLDT Home Fiber,90032,91719,90.03,91.72,7,23060,4509,6609
"Parañaque, Metro Manila, Philippines",14.47929,121.01985,PLDT,93915,95191,93.92,95.19,5,22764,6279,9474
"Makati City, Metro Manila, Philippines",14.55474,121.02444,PLDT Home Fiber,100160,122836,100.16,122.84,4,22397,5082,7365
"Taguig, Metro Manila, Philippines",14.53063,121.05755,Globe,158952,140121,158.95,140.12,4,21657,6253,9848
"Cainta, Rizal, Philippines",14.58056,121.11565,PLDT Home Fiber,115413,156807,115.41,156.81,3,21608,5122,7429
"Caloocan, Metro Manila, Philippines",14.65136,120.99022,Converge,194733,197396,194.73,197.40,4,21202,3564,5477
"Mandaluyong City, Metro Manila, Philippines",14.57627,121.03924,Converge,210948,203711,210.95,203.71,3,20501,5649,8665
"Polangui, Albay, Philippines",13.29368,123.48542,Converge,110169,93968,110.17,93.97,9,19919,4322,7932
"Antipolo City, 1870 Rizal, Philippines",14.58584,121.17569,Converge,209893,208872,209.89,208.87,3,19418,5264,7694
"Cagayan De Oro City, Misamis Oriental, Philippines",8.48029,124.64975,PLDT Home Fiber,93098,94349,93.10,94.35,7,19409,4409,6708
"Mexico, Pampanga, Philippines",15.06457,120.72033,Converge,120343,119689,120.34,119.69,3,18576,4955,7735
"Davao City, Davao del Sur, Philippines",7.06475,125.60884,PLDT,93798,94134,93.80,94.13,8,17934,4764,6785
"Taguig, Metro Manila, Philippines",14.53063,121.05755,PLDT Home Fiber,139315,163546,139.32,163.55,4,17572,3816,5221
"Muntinlupa, Metro Manila, Philippines",14.39453,121.04483,PLDT,94749,97594,94.75,97.59,5,17428,3894,5664
"Bacoor, Cavite, Philippines",14.43122,120.96567,PLDT Home Fiber,111111,120255,111.11,120.26,5,17319,3709,5157
"Angeles, Pampanga, Philippines",15.16061,120.60908,Converge,103070,106565,103.07,106.57,3,17111,4208,6182
"Capas, Tarlac, Philippines",15.34633,120.59344,Converge,119683,122052,119.68,122.05,3,16196,4426,7125
"Malabon, Metro Manila, Philippines",14.65793,120.95118,PLDT Home Fiber,99102,112964,99.10,112.96,3,15238,3852,5608
"Valenzuela, Metro Manila, Philippines",14.69247,120.96991,PLDT Home Fiber,109648,138937,109.65,138.94,3,14828,3550,4891
"Pandi, Bulacan, Philippines",14.87572,120.95941,Converge,147058,105186,147.06,105.19,7,14590,3722,5716
"Imus, Cavite, Philippines",14.42764,120.93724,PLDT Home Fiber,126615,148390,126.62,148.39,4,14324,3658,5287
"Batangas City, Batangas, Philippines",13.75641,121.05833,Globe,115083,102369,115.08,102.37,9,14251,3573,5507
"Tarlac City, Tarlac, Philippines",15.48808,120.58719,Converge,98468,99054,98.47,99.05,4,14196,3677,5801
"Iloilo City, Iloilo, Philippines",10.73019,122.55911,Globe,107585,97318,107.59,97.32,10,13875,3281,5024
"Pasig, Metro Manila, Philippines",14.56082,121.0776,Globe,239784,209606,239.78,209.61,5,13804,3368,4950
"Dasmariñas, Cavite, Philippines",14.33385,120.95423,PLDT Home Fiber,110767,139522,110.77,139.52,5,13720,2782,4228
"Taguig, Metro Manila, Philippines",14.53063,121.05755,PLDT,82340,84638,82.34,84.64,8,13452,3569,5081
"Concepcion, Tarlac, Philippines",15.324,120.65596,Converge,107408,113718,107.41,113.72,3,13310,3587,5825
"Tanauan City, Batangas, Philippines",14.08354,121.14762,PLDT Home Fiber,98840,98963,98.84,98.96,7,13295,3472,5411
"Lipa City, Batangas, Philippines",13.94047,121.19395,PLDT Home Fiber,99378,108595,99.38,108.60,7,12754,2987,4585
"Santa Maria, Bulacan, Philippines",14.82898,120.97616,Converge,156085,114836,156.09,114.84,7,12728,3419,5255
"General Trias, Cavite, Philippines",14.38159,120.87915,Converge,180987,185328,180.99,185.33,6,12696,3332,5280
"Bacolod, Negros Occidental, Philippines",10.66764,122.94556,Globe,115341,105004,115.34,105.00,9,12532,2671,3803
"Bacolod, Negros Occidental, Philippines",10.66764,122.94556,PLDT Home Fiber,88890,93280,88.89,93.28,14,12387,2666,3842
"Arayat, Pampanga, Philippines",15.15443,120.771,Converge,136154,156354,136.15,156.35,4,12096,3278,5450
"La Trinidad, Benguet, Philippines",16.44844,120.59047,Converge,103927,107830,103.93,107.83,3,11996,3056,4449
"Anao, Tarlac, Philippines",15.7435,120.61424,Globe,162105,135664,162.11,135.66,6,11605,2849,4423
"San Fernando, Pampanga, Philippines",15.02781,120.69349,Converge,95644,99318,95.64,99.32,4,11545,3194,4397
"Imus, Cavite, Philippines",14.42764,120.93724,Converge,164086,192811,164.09,192.81,6,11508,2302,3595
"Makati City, Metro Manila, Philippines",14.55474,121.02444,Converge,169767,172852,169.77,172.85,4,10998,2776,4175
"Muntinlupa, Metro Manila, Philippines",14.39453,121.04483,PLDT Home Fiber,113641,109353,113.64,109.35,4,10951,2309,3462
"Muntinlupa, Metro Manila, Philippines",14.39453,121.04483,Converge,214558,207428,214.56,207.43,5,10933,3011,4653
"Magpet, Cotabato, Philippines",7.1332,125.17087,PLDT Home Fiber,97301,97118,97.30,97.12,8,10800,3205,4508
"Bago, Negros Occidental, Philippines",10.53757,122.83609,Converge,157749,129788,157.75,129.79,13,10478,2636,4560
"SJDM, Bulacan, Philippines",14.82867,121.04324,Converge,131305,117718,131.31,117.72,7,10468,2658,3752
"Pasay City, Metro Manila, Philippines",14.53767,121.00081,PLDT,91907,93645,91.91,93.65,5,10137,2735,4238
"Los Baños, Laguna, Philippines",14.17731,121.22161,PLDT Home Fiber,105527,128896,105.53,128.90,9,9980,2524,3804
"Dasmariñas, Cavite, Philippines",14.33385,120.95423,Globe,158242,135569,158.24,135.57,5,9818,2922,4392
"Naga City, Camarines Sur, Philippines",13.6475,123.27003,Converge,88877,82323,88.88,82.32,10,9796,1767,2861
"Bulakan, Bulacan, Philippines",14.79484,120.87889,PLDT Home Fiber,99787,101574,99.79,101.57,6,9595,2558,3948
"Murcia, Negros Occidental, Philippines",10.60643,123.03944,Globe,115122,103862,115.12,103.86,6,9589,2846,4344
"Makati City, Metro Manila, Philippines",14.55474,121.02444,Globe,160105,136731,160.11,136.73,4,9550,2445,3523
"General Trias, Cavite, Philippines",14.38159,120.87915,PLDT Home Fiber,115382,126401,115.38,126.40,5,9377,2145,3114
"San Fernando, Pampanga, Philippines",15.02781,120.69349,PLDT Home Fiber,107239,100509,107.24,100.51,7,9247,2247,3258
"Carmona, Cavite, Philippines",14.3135,121.05712,PLDT,99611,132319,99.61,132.32,8,9201,2240,3616
"Tarlac City, Tarlac, Philippines",15.48808,120.58719,Globe,119303,107105,119.30,107.11,5,9025,2271,3554
"San Juan City, Metro Manila, Philippines",14.60196,121.0355,PLDT,75942,70937,75.94,70.94,11,8915,2625,3916
"Butuan City, Agusan Del Norte, Philippines",8.94753,125.54063,PLDT Home Fiber,83564,91504,83.56,91.50,9,8820,1572,2283
"Danao, Cebu, Philippines",10.52013,124.02712,Globe,102573,96615,102.57,96.62,7,8681,2564,3998
"Butuan City, Agusan Del Norte, Philippines",8.94753,125.54063,Globe,106815,64899,106.82,64.90,12,8528,2035,2857
"Silang, Cavite, Philippines",14.22025,120.96469,PLDT Home Fiber,103127,103062,103.13,103.06,5,8343,2039,3155
"Claveria, Misamis Oriental, Philippines",8.62972,124.90655,Converge,127112,125218,127.11,125.22,8,8277,2090,3227
"Bacoor, Cavite, Philippines",14.43122,120.96567,PLDT,91221,92131,91.22,92.13,9,8247,2126,3174
"Baguio, Benguet, Philippines",16.41297,120.5914,Converge,94908,97983,94.91,97.98,4,8183,1953,2723
"Iloilo City, Iloilo, Philippines",10.73019,122.55911,Converge,109941,101283,109.94,101.28,13,8125,1598,2425
"Itogon, Benguet, Philippines",16.36116,120.6787,PLDT Home Fiber,94855,98660,94.86,98.66,6,7988,2242,3495
"Bacolor, Pampanga, Philippines",14.99692,120.65235,PLDT Home Fiber,103451,98619,103.45,98.62,7,7899,2302,3636
"Victoria, Tarlac, Philippines",15.59077,120.68901,Globe,67495,61918,67.50,61.92,5,7836,1648,3514
"Cabanatuan City, Nueva Ecija, Philippines",15.49943,121.01057,Globe,117610,106245,117.61,106.25,5,7830,1841,2817
"Sariaya, Quezon, Philippines",13.96301,121.52388,Converge,213636,209145,213.64,209.15,4,7805,1971,3196
"Itogon, Benguet, Philippines",16.36116,120.6787,PLDT,95906,99854,95.91,99.85,6,7801,2232,3444
"Caloocan, Metro Manila, Philippines",14.65136,120.99022,PLDT,91573,94094,91.57,94.09,4,7762,1920,2845
"Dasmariñas, Cavite, Philippines",14.33385,120.95423,Converge,178691,170332,178.69,170.33,5,7690,1916,2953
"Navotas, Metro Manila, Philippines",14.65819,120.94743,Converge,191801,191630,191.80,191.63,4,7662,1632,2787
"Bacolod, Negros Occidental, Philippines",10.66764,122.94556,Converge,125743,113893,125.74,113.89,13,7456,1634,2366
"Consolacion, Cebu, Philippines",10.37581,123.95694,Converge,180631,194330,180.63,194.33,2,7430,2042,3038
"Taytay, Rizal, Philippines",14.55288,121.12571,PLDT Home Fiber,108035,155385,108.04,155.39,4,7403,1832,2538
"San Pablo City, Laguna, Philippines",14.06422,121.32326,PLDT Home Fiber,100977,134907,100.98,134.91,6,7317,1694,2568
"San Juan City, Metro Manila, Philippines",14.60196,121.0355,PLDT Home Fiber,118357,138928,118.36,138.93,3,7205,1814,2553
"Iloilo City, Iloilo, Philippines",10.73019,122.55911,PLDT Home Fiber,89920,92091,89.92,92.09,16,7100,1286,1959
"Pandi, Bulacan, Philippines",14.87572,120.95941,PLDT Home Fiber,96967,98636,96.97,98.64,8,7073,1845,2610
"Calamba, Laguna, Philippines",14.19488,121.15974,PLDT Home Fiber,105422,123274,105.42,123.27,8,7040,1721,2527
"San Juan City, Metro Manila, Philippines",14.60196,121.0355,Converge,174421,169150,174.42,169.15,3,7024,2049,3082
"Candelaria, Quezon, Philippines",13.94899,121.42276,Converge,191674,199575,191.67,199.58,4,7006,1778,2957
"Iligan City, Lanao del Norte, Philippines",8.22707,124.46418,Converge,127502,119960,127.50,119.96,7,7003,2015,2916
"Calamba, Laguna, Philippines",14.19488,121.15974,PLDT,90560,94062,90.56,94.06,10,6979,1560,2396
"Tarlac City, Tarlac, Philippines",15.48808,120.58719,PLDT,83863,87381,83.86,87.38,9,6816,1461,2184
"Caloocan, Metro Manila, Philippines",14.65136,120.99022,Globe,168424,134629,168.42,134.63,5,6667,1847,2546
"New Lucena, Iloilo, Philippines",10.87841,122.59781,Converge,148569,127863,148.57,127.86,12,6644,1555,2807
"Bago, Negros Occidental, Philippines",10.53757,122.83609,PLDT Home Fiber,97573,131955,97.57,131.96,13,6627,1814,2912
"Baguio, Benguet, Philippines",16.41297,120.5914,PLDT,90648,91994,90.65,91.99,6,6623,1808,2711
"Tagaytay City, Cavite, Philippines",14.11541,120.96202,Converge,125075,106877,125.08,106.88,6,6619,1379,2222
"Subic Bay Freeport Zone, Philippines",14.80319,120.30033,Converge,140321,112214,140.32,112.21,5,6588,1767,2612
"Cagayan De Oro City, Misamis Oriental, Philippines",8.48029,124.64975,Converge,112549,110287,112.55,110.29,9,6557,1531,2155
"Marikina, Metro Manila, Philippines",14.63493,121.10195,PLDT Home Fiber,135618,152771,135.62,152.77,3,6482,1443,2040
"Olongapo City, Zambales, Philippines",14.88739,120.36661,Converge,110009,107704,110.01,107.70,5,6474,1888,2900
"Mandaluyong City, Metro Manila, Philippines",14.57627,121.03924,Globe,200950,165758,200.95,165.76,5,6374,1631,2476
"Bacolod, Negros Occidental, Philippines",10.66764,122.94556,PLDT,67411,74945,67.41,74.95,9,6296,1248,1742
"Bacoor, Cavite, Philippines",14.43122,120.96567,Converge,152749,156437,152.75,156.44,6,6278,1251,1973
"Taytay, Rizal, Philippines",14.55288,121.12571,Converge,215232,216997,215.23,217.00,3,6276,1660,2498
"Parañaque, Metro Manila, Philippines",14.47929,121.01985,Globe,166895,134236,166.90,134.24,4,6105,1684,2251
"Mandaluyong City, Metro Manila, Philippines",14.57627,121.03924,PLDT,64812,49925,64.81,49.93,11,6039,1399,2058
"Digos, Davao del Sur, Philippines",6.74347,125.35515,Converge,107380,105294,107.38,105.29,4,5886,1500,2145
"Las Piñas, Metro Manila, Philippines",14.44934,120.98186,PLDT,86565,90891,86.57,90.89,7,5884,1654,2443
"Biñan, Laguna, Philippines",14.31456,121.08316,PLDT Home Fiber,97556,112530,97.56,112.53,8,5844,1256,1787
"Talakag, Bukidnon, Philippines",8.05293,124.72988,PLDT Home Fiber,93657,95138,93.66,95.14,5,5832,1538,2339
"Murcia, Negros Occidental, Philippines",10.60643,123.03944,PLDT Home Fiber,95253,103433,95.25,103.43,14,5803,1627,2445
"La Paz, Tarlac, Philippines",15.4497,120.7235,Globe,137335,125485,137.34,125.49,5,5742,1600,2655
"Pasig, Metro Manila, Philippines",14.56082,121.0776,PLDT,77586,66026,77.59,66.03,5,5717,1679,2360
"Binangonan, Rizal, Philippines",14.48441,121.1869,PLDT,96267,117855,96.27,117.86,3,5693,1663,2474
"Antipolo City, 1870 Rizal, Philippines",14.58584,121.17569,PLDT,58862,62825,58.86,62.83,8,5681,1415,2150
"San Carlos City, Negros Occidental, Philippines",10.48344,123.30371,PLDT,96515,127240,96.52,127.24,7,5634,1587,2328
"Cainta, Rizal, Philippines",14.58056,121.11565,PLDT,92018,94165,92.02,94.17,6,5566,1554,2191
"Agoncillo, Batangas, Philippines",13.94675,120.93026,Converge,216242,199645,216.24,199.65,7,5554,1350,2293
"Bustos, Bulacan, Philippines",14.95239,120.91735,PLDT Home Fiber,103234,101147,103.23,101.15,8,5542,1424,2003
"San Carlos City, Negros Occidental, Philippines",10.48344,123.30371,PLDT Home Fiber,94558,114656,94.56,114.66,12,5486,1505,2327
"San Nicolas, Pangasinan, Philippines",16.12066,120.78097,PLDT,101848,102676,101.85,102.68,5,5372,1426,2267
"Tanauan City, Batangas, Philippines",14.08354,121.14762,PLDT,91467,94422,91.47,94.42,7,5331,1480,2251
"Mandaluyong City, Metro Manila, Philippines",14.57627,121.03924,PLDT Home Fiber,159778,165275,159.78,165.28,3,5269,1186,1525
"Malolos, Bulacan, Philippines",14.86049,120.80916,PLDT Home Fiber,98767,101646,98.77,101.65,7,5256,1174,1632
"Batangas City, Batangas, Philippines",13.75641,121.05833,PLDT Home Fiber,103985,103501,103.99,103.50,8,5232,1213,1733
"Iloilo City, Iloilo, Philippines",10.73019,122.55911,PLDT,82123,84361,82.12,84.36,10,5222,1247,1810
"Santa Maria, Bulacan, Philippines",14.82898,120.97616,PLDT Home Fiber,94213,94453,94.21,94.45,9,5069,1103,1565
"Cainta, Rizal, Philippines",14.58056,121.11565,Globe,174570,142158,174.57,142.16,5,5058,1287,1744
"Dasmariñas, Cavite, Philippines",14.33385,120.95423,PLDT,90230,95549,90.23,95.55,9,5058,1383,2225
"Calapan City, Oriental Mindoro, Philippines",13.36643,121.19395,Converge,94359,94005,94.36,94.01,10,5055,987,1863
"Nasugbu, Batangas, Philippines",14.09404,120.68901,Globe,115842,104921,115.84,104.92,7,5020,1339,1973
"Calauan, Laguna, Philippines",14.14551,121.3146,Converge,204881,207749,204.88,207.75,4,4884,1311,2255
"Cainta, Rizal, Philippines",14.58056,121.11565,Converge,187998,176597,188.00,176.60,3,4706,1072,1348
"Marikina, Metro Manila, Philippines",14.63493,121.10195,Globe,168856,143804,168.86,143.80,5,4688,1277,1980
"Burgos, La Union, Philippines",16.53803,120.47033,Converge,97982,101132,97.98,101.13,4,4665,1159,1830
"Las Piñas, Metro Manila, Philippines",14.44934,120.98186,Converge,203437,192049,203.44,192.05,5,4660,925,1371
"La Castellana, Negros Occidental, Philippines",10.33198,123.10141,PLDT Home Fiber,95771,127532,95.77,127.53,13,4565,1088,1608
"Urdaneta City, Pangasinan, Philippines",15.98194,120.59698,Converge,95549,95763,95.55,95.76,6,4552,1123,1816
"Magpet, Cotabato, Philippines",7.1332,125.17087,PLDT,99709,98711,99.71,98.71,8,4520,1375,1925
"Kawit, Cavite, Philippines",14.44588,120.90871,PLDT Home Fiber,94970,116918,94.97,116.92,9,4449,1022,1488
"Navotas, Metro Manila, Philippines",14.65819,120.94743,PLDT Home Fiber,95330,112665,95.33,112.67,4,4389,994,1364
"Arayat, Pampanga, Philippines",15.15443,120.771,PLDT Home Fiber,93281,94501,93.28,94.50,10,4317,1012,1589
"City of Santa Rosa, Laguna, Philippines",14.31471,121.11232,PLDT Home Fiber,112399,139235,112.40,139.24,7,4255,805,1149
"Lucena City, Quezon, Philippines",13.94139,121.62345,PLDT Home Fiber,100325,125466,100.33,125.47,5,4180,904,1292
"Lipa City, Batangas, Philippines",13.94047,121.19395,PLDT,99823,101450,99.82,101.45,9,4152,1128,1642
"Santo Domingo, Nueva Ecija, Philippines",15.61284,120.88434,Globe,120404,108481,120.40,108.48,7,4086,1109,1699
"Zamboanga City, Zamboanga del Sur, Philippines",6.90437,122.07612,PLDT Home Fiber,100624,90609,100.62,90.61,11,4003,770,1048
"Manila, Metro Manila, Philippines",14.59951,120.98423,Globe,165515,138537,165.52,138.54,5,3984,987,1375
"General Trias, Cavite, Philippines",14.38159,120.87915,Globe,194734,169881,194.73,169.88,6,3936,996,1519
"Digos, Davao del Sur, Philippines",6.74347,125.35515,PLDT Home Fiber,96429,94990,96.43,94.99,9,3923,1131,1669
"Bacoor, Cavite, Philippines",14.43122,120.96567,Globe,214158,170969,214.16,170.97,6,3857,827,1028
"Angeles, Pampanga, Philippines",15.16061,120.60908,PLDT Home Fiber,108154,107507,108.15,107.51,8,3827,818,1164
"San Mateo, Rizal, Philippines",14.69539,121.11767,PLDT Home Fiber,109609,155386,109.61,155.39,3,3825,850,1197
"Navotas, Metro Manila, Philippines",14.65819,120.94743,Globe,163554,133923,163.55,133.92,5,3810,1128,1750
"General Santos City (Dadiangas), South Cotabato, Philippines",6.14327,125.19286,PLDT Home Fiber,101546,97496,101.55,97.50,10,3803,694,904
"Santa Cruz, Davao del Sur, Philippines",6.83551,125.41659,Converge,133005,129357,133.01,129.36,4,3778,1043,1598
"Calamba, Laguna, Philippines",14.19488,121.15974,Globe,178199,143490,178.20,143.49,6,3750,1063,1517
"Bocaue, Bulacan, Philippines",14.7943,120.93073,PLDT Home Fiber,92639,93539,92.64,93.54,11,3716,665,954
"Pasay City, Metro Manila, Philippines",14.53767,121.00081,Converge,204167,203344,204.17,203.34,4,3708,853,1232
"Valenzuela, Metro Manila, Philippines",14.69247,120.96991,PLDT,91275,93397,91.28,93.40,6,3706,966,1390
"Marilao, Bulacan, Philippines",14.77237,120.96001,PLDT Home Fiber,94915,95615,94.92,95.62,10,3692,908,1314
"Candaba, Pampanga, Philippines",15.09289,120.8277,PLDT Home Fiber,95520,101033,95.52,101.03,8,3678,976,1582
"Mambusao, Capiz, Philippines",11.44257,122.59383,Converge,152348,122318,152.35,122.32,14,3655,783,1526
"Cabuyao City, Laguna, Philippines",14.27433,121.11961,PLDT Home Fiber,112173,113804,112.17,113.80,6,3572,978,1448
"Valenzuela, Metro Manila, Philippines",14.69247,120.96991,Globe,154046,135604,154.05,135.60,4,3556,752,993
"SJDM, Bulacan, Philippines",14.82867,121.04324,PLDT,61316,60764,61.32,60.76,10,3521,879,1233
"Malabon, Metro Manila, Philippines",14.65793,120.95118,Converge,202786,194630,202.79,194.63,4,3499,692,1034
"San Pedro, Laguna, Philippines",14.36443,121.06192,PLDT Home Fiber,129708,152477,129.71,152.48,5,3493,741,963
"Marikina, Metro Manila, Philippines",14.63493,121.10195,PLDT,80026,72543,80.03,72.54,10,3492,847,1220
"Kawit, Cavite, Philippines",14.44588,120.90871,Globe,160882,132230,160.88,132.23,5,3476,987,1399
"Meycauayan, Bulacan, Philippines",14.73772,120.96077,PLDT Home Fiber,96545,99135,96.55,99.14,9,3474,734,1006
"Canlaon City, Negros Oriental, Philippines",10.36048,123.19137,PLDT Home Fiber,96699,123887,96.70,123.89,12,3418,944,1416
"Unisan, Quezon, Philippines",13.86351,122.01555,Converge,109662,104432,109.66,104.43,11,3387,666,1002
"Marilao, Bulacan, Philippines",14.77237,120.96001,Converge,152767,125584,152.77,125.58,7,3298,799,1103
"Angono, Rizal, Philippines",14.52592,121.15321,Converge,249012,246523,249.01,246.52,3,3285,940,1369
"Antipolo City, 1870 Rizal, Philippines",14.58584,121.17569,Globe,159690,146985,159.69,146.99,5,3247,778,1019
"Mexico, Pampanga, Philippines",15.06457,120.72033,PLDT Home Fiber,97122,95676,97.12,95.68,8,3168,773,1208
"La Carlota City, Negros Occidental, Philippines",10.41437,122.97757,Converge,185072,152416,185.07,152.42,16,3155,878,1562
"Taytay, Rizal, Philippines",14.55288,121.12571,PLDT,86115,92409,86.12,92.41,5,3112,855,1263
"Talaingod, Davao del Norte, Philippines",7.68339,125.522,Globe,63736,55924,63.74,55.92,5,3090,1031,1536
"Obando, Bulacan, Philippines",14.70986,120.93674,PLDT Home Fiber,94196,133427,94.20,133.43,6,3087,772,1033
"Tarlac City, Tarlac, Philippines",15.48808,120.58719,PLDT Home Fiber,91614,94180,91.61,94.18,10,2991,818,1192
"Lapu-Lapu, Cebu, Philippines",10.31838,123.96395,Converge,143589,156962,143.59,156.96,3,2984,559,826
"Santo Tomas, Batangas, Philippines",14.08754,121.17764,PLDT Home Fiber,114062,117087,114.06,117.09,9,2980,761,1039
"Rodriguez, Rizal, Philippines",14.73202,121.14516,PLDT Home Fiber,122950,156156,122.95,156.16,4,2968,600,775
"Carmen, Cebu, Philippines",10.58876,123.96385,PLDT Home Fiber,96448,165929,96.45,165.93,5,2966,841,1269
"San Fernando, Pampanga, Philippines",15.02781,120.69349,PLDT,75001,79826,75.00,79.83,11,2963,898,1313
"Las Piñas, Metro Manila, Philippines",14.44934,120.98186,Globe,190787,136961,190.79,136.96,6,2951,682,890
"Kidapawan, Cotabato, Philippines",7.02127,125.09019,PLDT Home Fiber,96456,98955,96.46,98.96,9,2906,754,1106
"Cabanatuan City, Nueva Ecija, Philippines",15.49943,121.01057,PLDT Home Fiber,96996,100277,97.00,100.28,11,2894,654,958
"Talisay, Negros Occidental, Philippines",10.74828,122.98012,Globe,126305,111860,126.31,111.86,13,2891,797,1182
"Dagupan City, Pangasinan, Philippines",16.03375,120.33202,Converge,95527,95530,95.53,95.53,6,2868,647,956
"General Santos City (Dadiangas), South Cotabato, Philippines",6.14327,125.19286,Globe,110008,109936,110.01,109.94,14,2868,324,433
"Matalam, Cotabato, Philippines",7.17236,124.92861,PLDT Home Fiber,95599,95014,95.60,95.01,8,2854,779,1145
"SJDM, Bulacan, Philippines",14.82867,121.04324,PLDT Home Fiber,101694,129204,101.69,129.20,6,2823,650,930
"President Roxas, Cotabato, Philippines",7.37928,125.06084,PLDT Home Fiber,100926,98780,100.93,98.78,8,2810,850,1158
"San Rafael, Bulacan, Philippines",15.00184,120.93141,PLDT Home Fiber,94026,99301,94.03,99.30,6,2799,740,1069
"Nagcarlan, Laguna, Philippines",14.14903,121.38847,PLDT Home Fiber,110469,168654,110.47,168.65,8,2792,652,1009
"Tanza, Cavite, Philippines",14.34293,120.85032,PLDT Home Fiber,118571,164258,118.57,164.26,5,2767,493,638
"Mabalacat City, Pampanga, Philippines",15.24525,120.56567,Converge,101852,102313,101.85,102.31,3,2767,701,950
"Santa Rita, Pampanga, Philippines",14.99762,120.61451,PLDT Home Fiber,110647,101585,110.65,101.59,7,2720,659,1011
"Llanera, Nueva Ecija, Philippines",15.66623,121.01057,Converge,102160,107694,102.16,107.69,6,2694,614,1144
"San Antonio, Nueva Ecija, Philippines",15.31921,120.82692,PLDT Home Fiber,94471,95597,94.47,95.60,10,2690,674,1039
"Kawit, Cavite, Philippines",14.44588,120.90871,PLDT,89044,93553,89.04,93.55,10,2674,730,1146
"Alicia, Isabela, Philippines",16.80691,121.69674,Converge,102909,119507,102.91,119.51,8,2666,559,978
"Cadiz City, Negros Occidental, Philippines",10.86192,123.23632,PLDT Home Fiber,84966,89935,84.97,89.94,14,2630,637,1055
"Danao, Cebu, Philippines",10.52013,124.02712,PLDT Home Fiber,94684,138499,94.68,138.50,5,2622,748,1161
"Subic Bay Freeport Zone, Philippines",14.80319,120.30033,PLDT,75390,75997,75.39,76.00,11,2610,671,968
"San Nicolas, Pangasinan, Philippines",16.12066,120.78097,PLDT Home Fiber,94203,95850,94.20,95.85,5,2593,763,1157
"Bansalan, Davao del Sur, Philippines",6.84825,125.22584,Globe,62065,80790,62.07,80.79,8,2584,881,1355
"Lipa City, Batangas, Philippines",13.94047,121.19395,Converge,165179,153418,165.18,153.42,7,2561,627,1019
"Santa Barbara, Pangasinan, Philippines",15.9774,120.42424,Converge,95316,104323,95.32,104.32,6,2559,667,1119
"Mandaue, Cebu, Philippines",10.3279,123.94273,PLDT Home Fiber,107791,142094,107.79,142.09,3,2558,520,675
"Banga, South Cotabato, Philippines",6.38791,124.79617,PLDT Home Fiber,71710,76435,71.71,76.44,11,2474,535,775
"Lapu-Lapu, Cebu, Philippines",10.31838,123.96395,Globe,128234,126738,128.23,126.74,5,2463,509,656
"Angono, Rizal, Philippines",14.52592,121.15321,PLDT,113037,170905,113.04,170.91,3,2450,737,1124
"San Pedro, Laguna, Philippines",14.36443,121.06192,Converge,183671,165422,183.67,165.42,6,2442,569,962
"Concepcion, Tarlac, Philippines",15.324,120.65596,PLDT Home Fiber,92215,94068,92.22,94.07,10,2440,562,842
"San Mateo, Rizal, Philippines",14.69539,121.11767,Converge,167485,167751,167.49,167.75,4,2378,551,688
"Imus, Cavite, Philippines",14.42764,120.93724,Globe,130004,107951,130.00,107.95,4,2366,678,943
"Talavera, Nueva Ecija, Philippines",15.58575,120.9197,Converge,109267,105877,109.27,105.88,5,2359,575,992
"Diadi, Nueva Vizcaya, Philippines",16.6595,121.33129,Converge,97533,99341,97.53,99.34,9,2356,497,968
"San Manuel, Pangasinan, Philippines",16.10561,120.67751,PLDT Home Fiber,94748,100984,94.75,100.98,7,2331,524,857
"Rosario, Cavite, Philippines",14.41672,120.85471,Converge,147532,149325,147.53,149.33,6,2293,616,1000
"Angono, Rizal, Philippines",14.52592,121.15321,PLDT Home Fiber,103685,121600,103.69,121.60,4,2290,418,568
"Lapu-Lapu, Cebu, Philippines",10.31838,123.96395,PLDT Home Fiber,116589,162792,116.59,162.79,3,2280,497,645
"Bay, Laguna, Philippines",14.14064,121.26836,PLDT Home Fiber,102223,120038,102.22,120.04,4,2269,584,884
"Naga City, Camarines Sur, Philippines",13.6475,123.27003,PLDT Home Fiber,104367,116701,104.37,116.70,8,2260,473,628
"Malolos, Bulacan, Philippines",14.86049,120.80916,PLDT,78270,81796,78.27,81.80,8,2253,578,875
"Batangas City, Batangas, Philippines",13.75641,121.05833,PLDT,92004,93363,92.00,93.36,8,2244,535,800
"Angeles, Pampanga, Philippines",15.16061,120.60908,PLDT,73293,77748,73.29,77.75,9,2226,665,1055
"Compostela, Cebu, Philippines",10.45408,124.013,Globe,63921,56623,63.92,56.62,6,2205,667,1038
"San Antonio, Nueva Ecija, Philippines",15.31921,120.82692,Globe,214122,192697,214.12,192.70,5,2204,636,1007
"Panglao, Bohol, Philippines",9.56947,123.78721,Converge,82777,65188,82.78,65.19,26,2201,160,234
"San Manuel, Pangasinan, Philippines",16.10561,120.67751,PLDT,97085,98333,97.09,98.33,6,2186,617,989
"Quezon, Nueva Ecija, Philippines",15.56953,120.82692,Globe,186639,166775,186.64,166.78,6,2140,578,967
"Rosario, Batangas, Philippines",13.80433,121.28552,Globe,126010,101279,126.01,101.28,8,2136,671,970
"Tuguegarao City, Cagayan, Philippines",17.60306,121.75374,PLDT,83599,80935,83.60,80.94,13,2129,509,724
"Mandaue, Cebu, Philippines",10.3279,123.94273,Globe,162978,133091,162.98,133.09,5,2117,409,526
"Kibungan, Benguet, Philippines",16.68162,120.68901,PLDT Home Fiber,93527,96362,93.53,96.36,6,2116,578,871
"Arayat, Pampanga, Philippines",15.15443,120.771,Globe,121069,106889,121.07,106.89,5,2114,561,869
"San Ildefonso, Bulacan, Philippines",15.07717,120.94171,PLDT Home Fiber,97303,97399,97.30,97.40,7,2112,554,827
"City of Santa Rosa, Laguna, Philippines",14.31471,121.11232,PLDT,84103,85668,84.10,85.67,8,2102,544,789
"Minalin, Pampanga, Philippines",14.97052,120.68518,PLDT Home Fiber,103038,99726,103.04,99.73,7,2100,614,934
"Malvar, Batangas, Philippines",14.04329,121.15875,PLDT Home Fiber,99253,104108,99.25,104.11,9,2099,454,682
"Manaoag, Pangasinan, Philippines",16.04627,120.4876,Converge,113964,109527,113.96,109.53,5,2096,590,949
"San Antonio, Nueva Ecija, Philippines",15.31921,120.82692,Converge,142699,156704,142.70,156.70,4,2091,571,916
"Cabiao, Nueva Ecija, Philippines",15.25221,120.85957,PLDT Home Fiber,96916,97671,96.92,97.67,10,2069,537,914
"Tuburan, Cebu, Philippines",10.66879,123.86345,Globe,125854,107894,125.85,107.89,19,2051,578,791
"Cabuyao City, Laguna, Philippines",14.27433,121.11961,PLDT,93529,96471,93.53,96.47,8,2048,485,714
"Polomolok, South Cotabato, Philippines",6.22451,125.06084,PLDT Home Fiber,87135,93090,87.14,93.09,10,2036,351,489
"Mauban, Quezon, Philippines",14.23756,121.69674,Converge,158929,166087,158.93,166.09,11,2025,443,785
"Zamboanga City, Zamboanga del Sur, Philippines",6.90437,122.07612,Globe,94356,61135,94.36,61.14,14,2010,326,456
"Bago, Negros Occidental, Philippines",10.53757,122.83609,Globe,122225,110073,122.23,110.07,4,2001,593,864
"Silang, Cavite, Philippines",14.22025,120.96469,PLDT,96912,101081,96.91,101.08,8,1991,497,738
"General Trias, Cavite, Philippines",14.38159,120.87915,PLDT,99489,138779,99.49,138.78,8,1966,363,459
"San Simon, Pampanga, Philippines",14.98432,120.75127,PLDT Home Fiber,92837,95248,92.84,95.25,9,1957,421,675
"San Juan, Batangas, Philippines",13.75044,121.37703,PLDT Home Fiber,93410,104940,93.41,104.94,7,1948,487,730
"Navotas, Metro Manila, Philippines",14.65819,120.94743,PLDT,87002,87327,87.00,87.33,6,1935,514,770
"Candelaria, Quezon, Philippines",13.94899,121.42276,PLDT Home Fiber,92625,98974,92.63,98.97,7,1920,507,751
"Lapu-Lapu, Cebu, Philippines",10.31838,123.96395,PLDT,83166,89794,83.17,89.79,3,1913,448,637
"Cabanatuan City, Nueva Ecija, Philippines",15.49943,121.01057,PLDT,79077,78989,79.08,78.99,10,1894,452,669
"Koronadal, South Cotabato, Philippines",6.50044,124.84333,PLDT Home Fiber,97093,96265,97.09,96.27,10,1892,338,431
"Liloan, Cebu, Philippines",10.39926,124.00002,Globe,136756,118045,136.76,118.05,6,1891,411,622
"Rodriguez, Rizal, Philippines",14.73202,121.14516,Converge,172720,170312,172.72,170.31,4,1880,473,594
"Tagaytay City, Cavite, Philippines",14.11541,120.96202,PLDT,91672,97944,91.67,97.94,9,1879,506,781
"Subic, Zambales, Philippines",14.83066,120.18202,Converge,105329,105574,105.33,105.57,5,1828,562,865
"San Pedro, Laguna, Philippines",14.36443,121.06192,PLDT,107012,111675,107.01,111.68,7,1820,415,536
"Malasiqui, Pangasinan, Philippines",15.92028,120.41443,PLDT Home Fiber,96079,147245,96.08,147.25,9,1793,437,675
"Mandaue, Cebu, Philippines",10.3279,123.94273,Converge,169944,143353,169.94,143.35,3,1764,422,627
"Imus, Cavite, Philippines",14.42764,120.93724,PLDT,102855,116098,102.86,116.10,7,1749,417,561
"Dagupan City, Pangasinan, Philippines",16.03375,120.33202,PLDT Home Fiber,96455,99323,96.46,99.32,6,1745,440,681
"Lucena City, Quezon, Philippines",13.94139,121.62345,PLDT,89829,95285,89.83,95.29,6,1743,438,677
"La Trinidad, Benguet, Philippines",16.44844,120.59047,PLDT Home Fiber,93918,97595,93.92,97.60,8,1741,394,576
"Sablan, Benguet, Philippines",16.49609,120.48794,Converge,99536,105174,99.54,105.17,4,1739,497,792
"San Jose City, Nueva Ecija, Philippines",15.79188,120.99008,PLDT,72402,73281,72.40,73.28,12,1715,279,406
"Baliwag, Bulacan, Philippines",14.96569,120.89431,PLDT Home Fiber,97918,112589,97.92,112.59,7,1711,406,608
"Cuyapo, Nueva Ecija, Philippines",15.79995,120.68901,Globe,60887,53381,60.89,53.38,6,1701,374,835
"Lucena City, Quezon, Philippines",13.94139,121.62345,Converge,106194,101034,106.19,101.03,10,1699,326,515
"Balamban, Cebu, Philippines",10.48585,123.77412,Globe,124830,107566,124.83,107.57,7,1691,493,802
"Cardona, Rizal, Philippines",14.48493,121.232,PLDT,104245,152223,104.25,152.22,3,1685,513,846
"Porac, Pampanga, Philippines",15.06974,120.55007,PLDT Home Fiber,98609,100827,98.61,100.83,7,1661,359,536
"Toledo, Cebu, Philippines",10.38705,123.65017,Globe,157103,128679,157.10,128.68,16,1656,515,689
"Talisay, Cebu, Philippines",10.25859,123.82413,PLDT Home Fiber,125846,144124,125.85,144.12,4,1655,265,350
"Magsaysay, Davao del Sur, Philippines",6.75271,125.15221,PLDT Home Fiber,105411,99243,105.41,99.24,9,1649,497,748
"Liloan, Cebu, Philippines",10.39926,124.00002,Converge,166773,170953,166.77,170.95,3,1643,464,636
"City of Tayabas, Quezon, Philippines",14.01135,121.55983,PLDT Home Fiber,100594,135847,100.59,135.85,7,1641,378,592
"San Jose City, Nueva Ecija, Philippines",15.79188,120.99008,PLDT Home Fiber,88699,84580,88.70,84.58,13,1636,241,348
"Tuguegarao City, Cagayan, Philippines",17.60306,121.75374,Converge,63877,55178,63.88,55.18,12,1630,316,480
"Kapangan, Benguet, Philippines",16.61238,120.59698,PLDT Home Fiber,94240,97709,94.24,97.71,6,1627,474,733
"Orani, Bataan, Philippines",14.80086,120.53616,Converge,94252,98000,94.25,98.00,6,1603,458,684
"Lipa City, Batangas, Philippines",13.94047,121.19395,Globe,143266,111722,143.27,111.72,7,1597,473,635
"La Paz, Tarlac, Philippines",15.4497,120.7235,PLDT Home Fiber,94793,95183,94.79,95.18,9,1589,369,569
"Palo, Leyte, Philippines",11.15847,124.99191,PLDT,66877,75634,66.88,75.63,20,1570,195,286
"Silang, Cavite, Philippines",14.22025,120.96469,Converge,125113,132417,125.11,132.42,7,1568,309,447
"Old Kaabakan, Philippines",7.22147,124.85635,PLDT Home Fiber,97997,97790,98.00,97.79,8,1562,461,670
"Tuba, Benguet, Philippines",16.39277,120.56034,PLDT Home Fiber,95459,96963,95.46,96.96,6,1559,426,707
"Puerto Princesa City, Palawan, Philippines",9.78563,118.62648,PLDT Home Fiber,89934,99340,89.93,99.34,22,1558,272,386
"General Santos City (Dadiangas), South Cotabato, Philippines",6.14327,125.19286,PLDT,65204,64771,65.20,64.77,10,1550,342,478
"Bulakan, Bulacan, Philippines",14.79484,120.87889,PLDT,82815,92526,82.82,92.53,5,1543,416,665
"Tacloban City, Leyte, Philippines",11.22238,124.99221,PLDT,79238,85622,79.24,85.62,15,1537,365,513
"Danao, Cebu, Philippines",10.52013,124.02712,PLDT,56832,60961,56.83,60.96,7,1535,216,279
"Talisay, Cebu, Philippines",10.25859,123.82413,Globe,140078,123796,140.08,123.80,8,1523,306,374
"Iligan City, Lanao del Norte, Philippines",8.22707,124.46418,Globe,105663,57399,105.66,57.40,14,1515,225,279
"Bansalan, Davao del Sur, Philippines",6.84825,125.22584,PLDT Home Fiber,105494,96165,105.49,96.17,9,1496,491,750
"Naic, Cavite, Philippines",14.29649,120.79246,PLDT,87687,92263,87.69,92.26,7,1495,370,524
"San Jose City, Nueva Ecija, Philippines",15.79188,120.99008,Converge,105587,108018,105.59,108.02,5,1487,311,441
"Candaba, Pampanga, Philippines",15.09289,120.8277,Globe,129717,116072,129.72,116.07,6,1481,369,538
"Tagum, Davao del Norte, Philippines",7.44742,125.80246,PLDT Home Fiber,94243,100213,94.24,100.21,8,1472,386,544
"Lucban, Quezon, Philippines",14.1144,121.55472,PLDT Home Fiber,97844,109467,97.84,109.47,7,1456,303,494
"Talisay, Negros Occidental, Philippines",10.74828,122.98012,PLDT Home Fiber,92970,97853,92.97,97.85,14,1447,283,417
"Malabon, Metro Manila, Philippines",14.65793,120.95118,PLDT,92818,93619,92.82,93.62,5,1442,376,585
"Antipas, Cotabato, Philippines",7.27386,125.01679,PLDT Home Fiber,98190,98852,98.19,98.85,8,1436,479,686
"Calatrava, Negros Occidental, Philippines",10.62843,123.39349,PLDT,91801,101744,91.80,101.74,8,1431,371,565
"Daet, Camarines Norte, Philippines",14.10303,122.9325,PLDT,72775,76838,72.78,76.84,7,1418,202,273
"Marilao, Bulacan, Philippines",14.77237,120.96001,PLDT,57510,56045,57.51,56.05,15,1406,383,554
"Virac, Catanduanes, Philippines",13.61939,124.17544,PLDT Home Fiber,89351,97225,89.35,97.23,11,1405,165,228
"Mandaue, Cebu, Philippines",10.3279,123.94273,PLDT,74128,71647,74.13,71.65,4,1399,311,465
"Cadiz City, Negros Occidental, Philippines",10.86192,123.23632,PLDT,54761,60649,54.76,60.65,10,1398,331,496
"Asturias, Cebu, Philippines",10.60209,123.77412,Globe,120658,105409,120.66,105.41,8,1395,413,641
"Santa Maria, Bulacan, Philippines",14.82898,120.97616,Globe,132297,121490,132.30,121.49,8,1393,234,299
"Silay, Negros Occidental, Philippines",10.79968,122.97605,PLDT Home Fiber,91311,96014,91.31,96.01,14,1387,356,602
"Talisay, Cebu, Philippines",10.25859,123.82413,PLDT,115052,152952,115.05,152.95,3,1378,321,403
"Tanza, Cavite, Philippines",14.34293,120.85032,Converge,142436,139746,142.44,139.75,6,1376,288,474
"Baguio, Benguet, Philippines",16.41297,120.5914,Globe,108642,93729,108.64,93.73,6,1371,333,449
"Dumanjug, Cebu, Philippines",10.02819,123.47198,PLDT Home Fiber,93977,129255,93.98,129.26,8,1370,360,550
"San Fernando City, La Union, Philippines",16.61592,120.32102,PLDT Home Fiber,95172,96919,95.17,96.92,3,1360,224,311
"Naga City, Camarines Sur, Philippines",13.6475,123.27003,PLDT,70341,62877,70.34,62.88,14,1358,304,469
"Biñan, Laguna, Philippines",14.31456,121.08316,Converge,184530,168973,184.53,168.97,6,1346,383,636
"Naga City, Camarines Sur, Philippines",13.6475,123.27003,Globe,114204,103698,114.20,103.70,12,1343,256,342
"Guiguinto, Bulacan, Philippines",14.82832,120.88429,PLDT Home Fiber,120755,112140,120.76,112.14,8,1333,383,544
"Vallehermoso, Negros Oriental, Philippines",10.33905,123.29249,PLDT Home Fiber,95319,103563,95.32,103.56,12,1331,384,600
"Bokod, Benguet, Philippines",16.45641,120.78097,PLDT Home Fiber,96018,96172,96.02,96.17,5,1324,388,618
"Nasugbu, Batangas, Philippines",14.09404,120.68901,PLDT,91053,96356,91.05,96.36,7,1321,353,553
"Santa Fe, Nueva Vizcaya, Philippines",16.18249,120.91878,PLDT Home Fiber,99863,106997,99.86,107.00,5,1315,363,583
"Meycauayan, Bulacan, Philippines",14.73772,120.96077,PLDT,67216,70684,67.22,70.68,10,1305,332,490
"Umingan, Pangasinan, Philippines",15.90396,120.82692,Globe,60974,53381,60.97,53.38,6,1293,316,683
"Tagum, Davao del Norte, Philippines",7.44742,125.80246,Globe,125162,123375,125.16,123.38,5,1275,194,244
"Lambunao, Iloilo, Philippines",11.12265,122.37876,PLDT,58022,54212,58.02,54.21,11,1261,370,546
"SJDM, Bulacan, Philippines",14.82867,121.04324,Globe,145216,118938,145.22,118.94,8,1256,240,306
"Malabon, Metro Manila, Philippines",14.65793,120.95118,Globe,198909,184703,198.91,184.70,5,1256,240,320
"Calauan, Laguna, Philippines",14.14551,121.3146,PLDT Home Fiber,103416,163566,103.42,163.57,8,1255,307,474
"Naic, Cavite, Philippines",14.29649,120.79246,PLDT Home Fiber,120121,140219,120.12,140.22,8,1253,193,249
"Consolacion, Cebu, Philippines",10.37581,123.95694,Globe,127447,137156,127.45,137.16,5,1246,231,295
"Toboso, Negros Occidental, Philippines",10.71769,123.46077,PLDT Home Fiber,85658,90144,85.66,90.14,13,1239,330,550
"Santa Fe, Nueva Vizcaya, Philippines",16.18249,120.91878,PLDT,81648,92321,81.65,92.32,7,1236,242,448
"Sagay City, Negros Occidental, Philippines",10.84555,123.37106,PLDT Home Fiber,74976,87826,74.98,87.83,14,1231,258,420
"City of Guihulngan, Negros Oriental, Philippines",10.18323,123.21385,PLDT Home Fiber,85705,88126,85.71,88.13,13,1231,281,429
"Calumpit, Bulacan, Philippines",14.91518,120.7662,PLDT Home Fiber,98759,102291,98.76,102.29,8,1222,287,410
"Daet, Camarines Norte, Philippines",14.10303,122.9325,Converge,126113,112362,126.11,112.36,6,1220,174,280
"Porac, Pampanga, Philippines",15.06974,120.55007,Converge,109668,109504,109.67,109.50,3,1215,311,417
"Taal, Batangas, Philippines",13.87826,120.92508,Globe,230698,191841,230.70,191.84,5,1212,382,544
"President Roxas, Cotabato, Philippines",7.37928,125.06084,PLDT,95626,96362,95.63,96.36,8,1212,338,476
"Valladolid, Negros Occidental, Philippines",10.46898,122.8423,PLDT Home Fiber,88694,91208,88.69,91.21,18,1210,301,476
"Santo Tomas, Pampanga, Philippines",14.99601,120.70407,PLDT Home Fiber,100093,95451,100.09,95.45,7,1208,364,558
"Binangonan, Rizal, Philippines",14.48441,121.1869,PLDT Home Fiber,121311,130646,121.31,130.65,4,1201,288,412
"Pili, Camarines Sur, Philippines",13.55521,123.28126,PLDT Home Fiber,81665,103238,81.67,103.24,9,1197,136,179
"City of Santa Rosa, Laguna, Philippines",14.31471,121.11232,Converge,153887,156042,153.89,156.04,6,1189,278,433
"Sindangan, Zamboanga del Norte, Philippines",8.19151,123.05639,PLDT Home Fiber,48922,58078,48.92,58.08,15,1188,90,115
"Pulilan, Bulacan, Philippines",14.90243,120.8459,PLDT Home Fiber,94140,97509,94.14,97.51,8,1188,323,483
"Tacurong City, Sultan Kudarat, Philippines",6.6866,124.66353,PLDT Home Fiber,78711,77545,78.71,77.55,11,1187,249,326
"Natividad, Pangasinan, Philippines",16.03821,120.83841,PLDT Home Fiber,95919,100723,95.92,100.72,6,1186,308,453
"Muntinlupa, Metro Manila, Philippines",14.39453,121.04483,Globe,193119,174516,193.12,174.52,6,1178,325,430
"Dumaguete City, Negros Oriental, Philippines",9.29841,123.29249,PLDT Home Fiber,110058,171699,110.06,171.70,10,1172,203,253
"Taysan, Batangas, Philippines",13.76108,121.2283,Globe,160069,133187,160.07,133.19,8,1170,417,580
"Dumaguete City, Negros Oriental, Philippines",9.29841,123.29249,PLDT,78568,77077,78.57,77.08,10,1170,215,315
"Legazpi City, Albay, Philippines",13.11288,123.76295,PLDT,90253,99443,90.25,99.44,7,1168,234,331
"Talisay, Negros Occidental, Philippines",10.74828,122.98012,PLDT,54019,54035,54.02,54.04,15,1167,255,384
"Balagtas, Bulacan, Philippines",14.81784,120.90646,PLDT Home Fiber,95876,98250,95.88,98.25,7,1166,338,463
"Matalam, Cotabato, Philippines",7.17236,124.92861,PLDT,100667,97657,100.67,97.66,9,1162,440,581
"Apalit, Pampanga, Philippines",14.95255,120.76688,PLDT Home Fiber,109208,122080,109.21,122.08,7,1159,289,420
"Morong, Rizal, Philippines",14.51286,121.23855,PLDT Home Fiber,94532,100089,94.53,100.09,3,1157,326,522
"La Carlota City, Negros Occidental, Philippines",10.41437,122.97757,PLDT Home Fiber,96883,128426,96.88,128.43,13,1156,313,499
"San Pablo City, Laguna, Philippines",14.06422,121.32326,PLDT,97785,121190,97.79,121.19,7,1153,277,411
"Talisay, Cebu, Philippines",10.25859,123.82413,Converge,188347,184977,188.35,184.98,5,1151,234,348
"Consolacion, Cebu, Philippines",10.37581,123.95694,PLDT,91695,95893,91.70,95.89,5,1147,281,364
"Tuguegarao City, Cagayan, Philippines",17.60306,121.75374,PLDT Home Fiber,69231,72810,69.23,72.81,13,1146,246,345
"Roxas City, Capiz, Philippines",11.55288,122.74072,PLDT Home Fiber,72753,89968,72.75,89.97,14,1141,215,295
"Pagbilao, Quezon, Philippines",13.99683,121.73095,PLDT Home Fiber,93597,98114,93.60,98.11,8,1140,264,430
"Calatrava, Negros Occidental, Philippines",10.62843,123.39349,PLDT Home Fiber,81382,90558,81.38,90.56,15,1134,255,382
"Tagbilaran City, Bohol, Philippines",9.6534,123.86703,PLDT Home Fiber,95956,112484,95.96,112.48,10,1130,191,244
"Trece Martires City, Cavite, Philippines",14.28222,120.86837,PLDT Home Fiber,138095,195393,138.10,195.39,4,1123,213,293
"Kayapa, Nueva Vizcaya, Philippines",16.49326,120.94174,PLDT Home Fiber,98292,102030,98.29,102.03,6,1119,227,402
"San Juan City, Metro Manila, Philippines",14.60196,121.0355,Globe,269463,229319,269.46,229.32,5,1113,314,474
"Tanauan City, Batangas, Philippines",14.08354,121.14762,Globe,161420,131099,161.42,131.10,6,1108,319,426
"Cagayan De Oro City, Misamis Oriental, Philippines",8.48029,124.64975,PLDT,60078,56527,60.08,56.53,9,1103,242,366
"Dipolog City, Zamboanga del Norte, Philippines",8.58717,123.34035,PLDT Home Fiber,95834,102152,95.83,102.15,11,1102,210,296
"Infanta, Quezon, Philippines",14.74071,121.6451,PLDT,53120,59413,53.12,59.41,13,1101,254,353
"Pavia, Iloilo, Philippines",10.7748,122.54261,PLDT,84004,86628,84.00,86.63,16,1096,297,379
"Marilao, Bulacan, Philippines",14.77237,120.96001,Globe,215195,222124,215.20,222.12,8,1093,236,298
"Santa Rosa, Nueva Ecija, Philippines",15.42502,120.93838,PLDT Home Fiber,91903,93679,91.90,93.68,11,1091,221,335
"Mabalacat City, Pampanga, Philippines",15.24525,120.56567,PLDT Home Fiber,119611,118929,119.61,118.93,7,1090,273,379
"Dumaguete City, Negros Oriental, Philippines",9.29841,123.29249,Globe,113968,96253,113.97,96.25,11,1084,214,302
"Baliwag, Bulacan, Philippines",14.96569,120.89431,PLDT,79143,77232,79.14,77.23,7,1081,246,363
"Lubao, Pampanga, Philippines",14.92678,120.58795,Converge,56751,62471,56.75,62.47,4,1078,298,445
"Santiago, Isabela, Philippines",16.69679,121.55865,PLDT Home Fiber,87526,83637,87.53,83.64,14,1062,200,264
"Silang, Cavite, Philippines",14.22025,120.96469,Globe,103671,92716,103.67,92.72,6,1049,269,444
"San Miguel, Bulacan, Philippines",15.14158,120.9751,PLDT Home Fiber,93373,93932,93.37,93.93,11,1041,256,401
"Santo Nino, Cagayan, Philippines",17.91267,121.49132,Converge,98756,95925,98.76,95.93,12,1039,286,461
"Meycauayan, Bulacan, Philippines",14.73772,120.96077,Converge,168242,139783,168.24,139.78,7,1038,251,348
"Surigao, Surigao del Norte, Philippines",9.79022,125.49311,PLDT Home Fiber,77792,88740,77.79,88.74,10,1035,193,249
"Plaridel, Bulacan, Philippines",14.88591,120.85932,PLDT,90075,96294,90.08,96.29,5,1034,254,357
"Escalante City, Negros Occidental, Philippines",10.84117,123.49908,PLDT Home Fiber,79076,91732,79.08,91.73,14,1030,255,401
"Biñan, Laguna, Philippines",14.31456,121.08316,Globe,137930,112266,137.93,112.27,7,1024,266,377
"Vintar, Ilocos Norte, Philippines",18.31413,120.78097,Converge,96852,105133,96.85,105.13,11,1020,304,495
"Daraga, Albay, Philippines",13.12278,123.69588,Globe,123965,106691,123.97,106.69,24,1019,91,115
"Dona Remedios Trinidad, Bulacan, Philippines",15.11427,121.21685,Converge,147258,76077,147.26,76.08,9,1019,243,306
"Sariaya, Quezon, Philippines",13.96301,121.52388,PLDT Home Fiber,94657,100504,94.66,100.50,5,1018,264,405
"Santa Barbara, Pangasinan, Philippines",15.9774,120.42424,PLDT Home Fiber,93136,94529,93.14,94.53,6,1018,241,379
"San Quintin, Pangasinan, Philippines",15.9754,120.83841,PLDT Home Fiber,95922,97610,95.92,97.61,6,1017,252,365
"Muñoz, Nueva Ecija, Philippines",15.70664,120.9029,PLDT Home Fiber,91426,94307,91.43,94.31,13,1015,253,358
"General Santos City (Dadiangas), South Cotabato, Philippines",6.14327,125.19286,Converge,96599,109848,96.60,109.85,5,1014,227,286
"Pasay City, Metro Manila, Philippines",14.53767,121.00081,Globe,123065,106742,123.07,106.74,4,1011,278,397
"Malaybalay City, Bukidnon, Philippines",8.15775,125.17087,PLDT Home Fiber,89093,105099,89.09,105.10,9,1010,219,324
"Gapan City, Nueva Ecija, Philippines",15.29121,121.01057,PLDT Home Fiber,94659,94023,94.66,94.02,12,1002,243,369
"Cauayan City, Isabela, Philippines",16.91662,121.78792,Converge,102355,100066,102.36,100.07,9,1002,243,342
"Balete, Batangas, Philippines",14.0092,121.10802,PLDT Home Fiber,101799,101043,101.80,101.04,8,1001,253,385
"Santo Tomas, Batangas, Philippines",14.08754,121.17764,PLDT,93792,94758,93.79,94.76,8,998,298,429
"Malolos, Bulacan, Philippines",14.86049,120.80916,Converge,106531,104305,106.53,104.31,6,996,294,400
"Pinamungahan, Cebu, Philippines",10.26958,123.63996,Globe,137907,117872,137.91,117.87,17,995,382,499
"Urdaneta City, Pangasinan, Philippines",15.98194,120.59698,PLDT Home Fiber,81210,82425,81.21,82.43,8,992,230,333
"Palayan City, Nueva Ecija, Philippines",15.53906,121.09083,Converge,97363,99388,97.36,99.39,7,986,234,375
"Cotabato City, Maguindanao, Philippines",7.20467,124.23104,PLDT Home Fiber,102902,122298,102.90,122.30,11,985,202,290
"Plaridel, Bulacan, Philippines",14.88591,120.85932,PLDT Home Fiber,93500,96817,93.50,96.82,8,985,246,378
"Capas, Tarlac, Philippines",15.34633,120.59344,PLDT,78715,71914,78.72,71.91,7,985,172,255
"Legazpi City, Albay, Philippines",13.11288,123.76295,Converge,91457,91905,91.46,91.91,5,982,205,308
"Rosario, Cavite, Philippines",14.41672,120.85471,PLDT Home Fiber,99905,116514,99.91,116.51,5,978,178,272
"Liliw, Laguna, Philippines",14.12617,121.4399,PLDT Home Fiber,125984,163651,125.98,163.65,8,975,242,391
"Carmen, Cotabato, Philippines",7.38261,124.81826,PLDT Home Fiber,90156,95814,90.16,95.81,9,970,261,412
"Carmona, Cavite, Philippines",14.3135,121.05712,Converge,179768,201397,179.77,201.40,6,967,191,285
"Tanay, Rizal, Philippines",14.61419,121.37703,PLDT,59627,60304,59.63,60.30,8,967,222,296
"Suyo, Ilocos Sur, Philippines",16.96582,120.56245,Converge,90827,106226,90.83,106.23,9,964,94,134
"General Tinio (Papaya), Nueva Ecija, Philippines",15.36345,121.21685,PLDT,44666,25962,44.67,25.96,11,960,136,195
"Concepcion, Tarlac, Philippines",15.324,120.65596,PLDT,65636,50161,65.64,50.16,10,959,251,347
"Aguinaldo, Ifugao, Philippines",16.95291,121.33129,PLDT Home Fiber,89636,92415,89.64,92.42,12,959,206,413
"Catmon, Cebu, Philippines",10.65242,123.9973,PLDT Home Fiber,97669,169799,97.67,169.80,7,958,183,288
"Himamaylan, Negros Occidental, Philippines",10.10162,122.86995,PLDT Home Fiber,69785,92907,69.79,92.91,14,958,53,74
"Lobo, Batangas, Philippines",13.6877,121.23974,Globe,124192,103644,124.19,103.64,8,957,301,447
"General Mariano Alvarez, Cavite, Philippines",14.29525,121.0071,PLDT,114030,161241,114.03,161.24,7,956,159,193
"Calasiao, Pangasinan, Philippines",16.00949,120.35759,PLDT Home Fiber,93476,102125,93.48,102.13,6,956,207,331
"San Isidro, Nueva Ecija, Philippines",15.29656,120.9073,Globe,157856,149704,157.86,149.70,6,954,257,390
"Angeles, Pampanga, Philippines",15.16061,120.60908,Globe,119886,106909,119.89,106.91,6,949,232,314
"Ormoc City, Leyte, Philippines",11.03843,124.61927,Globe,107624,96101,107.62,96.10,19,948,181,236
"Calatrava, Negros Occidental, Philippines",10.62843,123.39349,Globe,18812,6945,18.81,6.95,37,934,243,524
"Santo Tomas, Davao del Norte, Philippines",7.50929,125.63142,PLDT Home Fiber,75379,70758,75.38,70.76,8,932,183,257
"Surallah, South Cotabato, Philippines",6.3195,124.75198,PLDT Home Fiber,56394,69621,56.39,69.62,11,932,163,228
"Cabiao, Nueva Ecija, Philippines",15.25221,120.85957,Globe,140030,130987,140.03,130.99,5,930,166,254
"San Leonardo, Nueva Ecija, Philippines",15.37285,120.95321,PLDT,23255,27545,23.26,27.55,11,930,125,195
"Obando, Bulacan, Philippines",14.70986,120.93674,PLDT,90439,93936,90.44,93.94,5,929,267,392
"Bayambang, Pangasinan, Philippines",15.80947,120.45714,PLDT Home Fiber,96267,124896,96.27,124.90,12,927,166,240
"Hagonoy, Bulacan, Philippines",14.83564,120.73371,PLDT,65614,67387,65.61,67.39,8,923,170,240
"Roxas City, Capiz, Philippines",11.55288,122.74072,Globe,92416,80523,92.42,80.52,14,921,125,183
"Tagaytay City, Cavite, Philippines",14.11541,120.96202,Globe,63646,55471,63.65,55.47,6,921,250,415
"Taytay, Rizal, Philippines",14.55288,121.12571,Globe,188592,150957,188.59,150.96,5,921,235,310
"Datu Montawal (Pagagawan), Maguindanao, Philippines",7.10469,124.76303,PLDT Home Fiber,91812,92909,91.81,92.91,11,919,187,287
"Tagbilaran City, Bohol, Philippines",9.6534,123.86703,Converge,146040,97641,146.04,97.64,24,918,210,281
"Laoag City, Ilocos Norte, Philippines",18.21075,120.58547,Converge,142143,159296,142.14,159.30,12,916,284,431
"Trece Martires City, Cavite, Philippines",14.28222,120.86837,PLDT,77972,81944,77.97,81.94,8,915,190,272
"Rosario, Batangas, Philippines",13.80433,121.28552,PLDT Home Fiber,100966,117596,100.97,117.60,6,900,218,269
"Mariveles, Bataan, Philippines",14.4354,120.49003,PLDT Home Fiber,80995,87759,81.00,87.76,8,898,151,195
"Ligao City, Albay, Philippines",13.17242,123.4944,Converge,94778,93255,94.78,93.26,17,896,132,229
"Minglanilla, Cebu, Philippines",10.24543,123.79599,PLDT,96817,97460,96.82,97.46,4,893,262,367
"Malaybalay City, Bukidnon, Philippines",8.15775,125.17087,PLDT,70821,42974,70.82,42.97,10,891,243,347
"Lagawe, Ifugao, Philippines",16.80825,121.19395,PLDT Home Fiber,94959,108066,94.96,108.07,8,889,228,400
"Puerto Princesa City, Palawan, Philippines",9.78563,118.62648,PLDT,77334,81324,77.33,81.32,19,888,222,331
"Digos, Davao del Sur, Philippines",6.74347,125.35515,Globe,118713,111721,118.71,111.72,4,885,85,120
"Pozorrubio, Pangasinan, Philippines",16.11642,120.54316,PLDT,100465,109024,100.47,109.02,7,884,134,211
"Balanga City, Bataan, Philippines",14.67454,120.47033,PLDT Home Fiber,95030,111407,95.03,111.41,7,882,207,279
"Bayombong, Nueva Vizcaya, Philippines",16.48042,121.14813,PLDT Home Fiber,79972,90955,79.97,90.96,7,868,188,285
"Magalang, Pampanga, Philippines",15.21394,120.66181,PLDT,59074,65468,59.07,65.47,12,864,212,332
"Santa Ana, Pampanga, Philippines",15.09442,120.76623,PLDT Home Fiber,93112,94743,93.11,94.74,8,853,219,329
"Pagadian City, Zamboanga del Sur, Philippines",7.86265,123.37106,Globe,72145,62802,72.15,62.80,7,848,139,179
"Bocaue, Bulacan, Philippines",14.7943,120.93073,PLDT,93243,95400,93.24,95.40,9,846,205,277
"Guimba, Nueva Ecija, Philippines",15.65641,120.76767,Converge,88111,91616,88.11,91.62,5,844,170,230
"Bocaue, Bulacan, Philippines",14.7943,120.93073,Converge,128468,130323,128.47,130.32,7,842,163,235
"San Isidro, Nueva Ecija, Philippines",15.29656,120.9073,PLDT Home Fiber,94095,94430,94.10,94.43,11,839,203,339
"Meycauayan, Bulacan, Philippines",14.73772,120.96077,Globe,173226,152140,173.23,152.14,8,835,221,293
"Calapan City, Oriental Mindoro, Philippines",13.36643,121.19395,PLDT Home Fiber,108905,101325,108.91,101.33,10,833,128,193
"Alabel, Sarangani, Philippines",6.10416,125.28792,PLDT Home Fiber,92422,93639,92.42,93.64,10,832,147,204
"Agoncillo, Batangas, Philippines",13.94675,120.93026,Globe,258555,206724,258.56,206.72,6,829,264,403
"Magpet, Cotabato, Philippines",7.1332,125.17087,Globe,92389,104621,92.39,104.62,5,828,375,485
"Panabo City, Davao del Norte, Philippines",7.30822,125.68662,PLDT Home Fiber,102459,110303,102.46,110.30,8,828,179,268
"Pavia, Iloilo, Philippines",10.7748,122.54261,PLDT Home Fiber,121701,159443,121.70,159.44,14,827,172,222
"Mexico, Pampanga, Philippines",15.06457,120.72033,PLDT,55551,78470,55.55,78.47,13,826,238,333
"Majayjay, Laguna, Philippines",14.14491,121.46983,PLDT Home Fiber,98194,137847,98.19,137.85,9,825,176,303
"San Simon, Pampanga, Philippines",14.98432,120.75127,PLDT,79326,84180,79.33,84.18,16,825,221,312
"Kawit, Cavite, Philippines",14.44588,120.90871,Converge,183267,191065,183.27,191.07,6,817,216,352
"Iriga City, Camarines Sur, Philippines",13.42095,123.41361,Converge,92598,91327,92.60,91.33,4,817,230,387
"Santa Maria, Bulacan, Philippines",14.82898,120.97616,PLDT,55997,64507,56.00,64.51,13,817,233,335
"Mariveles, Bataan, Philippines",14.4354,120.49003,Converge,108038,98180,108.04,98.18,8,816,161,232
"Cavite, Philippines",14.48151,120.90833,PLDT Home Fiber,97390,146114,97.39,146.11,5,816,165,219
"San Pedro, Laguna, Philippines",14.36443,121.06192,Globe,169381,153047,169.38,153.05,9,816,188,255
"Sorsogon City, Sorsogon, Philippines",12.97888,123.98477,PLDT,94259,93549,94.26,93.55,13,811,172,228
"Tuburan, Cebu, Philippines",10.66879,123.86345,PLDT Home Fiber,56456,78572,56.46,78.57,7,809,145,199
"Zamboanga City, Zamboanga del Sur, Philippines",6.90437,122.07612,Converge,91786,93394,91.79,93.39,19,809,159,218
"San Luis, Pampanga, Philippines",15.03986,120.81544,PLDT Home Fiber,91280,94892,91.28,94.89,9,799,201,319
"Tagum, Davao del Norte, Philippines",7.44742,125.80246,PLDT,90567,90375,90.57,90.38,9,798,118,159
"Calabanga, Camarines Sur, Philippines",13.71633,123.28126,PLDT Home Fiber,82816,93658,82.82,93.66,8,797,124,171
"Molave, Zamboanga del Sur, Philippines",8.10419,123.4944,PLDT Home Fiber,81842,80820,81.84,80.82,10,784,138,200
"Rodriguez, Rizal, Philippines",14.73202,121.14516,Globe,148441,146076,148.44,146.08,4,784,138,167
"Salvador Benedicto, Negros Occidental, Philippines",10.5887,123.23632,PLDT Home Fiber,93692,113194,93.69,113.19,11,777,265,404
"Dagupan City, Pangasinan, Philippines",16.03375,120.33202,PLDT,74910,87479,74.91,87.48,6,775,225,328
"Bula, Camarines Sur, Philippines",13.44119,123.23632,PLDT Home Fiber,65750,89517,65.75,89.52,9,769,82,140
"Butuan City, Agusan Del Norte, Philippines",8.94753,125.54063,Converge,113254,111455,113.25,111.46,10,768,129,164
"Magalang, Pampanga, Philippines",15.21394,120.66181,Converge,100635,100058,100.64,100.06,3,766,173,225
"Tanza, Cavite, Philippines",14.34293,120.85032,Globe,156465,134186,156.47,134.19,7,759,200,260
"Bakun, Benguet, Philippines",16.80796,120.68901,PLDT Home Fiber,93706,97425,93.71,97.43,6,759,197,318
"Los Baños, Laguna, Philippines",14.17731,121.22161,PLDT,99468,118780,99.47,118.78,6,759,162,235
"Pakil, Laguna, Philippines",14.3694,121.39418,Converge,140167,145571,140.17,145.57,12,754,124,221
"Daraga, Albay, Philippines",13.12278,123.69588,Converge,140913,93347,140.91,93.35,14,753,116,193
"Tagbilaran City, Bohol, Philippines",9.6534,123.86703,Globe,116852,99068,116.85,99.07,10,751,112,145
"Cabuyao City, Laguna, Philippines",14.27433,121.11961,Converge,125969,119789,125.97,119.79,6,750,121,209
"Bago, Negros Occidental, Philippines",10.53757,122.83609,PLDT,65383,59807,65.38,59.81,7,749,115,167
"Legazpi City, Albay, Philippines",13.11288,123.76295,Globe,115976,96583,115.98,96.58,24,749,128,185
"Carmona, Cavite, Philippines",14.3135,121.05712,Globe,169100,128169,169.10,128.17,5,747,240,363
"Odiongan, Romblon, Philippines",12.36445,122.01555,PLDT,68578,75397,68.58,75.40,9,745,83,113
"Batangas City, Batangas, Philippines",13.75641,121.05833,Converge,127241,128761,127.24,128.76,7,744,160,264
"Butuan City, Agusan Del Norte, Philippines",8.94753,125.54063,PLDT,57322,55469,57.32,55.47,17,743,246,348
"Kalibo, Aklan, Philippines",11.70734,122.36986,Converge,112156,90517,112.16,90.52,15,738,119,175
"Lobo, Batangas, Philippines",13.6877,121.23974,PLDT Home Fiber,95929,102087,95.93,102.09,6,736,181,281
"San Ildefonso, Bulacan, Philippines",15.07717,120.94171,PLDT,50854,49603,50.85,49.60,11,735,105,142
"Ormoc City, Leyte, Philippines",11.03843,124.61927,Converge,69124,77063,69.12,77.06,5,735,122,184
"Mangaldan, Pangasinan, Philippines",16.06513,120.40474,PLDT Home Fiber,79807,115115,79.81,115.12,9,727,139,200
"Pili, Camarines Sur, Philippines",13.55521,123.28126,PLDT,41485,41178,41.49,41.18,15,723,85,132
"Masbate City, Masbate, Philippines",12.31777,123.55041,PLDT,79341,78811,79.34,78.81,20,721,125,167
"Binangonan, Rizal, Philippines",14.48441,121.1869,Converge,189022,210486,189.02,210.49,3,717,191,234
"Guagua, Pampanga, Philippines",14.96374,120.63244,Converge,44864,41353,44.86,41.35,4,717,215,311
"San Rafael, Bulacan, Philippines",15.00184,120.93141,Globe,168132,120643,168.13,120.64,7,716,237,323
"City of Santa Rosa, Laguna, Philippines",14.31471,121.11232,Globe,139535,142964,139.54,142.96,7,713,210,290
"Silay, Negros Occidental, Philippines",10.79968,122.97605,PLDT,81176,82626,81.18,82.63,24,712,192,269
"Natividad, Pangasinan, Philippines",16.03821,120.83841,PLDT,93246,95182,93.25,95.18,6,707,139,238
"Puerto Princesa City, Palawan, Philippines",9.78563,118.62648,Converge,106468,110830,106.47,110.83,14,702,165,223
"Floridablanca, Pampanga, Philippines",14.9619,120.49471,PLDT Home Fiber,111567,108663,111.57,108.66,11,698,86,111
"San Mateo, Rizal, Philippines",14.69539,121.11767,Globe,178031,147282,178.03,147.28,5,698,148,178
"San Fabian, Pangasinan, Philippines",16.14188,120.44729,PLDT,77803,80309,77.80,80.31,6,697,134,206
"Dumangas, Iloilo, Philippines",10.82109,122.71167,PLDT Home Fiber,86137,87279,86.14,87.28,15,696,75,90
"San Leonardo, Nueva Ecija, Philippines",15.37285,120.95321,Converge,99545,139922,99.55,139.92,6,695,68,81
"Anao, Tarlac, Philippines",15.7435,120.61424,PLDT,39935,43143,39.94,43.14,20,692,194,314
"City of Mati, Davao Oriental, Philippines",6.95722,126.15454,PLDT Home Fiber,88761,102948,88.76,102.95,12,692,122,168
"Polomolok, South Cotabato, Philippines",6.22451,125.06084,Globe,111088,122942,111.09,122.94,14,691,113,136
"Cotabato City, Maguindanao, Philippines",7.20467,124.23104,PLDT,66838,91433,66.84,91.43,12,690,167,238
"Alfonso, Cavite, Philippines",14.1214,120.86138,PLDT,93849,96528,93.85,96.53,9,689,191,266
"Rodriguez, Rizal, Philippines",14.73202,121.14516,PLDT,66218,65163,66.22,65.16,6,683,164,232
"Madridejos, Cebu, Philippines",11.25859,123.7406,Globe,107459,89040,107.46,89.04,14,681,10,16
"Rizal, Nueva Ecija, Philippines",15.69357,121.10229,PLDT,56570,69002,56.57,69.00,12,678,210,309
"Hinigaran, Negros Occidental, Philippines",10.27479,122.92123,PLDT Home Fiber,82359,69674,82.36,69.67,16,675,76,98
"San Fernando, Bukidnon, Philippines",7.84637,125.34663,Globe,228039,179215,228.04,179.22,4,674,210,298
"Gerona, Tarlac, Philippines",15.60489,120.59698,PLDT Home Fiber,67193,74565,67.19,74.57,11,669,153,218
"Baao, Camarines Sur, Philippines",13.49319,123.35984,PLDT,39146,43171,39.15,43.17,11,669,64,83
"Guiguinto, Bulacan, Philippines",14.82832,120.88429,Converge,136428,147867,136.43,147.87,7,668,142,207
"Olongapo City, Zambales, Philippines",14.88739,120.36661,PLDT Home Fiber,153502,105358,153.50,105.36,8,667,199,277
"Paniqui, Tarlac, Philippines",15.66603,120.53942,PLDT Home Fiber,106297,91183,106.30,91.18,11,665,107,156
"Bagabag, Nueva Vizcaya, Philippines",16.58337,121.28552,PLDT Home Fiber,93404,94664,93.40,94.66,10,661,55,87
"Koronadal, South Cotabato, Philippines",6.50044,124.84333,Globe,116139,113670,116.14,113.67,6,660,64,92
"Infanta, Quezon, Philippines",14.74071,121.6451,PLDT Home Fiber,72611,75916,72.61,75.92,12,660,93,126
"Pagadian City, Zamboanga del Sur, Philippines",7.86265,123.37106,PLDT Home Fiber,100010,105645,100.01,105.65,6,658,179,233
"Libmanan, Camarines Sur, Philippines",13.69376,123.05982,PLDT Home Fiber,55160,63990,55.16,63.99,13,658,76,91
"Dona Remedios Trinidad, Bulacan, Philippines",15.11427,121.21685,PLDT,43731,24245,43.73,24.25,14,656,235,346
"Pili, Camarines Sur, Philippines",13.55521,123.28126,Converge,97135,84873,97.14,84.87,4,655,90,126
"Moises Padilla, Negros Occidental, Philippines",10.26269,123.11266,PLDT Home Fiber,93603,96837,93.60,96.84,15,653,84,128
"Balamban, Cebu, Philippines",10.48585,123.77412,PLDT,71249,67340,71.25,67.34,6,651,127,173
"Puerto Princesa City, Palawan, Philippines",9.78563,118.62648,Globe,92185,84118,92.19,84.12,15,650,129,207
"Bacolor, Pampanga, Philippines",14.99692,120.65235,Converge,157104,146923,157.10,146.92,3,647,170,232
"Nabua, Camarines Sur, Philippines",13.4069,123.37324,PLDT Home Fiber,52707,73072,52.71,73.07,8,646,96,131
"Abra De Ilog, Occidental Mindoro, Philippines",13.36383,120.75798,Globe,61570,53569,61.57,53.57,6,645,188,321
"Kabankalan City, Negros Occidental, Philippines",9.91341,122.85358,PLDT,46788,48966,46.79,48.97,10,645,111,148
"Norzagaray, Bulacan, Philippines",14.89659,121.14813,Converge,111095,106944,111.10,106.94,7,644,115,160
"Ozamiz, Misamis Occidental, Philippines",8.15,123.85033,Globe,82013,51166,82.01,51.17,13,644,67,89
"Toledo, Cebu, Philippines",10.38705,123.65017,PLDT,24802,20411,24.80,20.41,9,644,97,140
"Rizal, Nueva Ecija, Philippines",15.69357,121.10229,PLDT Home Fiber,87287,90430,87.29,90.43,5,644,129,174
"Malvar, Batangas, Philippines",14.04329,121.15875,PLDT,71684,90528,71.68,90.53,13,642,168,238
"Tagbina, Surigao del Sur, Philippines",8.43879,126.19798,PLDT Home Fiber,83260,87426,83.26,87.43,8,639,111,154
"Plaridel, Misamis Occidental, Philippines",8.61148,123.69588,PLDT Home Fiber,82178,93024,82.18,93.02,8,636,39,46
"San Fernando, Pampanga, Philippines",15.02781,120.69349,Globe,112876,100688,112.88,100.69,6,634,149,192
"Kibawe, Bukidnon, Philippines",7.48878,125.06084,PLDT Home Fiber,93509,95048,93.51,95.05,10,634,210,285
"San Jose, Batangas, Philippines",13.87868,121.09942,PLDT Home Fiber,116838,107131,116.84,107.13,6,632,145,223
"Midsayap, Cotabato, Philippines",7.19181,124.53474,PLDT Home Fiber,90610,85246,90.61,85.25,12,628,109,145
"San Rafael, Bulacan, Philippines",15.00184,120.93141,Converge,76378,124605,76.38,124.61,7,626,122,156
"Dinalupihan, Bataan, Philippines",14.88605,120.44729,PLDT Home Fiber,164471,167365,164.47,167.37,7,624,108,132
"Balanga City, Bataan, Philippines",14.67454,120.47033,Converge,107976,105083,107.98,105.08,5,624,138,194
"Sagay City, Negros Occidental, Philippines",10.84555,123.37106,PLDT,66196,69494,66.20,69.49,11,621,106,161
"Laoag City, Ilocos Norte, Philippines",18.21075,120.58547,PLDT Home Fiber,91056,101568,91.06,101.57,8,621,123,192
"Floridablanca, Pampanga, Philippines",14.9619,120.49471,Converge,80814,87562,80.81,87.56,4,620,141,176
"Sultan Kudarat (Nuling), Maguindanao, Philippines",7.26221,124.30883,PLDT Home Fiber,42532,48360,42.53,48.36,11,619,63,91
"Valencia City, Bukidnon, Philippines",7.86319,125.17087,Converge,86456,92099,86.46,92.10,9,617,118,149
"Ozamiz, Misamis Occidental, Philippines",8.15,123.85033,PLDT Home Fiber,107227,93386,107.23,93.39,6,617,86,111
"New Corella, Davao del Norte, Philippines",7.59777,125.84981,PLDT Home Fiber,87533,83426,87.53,83.43,10,616,80,100
"Dolores, Quezon, Philippines",14.00193,121.41133,PLDT Home Fiber,100932,172118,100.93,172.12,4,614,188,279
"Bamban, Tarlac, Philippines",15.2885,120.57044,Converge,70153,76698,70.15,76.70,4,613,185,248
"Bayombong, Nueva Vizcaya, Philippines",16.48042,121.14813,Converge,105121,120601,105.12,120.60,9,612,173,239
"San Isidro, Bohol, Philippines",9.84036,123.94155,PLDT,41002,45054,41.00,45.05,20,610,125,206
"Samal, Davao del Norte, Philippines",7.08352,125.70578,PLDT Home Fiber,68782,68732,68.78,68.73,8,608,110,130
"Malolos, Bulacan, Philippines",14.86049,120.80916,Globe,124850,125106,124.85,125.11,7,608,110,153
"Pantukan, Davao de Oro, Philippines",7.20012,126.04584,PLDT Home Fiber,41108,50412,41.11,50.41,15,606,50,68
"Carcar, Cebu, Philippines",10.10478,123.64147,PLDT Home Fiber,89874,92924,89.87,92.92,4,604,90,115
"Victorias, Negros Occidental, Philippines",10.901,123.07045,PLDT Home Fiber,93649,93681,93.65,93.68,13,604,135,197
"Tiaong, Quezon, Philippines",13.92962,121.34273,PLDT Home Fiber,93642,106831,93.64,106.83,7,603,124,184
"Argao, Cebu, Philippines",9.88114,123.60535,PLDT,50863,71759,50.86,71.76,6,602,70,96
"San Fernando City, La Union, Philippines",16.61592,120.32102,Converge,101075,96904,101.08,96.90,4,601,116,162
"Dapitan City, Zamboanga del Norte, Philippines",8.58118,123.42714,PLDT Home Fiber,49082,48786,49.08,48.79,10,599,82,109
"Kumalarang, Zamboanga del Sur, Philippines",7.7703,123.1464,PLDT Home Fiber,97723,97232,97.72,97.23,9,598,122,181
"Isulan, Sultan Kudarat, Philippines",6.6318,124.44201,PLDT Home Fiber,302539,381715,302.54,381.72,7,595,118,132
"Plaridel, Bulacan, Philippines",14.88591,120.85932,Converge,103982,98954,103.98,98.95,7,594,159,234
"Iligan City, Lanao del Norte, Philippines",8.22707,124.46418,PLDT,54259,67857,54.26,67.86,19,594,195,265
"San Miguel, Bulacan, Philippines",15.14158,120.9751,Globe,144904,107099,144.90,107.10,6,593,161,231
"Indang, Cavite, Philippines",14.19204,120.87286,PLDT,100789,120120,100.79,120.12,8,592,180,252
"Guiguinto, Bulacan, Philippines",14.82832,120.88429,PLDT,87495,99876,87.50,99.88,6,592,186,296
"Minglanilla, Cebu, Philippines",10.24543,123.79599,Converge,212818,189575,212.82,189.58,4,591,125,188
"Salvador Benedicto, Negros Occidental, Philippines",10.5887,123.23632,Globe,184633,141334,184.63,141.33,15,591,153,240
"Baliwag, Bulacan, Philippines",14.96569,120.89431,Converge,105051,124518,105.05,124.52,7,591,140,187
"Echague, Isabela, Philippines",16.66606,121.78792,PLDT,55253,57094,55.25,57.09,16,589,132,187
"Pateros, Metro Manila, Philippines",14.54838,121.07077,PLDT Home Fiber,144135,161692,144.14,161.69,3,589,158,211
"Magdalena, Laguna, Philippines",14.20408,121.43419,Globe,125294,146163,125.29,146.16,6,588,158,262
"Magalang, Pampanga, Philippines",15.21394,120.66181,PLDT Home Fiber,93902,90035,93.90,90.04,10,586,187,305
"Hagonoy, Bulacan, Philippines",14.83564,120.73371,PLDT Home Fiber,117275,118255,117.28,118.26,8,582,131,189
"Santa Maria, Pangasinan, Philippines",15.95523,120.7005,PLDT Home Fiber,109764,113027,109.76,113.03,8,581,133,216
"Goa, Camarines Sur, Philippines",13.73619,123.41593,PLDT Home Fiber,56680,69050,56.68,69.05,9,580,99,145
"Cauayan City, Isabela, Philippines",16.91662,121.78792,PLDT Home Fiber,99413,110544,99.41,110.54,12,579,109,156
"Ormoc City, Leyte, Philippines",11.03843,124.61927,PLDT Home Fiber,79020,80657,79.02,80.66,7,577,126,151
"Kayapa, Nueva Vizcaya, Philippines",16.49326,120.94174,PLDT,87301,89154,87.30,89.15,6,577,145,237
"Trece Martires City, Cavite, Philippines",14.28222,120.86837,Globe,121115,115066,121.12,115.07,6,574,153,203
"Tayug, Pangasinan, Philippines",16.01085,120.74649,PLDT,90674,91325,90.67,91.33,7,573,153,237
"Tacloban City, Leyte, Philippines",11.22238,124.99221,Globe,117791,106543,117.79,106.54,13,573,132,176
"Escalante City, Negros Occidental, Philippines",10.84117,123.49908,PLDT,58908,50925,58.91,50.93,9,570,111,148
"Naujan, Oriental Mindoro, Philippines",13.24381,121.19395,PLDT Home Fiber,97982,105842,97.98,105.84,7,570,109,160
"Jaen, Nueva Ecija, Philippines",15.39558,120.87286,PLDT Home Fiber,81179,74610,81.18,74.61,11,569,136,206
"Norzagaray, Bulacan, Philippines",14.89659,121.14813,PLDT,74172,58238,74.17,58.24,11,568,156,224
"Tanauan City, Batangas, Philippines",14.08354,121.14762,Converge,133916,118566,133.92,118.57,7,566,142,201
"Guagua, Pampanga, Philippines",14.96374,120.63244,PLDT Home Fiber,95338,104002,95.34,104.00,9,566,170,229
"La Carlota City, Negros Occidental, Philippines",10.41437,122.97757,PLDT,72182,95816,72.18,95.82,11,565,87,113
"Calapan City, Oriental Mindoro, Philippines",13.36643,121.19395,PLDT,54425,51455,54.43,51.46,13,562,164,234
"Camalig, Albay, Philippines",13.14101,123.63996,Converge,59263,54023,59.26,54.02,19,559,99,138
"Maria Aurora, Aurora, Philippines",15.75061,121.3999,PLDT,80735,91743,80.74,91.74,12,558,74,92
"Roxas City, Capiz, Philippines",11.55288,122.74072,Converge,102244,92260,102.24,92.26,13,556,112,169
"Trece Martires City, Cavite, Philippines",14.28222,120.86837,Converge,151338,138687,151.34,138.69,6,556,140,186
"Toledo, Cebu, Philippines",10.38705,123.65017,PLDT Home Fiber,91788,94589,91.79,94.59,5,553,121,163
"Compostela, Cebu, Philippines",10.45408,124.013,PLDT Home Fiber,93624,138668,93.62,138.67,7,550,165,254
"Carmen, Cebu, Philippines",10.58876,123.96385,PLDT,55316,85575,55.32,85.58,14,550,132,189
"San Jose, Batangas, Philippines",13.87868,121.09942,PLDT,112632,134646,112.63,134.65,7,548,137,172
"San Ildefonso, Bulacan, Philippines",15.07717,120.94171,Globe,269183,230973,269.18,230.97,6,545,130,169
"San Isidro, Davao Oriental, Philippines",6.78235,126.11108,PLDT Home Fiber,82257,88605,82.26,88.61,12,545,14,18
"Baras, Rizal, Philippines",14.53656,121.27408,PLDT Home Fiber,72063,85726,72.06,85.73,4,544,87,116
"Pili, Camarines Sur, Philippines",13.55521,123.28126,Globe,89264,94671,89.26,94.67,12,543,37,41
"Siniloan, Laguna, Philippines",14.43831,121.48561,PLDT Home Fiber,75290,96529,75.29,96.53,11,542,55,71
"Binmaley, Pangasinan, Philippines",16.02892,120.26882,PLDT Home Fiber,81612,81237,81.61,81.24,13,542,141,203
"Sorsogon City, Sorsogon, Philippines",12.97888,123.98477,Converge,84535,66434,84.54,66.43,17,541,68,116
"Jaen, Nueva Ecija, Philippines",15.39558,120.87286,PLDT,56622,52617,56.62,52.62,15,540,184,258
"Catarman, Northern Samar, Philippines",12.44271,124.61927,Globe,62384,61361,62.38,61.36,13,538,80,109
"General Mariano Alvarez, Cavite, Philippines",14.29525,121.0071,Converge,203759,183384,203.76,183.38,7,537,116,185
"Calbayog, Samar, Philippines",12.0685,124.59081,PLDT Home Fiber,143072,193960,143.07,193.96,17,534,61,88
"Aringay, La Union, Philippines",16.40163,120.40119,PLDT,49344,65622,49.34,65.62,9,534,141,220
"Amadeo, Cavite, Philippines",14.18985,120.92452,PLDT,131722,161881,131.72,161.88,9,533,126,174
"Barotac Viejo, Iloilo, Philippines",11.10187,122.87613,PLDT,45058,46388,45.06,46.39,11,532,84,119
"Panabo City, Davao del Norte, Philippines",7.30822,125.68662,Globe,169847,124852,169.85,124.85,8,532,73,97
"Antipas, Cotabato, Philippines",7.27386,125.01679,PLDT,96204,98410,96.20,98.41,8,529,165,230
"Vigan City, Ilocos Sur, Philippines",17.56485,120.38781,PLDT,81790,63554,81.79,63.55,11,529,88,130
"Moalboal, Cebu, Philippines",9.93681,123.42714,Globe,95470,85739,95.47,85.74,10,528,106,153
"Bokod, Benguet, Philippines",16.45641,120.78097,PLDT,92621,94099,92.62,94.10,6,528,156,269
"Umingan, Pangasinan, Philippines",15.90396,120.82692,PLDT Home Fiber,82753,93148,82.75,93.15,8,527,112,175
"Limay, Bataan, Philippines",14.53661,120.56245,PLDT Home Fiber,91563,93403,91.56,93.40,7,527,78,109
"San Carlos City, Negros Occidental, Philippines",10.48344,123.30371,Converge,98176,84807,98.18,84.81,14,525,46,57
"Alaminos City, Pangasinan, Philippines",16.15053,119.98562,PLDT Home Fiber,93635,95099,93.64,95.10,9,525,83,111
"City of Mati, Davao Oriental, Philippines",6.95722,126.15454,Globe,111825,72437,111.83,72.44,14,518,59,82
"Kabacan, Cotabato, Philippines",7.10719,124.84034,PLDT Home Fiber,60506,67445,60.51,67.45,11,515,121,180
"Tanay, Rizal, Philippines",14.61419,121.37703,PLDT Home Fiber,92681,97767,92.68,97.77,4,514,120,176
"Dumaguete City, Negros Oriental, Philippines",9.29841,123.29249,Converge,127886,99571,127.89,99.57,24,513,151,191
"Santo Tomas, Batangas, Philippines",14.08754,121.17764,Globe,117682,118045,117.68,118.05,8,513,103,144
"Isulan, Sultan Kudarat, Philippines",6.6318,124.44201,PLDT,50271,54520,50.27,54.52,12,512,81,109
"Alcala, Cagayan, Philippines",17.90497,121.65113,Converge,98356,104735,98.36,104.74,13,511,133,229
"San Fernando City, La Union, Philippines",16.61592,120.32102,PLDT,93005,100288,93.01,100.29,3,511,96,163
"City of Catbalogan, Samar, Philippines",11.85683,124.88449,Globe,116939,100596,116.94,100.60,12,510,104,146
"Llanera, Nueva Ecija, Philippines",15.66623,121.01057,PLDT,37243,36592,37.24,36.59,17,510,77,132
"Pavia, Iloilo, Philippines",10.7748,122.54261,Globe,98388,100896,98.39,100.90,5,510,87,119
"Cardona, Rizal, Philippines",14.48493,121.232,PLDT Home Fiber,98239,151928,98.24,151.93,3,509,115,163
"Alilem, Ilocos Sur, Philippines",16.9074,120.59698,PLDT Home Fiber,96601,101458,96.60,101.46,4,507,166,251
"Nasugbu, Batangas, Philippines",14.09404,120.68901,PLDT Home Fiber,143364,158560,143.36,158.56,9,506,98,124
"Subic Bay Freeport Zone, Philippines",14.80319,120.30033,PLDT Home Fiber,142183,116877,142.18,116.88,7,505,151,221
"Santo Domingo, Nueva Ecija, Philippines",15.61284,120.88434,PLDT,76811,73967,76.81,73.97,21,504,156,222
"Pulilan, Bulacan, Philippines",14.90243,120.8459,Converge,109422,91363,109.42,91.36,6,503,124,174
"Mauban, Quezon, Philippines",14.23756,121.69674,PLDT Home Fiber,105720,149331,105.72,149.33,5,503,114,166
"San Francisco, Agusan del Sur, Philippines",8.44573,125.95878,PLDT Home Fiber,64778,80439,64.78,80.44,6,502,61,86
"Olongapo City, Zambales, Philippines",14.88739,120.36661,PLDT,116136,71395,116.14,71.40,6,500,155,206
"San Mateo, Isabela, Philippines",16.87673,121.59408,PLDT Home Fiber,55753,55525,55.75,55.53,12,500,69,93
"Tanjay City, Negros Oriental, Philippines",9.49579,122.9663,PLDT Home Fiber,67942,70400,67.94,70.40,9,497,88,130
"City of Baybay, Leyte, Philippines",10.66858,124.80409,Globe,92481,94293,92.48,94.29,12,496,76,93
"Maitum, Sarangani, Philippines",6.12408,124.48636,PLDT,22643,21360,22.64,21.36,13,496,45,58
"Libungan, Cotabato, Philippines",7.31637,124.53068,PLDT Home Fiber,90561,55726,90.56,55.73,12,496,47,65
"Pandi, Bulacan, Philippines",14.87572,120.95941,Globe,119525,108445,119.53,108.45,7,494,114,138
"Tanza, Cavite, Philippines",14.34293,120.85032,PLDT,80889,91205,80.89,91.21,7,494,96,135
"Gapan City, Nueva Ecija, Philippines",15.29121,121.01057,Converge,147861,162117,147.86,162.12,7,493,105,157
"Kumalarang, Zamboanga del Sur, Philippines",7.7703,123.1464,PLDT,52616,52017,52.62,52.02,20,491,110,186
"Tacloban City, Leyte, Philippines",11.22238,124.99221,PLDT Home Fiber,112014,138750,112.01,138.75,17,491,100,139
"Binangonan, Rizal, Philippines",14.48441,121.1869,Globe,144529,126438,144.53,126.44,4,491,116,153
"Zamboanga City, Zamboanga del Sur, Philippines",6.90437,122.07612,PLDT,48563,49268,48.56,49.27,22,490,118,213
"Tagum, Davao del Norte, Philippines",7.44742,125.80246,Converge,143293,126846,143.29,126.85,4,487,99,130
"Lambayong (Mariano Marcos), Sultan Kudarat, Philippines",6.79879,124.61927,PLDT Home Fiber,49570,44132,49.57,44.13,12,486,52,72
"Roxas, Oriental Mindoro, Philippines",12.62617,121.47989,PLDT Home Fiber,40934,41420,40.93,41.42,7,486,34,42
"Calumpit, Bulacan, Philippines",14.91518,120.7662,Converge,108946,110848,108.95,110.85,5,486,112,150
"Jala-jala, Rizal, Philippines",14.36149,121.34273,PLDT Home Fiber,108689,116910,108.69,116.91,6,486,48,85
"Cawayan, Masbate, Philippines",12.05579,123.72942,PLDT,7348,9651,7.35,9.65,35,485,12,16
"Malay, Aklan, Philippines",11.93033,121.95191,Converge,61507,51122,61.51,51.12,15,484,111,189
"Carles, Iloilo, Philippines",11.55216,123.13515,PLDT Home Fiber,57523,58970,57.52,58.97,17,483,39,50
"Catarman, Northern Samar, Philippines",12.44271,124.61927,PLDT Home Fiber,108511,113104,108.51,113.10,20,481,78,112
"San Ildefonso, Bulacan, Philippines",15.07717,120.94171,Converge,93428,92809,93.43,92.81,6,481,105,143
"Alimodian, Iloilo, Philippines",10.85495,122.39009,PLDT,99460,120231,99.46,120.23,10,480,35,51
"Liloan, Cebu, Philippines",10.39926,124.00002,PLDT,116087,157405,116.09,157.41,4,477,138,179
"San Pascual, Batangas, Philippines",13.81044,121.02204,PLDT Home Fiber,108463,135978,108.46,135.98,7,476,98,125
"City Of Bislig, Surigao del Sur, Philippines",8.21006,126.28478,Globe,60863,81240,60.86,81.24,14,475,47,56
"Malaybalay City, Bukidnon, Philippines",8.15775,125.17087,Converge,88633,79881,88.63,79.88,9,474,141,158
"Oton, Iloilo, Philippines",10.69251,122.47868,PLDT Home Fiber,65005,82185,65.01,82.19,13,474,87,119
"Santo Tomas, Batangas, Philippines",14.08754,121.17764,Converge,137646,146956,137.65,146.96,7,474,101,143
"Padre Garcia, Batangas, Philippines",13.87668,121.24547,Globe,175695,144716,175.70,144.72,7,473,126,178
"Matanao, Davao del Sur, Philippines",6.70421,125.22584,PLDT Home Fiber,112492,109365,112.49,109.37,9,472,163,240
"Aliaga, Nueva Ecija, Philippines",15.51204,120.86138,Globe,267339,258248,267.34,258.25,5,472,156,262
"Paracale, Camarines Norte, Philippines",14.23721,122.78588,PLDT Home Fiber,82645,60666,82.65,60.67,7,470,56,68
"Santa Cruz, Zambales, Philippines",15.77308,120.04341,Converge,77040,92069,77.04,92.07,6,468,36,46
"Maasin, Southern Leyte, Philippines",10.13272,124.84081,Globe,73414,64869,73.41,64.87,15,468,81,110
"Candaba, Pampanga, Philippines",15.09289,120.8277,Converge,77962,90962,77.96,90.96,5,467,108,160
"Valencia, Negros Oriental, Philippines",9.28494,123.1464,PLDT Home Fiber,125188,148946,125.19,148.95,10,463,68,85
"Oton, Iloilo, Philippines",10.69251,122.47868,Globe,124264,135018,124.26,135.02,10,462,88,110
"Talavera, Nueva Ecija, Philippines",15.58575,120.9197,PLDT Home Fiber,80491,108431,80.49,108.43,10,462,78,112
"Tuguegarao City, Cagayan, Philippines",17.60306,121.75374,Globe,103677,86060,103.68,86.06,11,460,67,93
"Picong, Lanao del Sur, Philippines",7.68873,123.96385,PLDT Home Fiber,97258,98083,97.26,98.08,6,460,90,134
"Talavera, Nueva Ecija, Philippines",15.58575,120.9197,Globe,115661,107048,115.66,107.05,6,459,108,142
"Daraga, Albay, Philippines",13.12278,123.69588,PLDT,102362,133516,102.36,133.52,7,457,104,144
"San Manuel, Pangasinan, Philippines",16.10561,120.67751,Converge,279334,278129,279.33,278.13,5,457,4,7
"Ibaan, Batangas, Philippines",13.81895,121.13082,PLDT Home Fiber,110483,105697,110.48,105.70,4,456,82,135
"Santa Cruz, Davao del Sur, Philippines",6.83551,125.41659,PLDT Home Fiber,94383,64397,94.38,64.40,9,455,48,68
"Lubao, Pampanga, Philippines",14.92678,120.58795,PLDT Home Fiber,110589,126462,110.59,126.46,10,455,123,160
"Noveleta, Cavite, Philippines",14.42785,120.88009,PLDT Home Fiber,139841,169261,139.84,169.26,7,453,86,121
"City of Borongan, Eastern Samar, Philippines",11.61739,125.34663,Globe,113397,108751,113.40,108.75,18,452,101,126
"Compostela, Cebu, Philippines",10.45408,124.013,PLDT,62573,82170,62.57,82.17,8,451,91,118
"Talisay, Batangas, Philippines",14.11598,121.04498,Globe,62306,54303,62.31,54.30,7,451,135,242
"Marawi City, Lanao del Sur, Philippines",8.0292,124.29772,PLDT,72075,59038,72.08,59.04,24,449,102,158
"Gerona, Tarlac, Philippines",15.60489,120.59698,Converge,81628,87683,81.63,87.68,5,447,148,200
"Kidapawan, Cotabato, Philippines",7.02127,125.09019,Converge,111844,112130,111.84,112.13,5,447,102,133
"Gingoog City, Misamis Oriental, Philippines",8.81446,125.10406,PLDT Home Fiber,81184,112415,81.18,112.42,7,447,47,68
"Naic, Cavite, Philippines",14.29649,120.79246,Converge,189537,204457,189.54,204.46,5,447,94,129
"Isabela, Negros Occidental, Philippines",10.22566,123.01136,PLDT Home Fiber,52024,55086,52.02,55.09,18,445,41,64
"Santa Cruz, Laguna, Philippines",14.26911,121.41133,PLDT Home Fiber,104843,133942,104.84,133.94,12,445,100,139
"Gandara, Samar, Philippines",12.06444,124.79617,PLDT Home Fiber,19478,24361,19.48,24.36,20,444,33,39
"Dona Remedios Trinidad, Bulacan, Philippines",15.11427,121.21685,PLDT Home Fiber,61096,62480,61.10,62.48,8,443,137,187
"San Miguel, Bulacan, Philippines",15.14158,120.9751,Converge,99599,99015,99.60,99.02,6,442,117,144
"Minglanilla, Cebu, Philippines",10.24543,123.79599,Globe,121875,115883,121.88,115.88,8,439,123,158
"Kiamba, Sarangani, Philippines",6.00076,124.70777,PLDT,17245,19046,17.25,19.05,26,438,36,53
"San Carlos City, Pangasinan, Philippines",15.92589,120.34827,PLDT,83187,88775,83.19,88.78,5,438,76,105
"Tuburan, Cebu, Philippines",10.66879,123.86345,PLDT,33644,33091,33.64,33.09,9,438,41,54
"Binmaley, Pangasinan, Philippines",16.02892,120.26882,PLDT,81652,93102,81.65,93.10,8,437,95,118
"Candelaria, Quezon, Philippines",13.94899,121.42276,PLDT,98504,95900,98.50,95.90,9,436,133,199
"Sibalom, Antique, Philippines",10.76502,122.06102,PLDT Home Fiber,101356,100237,101.36,100.24,17,436,25,37
"Angat, Bulacan, Philippines",14.92586,121.02204,PLDT Home Fiber,92270,94405,92.27,94.41,7,436,134,178
"Marawi City, Lanao del Sur, Philippines",8.0292,124.29772,Globe,58796,49334,58.80,49.33,9,435,69,96
"Mayoyao, Ifugao, Philippines",16.95131,121.21685,PLDT Home Fiber,94621,96935,94.62,96.94,12,435,101,173
"Talisay, Batangas, Philippines",14.11598,121.04498,PLDT,121620,192759,121.62,192.76,5,435,100,132
"Mexico, Pampanga, Philippines",15.06457,120.72033,Globe,120081,112305,120.08,112.31,7,433,107,132
"Santa Catalina, Negros Oriental, Philippines",9.28676,122.94377,PLDT,27112,47441,27.11,47.44,11,429,26,42
"Dipolog City, Zamboanga del Norte, Philippines",8.58717,123.34035,Globe,78407,55208,78.41,55.21,10,429,59,84
"Bantayan, Cebu, Philippines",11.18041,123.7406,PLDT,28702,42114,28.70,42.11,8,428,69,87
"Santiago, Isabela, Philippines",16.69679,121.55865,Globe,113683,109057,113.68,109.06,7,428,62,77
"M'lang, Cotabato, Philippines",6.93822,124.90655,PLDT Home Fiber,93322,88182,93.32,88.18,9,427,99,145
"Iriga City, Camarines Sur, Philippines",13.42095,123.41361,PLDT,60948,63350,60.95,63.35,10,427,96,116
"Kapatagan, Lanao del Norte, Philippines",7.86776,123.72942,PLDT Home Fiber,80381,62266,80.38,62.27,8,426,62,83
"San Luis, Pampanga, Philippines",15.03986,120.81544,Converge,79250,90768,79.25,90.77,5,425,69,98
"Bacacay, Albay, Philippines",13.29586,123.87462,Converge,169639,167140,169.64,167.14,5,425,25,46
"Naval, Biliran, Philippines",11.56681,124.44201,Globe,107407,90184,107.41,90.18,14,424,58,78
"Polomolok, South Cotabato, Philippines",6.22451,125.06084,Converge,73574,125997,73.57,126.00,5,423,59,71
"San Andres, Catanduanes, Philippines",13.6332,124.08641,PLDT,54603,82361,54.60,82.36,12,422,48,62
"Buldon, Maguindanao, Philippines",7.47483,124.39764,PLDT Home Fiber,87240,94147,87.24,94.15,9,418,117,164
"Atimonan, Quezon, Philippines",13.96507,121.87903,PLDT Home Fiber,117090,99554,117.09,99.55,6,418,106,154
"Catarman, Northern Samar, Philippines",12.44271,124.61927,PLDT,97873,91974,97.87,91.97,23,417,9,16
"San Leonardo, Nueva Ecija, Philippines",15.37285,120.95321,PLDT Home Fiber,92897,79252,92.90,79.25,11,416,107,178
"Albuera, Leyte, Philippines",10.90539,124.75198,Globe,177906,160052,177.91,160.05,12,414,16,19
"Cordova, Cebu, Philippines",10.25278,123.9494,Globe,128639,117425,128.64,117.43,5,414,80,92
"San Enrique, Negros Occidental, Philippines",10.42735,122.86485,PLDT,52915,57482,52.92,57.48,15,413,90,131
"Tapaz, Capiz, Philippines",11.28689,122.49201,PLDT,46603,42426,46.60,42.43,12,413,104,134
"Talibon, Bohol, Philippines",10.11933,124.26439,PLDT,22140,21468,22.14,21.47,8,411,42,53
"Concepcion, Tarlac, Philippines",15.324,120.65596,Globe,175469,190648,175.47,190.65,4,411,130,193
"Cordon, Isabela, Philippines",16.67835,121.46847,PLDT Home Fiber,51610,55823,51.61,55.82,15,410,70,94
"Rizal, Laguna, Philippines",14.08408,121.41133,PLDT Home Fiber,97600,136080,97.60,136.08,8,410,107,162
"Alangalang, Leyte, Philippines",11.23565,124.88449,PLDT,38712,40023,38.71,40.02,24,410,77,120
"Bogo City, Cebu, Philippines",11.04623,124.00287,Globe,117820,86146,117.82,86.15,6,409,53,66
"Nasugbu, Batangas, Philippines",14.09404,120.68901,Converge,155246,135379,155.25,135.38,6,409,110,180
"Victoria, Laguna, Philippines",14.19678,121.34273,PLDT Home Fiber,92485,106442,92.49,106.44,7,408,106,149
"Valencia City, Bukidnon, Philippines",7.86319,125.17087,PLDT Home Fiber,102728,118400,102.73,118.40,4,407,88,119
"Bacong, Negros Oriental, Philippines",9.24338,123.27003,PLDT Home Fiber,108089,149623,108.09,149.62,9,406,69,81
"Cabiao, Nueva Ecija, Philippines",15.25221,120.85957,Converge,143811,156595,143.81,156.60,4,405,147,222
"Santo Nino, South Cotabato, Philippines",6.44221,124.67459,PLDT Home Fiber,53063,48981,53.06,48.98,11,405,57,74
"Talisay, Negros Occidental, Philippines",10.74828,122.98012,Converge,203263,215498,203.26,215.50,13,403,101,144
"Angat, Bulacan, Philippines",14.92586,121.02204,Converge,91478,88198,91.48,88.20,7,403,41,66
"Polomolok, South Cotabato, Philippines",6.22451,125.06084,PLDT,26868,73909,26.87,73.91,24,400,114,174
"Sibulan, Negros Oriental, Philippines",9.35972,123.28476,Globe,121514,132760,121.51,132.76,11,399,75,98
"General Mariano Alvarez, Cavite, Philippines",14.29525,121.0071,PLDT Home Fiber,102965,144050,102.97,144.05,6,398,86,116
"Tangub City, Misamis Occidental, Philippines",8.09592,123.6847,PLDT,97474,92580,97.47,92.58,24,397,60,80
"Dauis, Bohol, Philippines",9.60401,123.82996,PLDT Home Fiber,102230,104426,102.23,104.43,9,397,92,117
"Titay, Zamboanga Sibugay, Philippines",7.84847,122.57121,PLDT Home Fiber,94301,109819,94.30,109.82,21,397,40,57
"Glan, Sarangani, Philippines",5.82205,125.20413,PLDT Home Fiber,27719,32942,27.72,32.94,12,397,46,60
"General Mariano Alvarez, Cavite, Philippines",14.29525,121.0071,Globe,279933,274868,279.93,274.87,5,396,94,145
"Alamada, Cotabato, Philippines",7.47945,124.55284,PLDT Home Fiber,94238,95532,94.24,95.53,11,396,88,120
"Carmen, Davao del Norte, Philippines",7.35492,125.704,PLDT Home Fiber,91255,87413,91.26,87.41,8,396,109,163
"Tibiao, Antique, Philippines",11.30535,122.09511,PLDT Home Fiber,74018,70752,74.02,70.75,18,393,26,36
"Tubungan, Iloilo, Philippines",10.80645,122.29941,PLDT,77041,62559,77.04,62.56,11,392,121,170
"Lumban, Laguna, Philippines",14.29353,121.52558,PLDT,54507,56758,54.51,56.76,11,392,144,196
"Paombong, Bulacan, Philippines",14.83781,120.78406,PLDT,70853,55922,70.85,55.92,9,391,95,124
"Cotabato City, Maguindanao, Philippines",7.20467,124.23104,Globe,84602,51662,84.60,51.66,11,390,46,64
"Alicia, Isabela, Philippines",16.80691,121.69674,PLDT Home Fiber,60173,67016,60.17,67.02,13,390,84,116
"Narra, Palawan, Philippines",9.229,118.33047,PLDT,80748,100400,80.75,100.40,35,390,54,76
"Dauis, Bohol, Philippines",9.60401,123.82996,Converge,150285,120064,150.29,120.06,24,389,105,132
"Villasis, Pangasinan, Philippines",15.90523,120.55094,PLDT Home Fiber,67273,94404,67.27,94.40,8,389,102,153
"Nagcarlan, Laguna, Philippines",14.14903,121.38847,PLDT,75661,81399,75.66,81.40,14,387,102,154
"Tayug, Pangasinan, Philippines",16.01085,120.74649,PLDT Home Fiber,87673,93960,87.67,93.96,12,386,94,138
"Aliaga, Nueva Ecija, Philippines",15.51204,120.86138,PLDT Home Fiber,86428,88627,86.43,88.63,10,385,72,91
"Padre Garcia, Batangas, Philippines",13.87668,121.24547,Converge,117358,123270,117.36,123.27,6,385,73,104
"Gattaran, Cagayan, Philippines",18.07365,121.87903,PLDT,92036,95202,92.04,95.20,15,384,96,130
"Lingayen, Pangasinan, Philippines",16.00973,120.22449,Converge,99920,94487,99.92,94.49,5,384,44,59
"Brooke's Point, Palawan, Philippines",8.78617,117.83817,PLDT Home Fiber,53640,57678,53.64,57.68,24,383,38,53
"City Of Bislig, Surigao del Sur, Philippines",8.21006,126.28478,PLDT Home Fiber,79398,86095,79.40,86.10,9,383,77,97
"Penaranda, Nueva Ecija, Philippines",15.36229,121.02204,PLDT Home Fiber,90942,94063,90.94,94.06,11,382,97,165
"Lupon, Davao Oriental, Philippines",7.09663,126.19798,PLDT Home Fiber,94480,92904,94.48,92.90,10,381,70,102
"Naawan, Misamis Oriental, Philippines",8.43488,124.34214,PLDT Home Fiber,79324,45947,79.32,45.95,5,381,20,22
"Dulag, Leyte, Philippines",10.95915,125.00577,PLDT,64264,71083,64.26,71.08,17,380,32,44
"Bauang, La Union, Philippines",16.51433,120.35508,PLDT Home Fiber,91140,93652,91.14,93.65,3,379,96,135
"Alaminos, Laguna, Philippines",14.0454,121.25119,PLDT Home Fiber,104497,163741,104.50,163.74,13,379,75,117
"Arakan, Cotabato, Philippines",7.35122,125.17087,PLDT Home Fiber,94210,93965,94.21,93.97,8,379,111,156
"Malasiqui, Pangasinan, Philippines",15.92028,120.41443,PLDT,86019,93531,86.02,93.53,6,378,102,130
"Pateros, Metro Manila, Philippines",14.54838,121.07077,PLDT,100575,105322,100.58,105.32,3,377,82,109
"Muñoz, Nueva Ecija, Philippines",15.70664,120.9029,Converge,98893,98748,98.89,98.75,5,376,68,96
"Murcia, Negros Occidental, Philippines",10.60643,123.03944,PLDT,46638,48251,46.64,48.25,16,376,62,91
"Polanco, Zamboanga del Norte, Philippines",8.49106,123.38228,PLDT Home Fiber,76484,92166,76.48,92.17,10,375,65,79
"Camiling, Tarlac, Philippines",15.67495,120.41272,PLDT Home Fiber,97927,106117,97.93,106.12,12,375,47,70
"Macabebe, Pampanga, Philippines",14.89732,120.6545,PLDT Home Fiber,93478,94248,93.48,94.25,9,374,105,165
"Balungao, Pangasinan, Philippines",15.88371,120.68901,PLDT Home Fiber,91619,94377,91.62,94.38,6,374,119,192
"Tabaco City, Albay, Philippines",13.36138,123.72876,PLDT Home Fiber,75817,61056,75.82,61.06,32,374,62,82
"Subic, Zambales, Philippines",14.83066,120.18202,PLDT Home Fiber,82652,93891,82.65,93.89,8,374,56,75
"Cuyapo, Nueva Ecija, Philippines",15.79995,120.68901,PLDT Home Fiber,97819,106721,97.82,106.72,13,373,90,131
"Norzagaray, Bulacan, Philippines",14.89659,121.14813,PLDT Home Fiber,91409,95734,91.41,95.73,8,373,116,171
"Santa Cruz, Laguna, Philippines",14.26911,121.41133,PLDT,122348,165070,122.35,165.07,10,373,78,115
"Tabaco City, Albay, Philippines",13.36138,123.72876,Converge,101091,104119,101.09,104.12,5,372,66,96
"Cabuyao City, Laguna, Philippines",14.27433,121.11961,Globe,120469,115546,120.47,115.55,7,372,84,112
"Bustos, Bulacan, Philippines",14.95239,120.91735,PLDT,75955,70993,75.96,70.99,12,370,107,149
"Talugtug, Nueva Ecija, Philippines",15.7698,120.81544,Globe,61273,54008,61.27,54.01,6,369,105,226
"Liloy, Zamboanga del Norte, Philippines",8.07325,122.69555,PLDT,36380,37919,36.38,37.92,20,369,36,49
"Kalibo, Aklan, Philippines",11.70734,122.36986,Globe,101462,103902,101.46,103.90,14,368,80,119
"Rosario, Cavite, Philippines",14.41672,120.85471,PLDT,91619,102231,91.62,102.23,8,368,94,131
"Lagonoy, Camarines Sur, Philippines",13.86688,123.48319,PLDT Home Fiber,53295,55770,53.30,55.77,16,367,21,29
"Rosario, La Union, Philippines",16.23014,120.48702,Converge,99517,93124,99.52,93.12,3,367,14,28
"Estancia, Iloilo, Philippines",11.45356,123.13515,PLDT,74358,79955,74.36,79.96,10,366,46,67
"Kidapawan, Cotabato, Philippines",7.02127,125.09019,PLDT,92997,97377,93.00,97.38,10,365,117,158
"San Jose de Buenavista, Antique, Philippines",10.74901,121.94128,Globe,82420,69702,82.42,69.70,12,364,67,93
"Candon City, Ilocos Sur, Philippines",17.19612,120.44729,Converge,94389,105470,94.39,105.47,9,362,100,154
"Hermosa, Bataan, Philippines",14.83566,120.47709,PLDT Home Fiber,96094,97489,96.09,97.49,7,361,95,130
"Mabalacat City, Pampanga, Philippines",15.24525,120.56567,Globe,115580,99295,115.58,99.30,4,361,92,116
"Echague, Isabela, Philippines",16.66606,121.78792,PLDT Home Fiber,51868,56471,51.87,56.47,14,361,84,111
"Carcar, Cebu, Philippines",10.10478,123.64147,Globe,115246,116885,115.25,116.89,9,360,64,87
"Gloria, Oriental Mindoro, Philippines",12.93397,121.37703,PLDT Home Fiber,81646,79428,81.65,79.43,7,360,60,76
"Malilipot, Albay, Philippines",13.29931,123.71824,PLDT,93830,102923,93.83,102.92,7,359,65,91
"Basud, Camarines Norte, Philippines",14.00663,122.9663,PLDT Home Fiber,59887,63248,59.89,63.25,7,359,45,51
"Urdaneta City, Pangasinan, Philippines",15.98194,120.59698,PLDT,65569,82273,65.57,82.27,6,357,93,128
"Pagadian City, Zamboanga del Sur, Philippines",7.86265,123.37106,PLDT,85806,64126,85.81,64.13,13,357,84,118
"Baliwag, Bulacan, Philippines",14.96569,120.89431,Globe,115920,104639,115.92,104.64,8,357,111,153
"Limay, Bataan, Philippines",14.53661,120.56245,Converge,96424,121047,96.42,121.05,12,355,110,143
"Manapla, Negros Occidental, Philippines",10.95795,123.12428,PLDT Home Fiber,108701,159163,108.70,159.16,13,354,59,80
"Asingan, Pangasinan, Philippines",16.00318,120.67063,PLDT,92815,94378,92.82,94.38,6,354,122,179
"Bayawan City, Negros Oriental, Philippines",9.53644,122.7633,PLDT,51444,50582,51.44,50.58,10,354,46,64
"San Luis, Batangas, Philippines",13.8406,120.95321,Globe,61565,53405,61.57,53.41,6,353,121,215
"Agoo, La Union, Philippines",16.3247,120.35508,PLDT,92496,115104,92.50,115.10,5,351,52,68
"Baler, Aurora, Philippines",15.73361,121.57125,PLDT,46421,59025,46.42,59.03,14,351,98,136
"San Gabriel, La Union, Philippines",16.66943,120.50488,PLDT Home Fiber,89067,94374,89.07,94.37,5,351,97,145
"Bagumbayan, Sultan Kudarat, Philippines",6.4606,124.55284,PLDT Home Fiber,22615,26279,22.62,26.28,19,350,25,35
"La Trinidad, Benguet, Philippines",16.44844,120.59047,PLDT,88720,79292,88.72,79.29,5,350,78,109
"Guimba, Nueva Ecija, Philippines",15.65641,120.76767,PLDT Home Fiber,66439,72828,66.44,72.83,13,350,81,109
"Toledo, Cebu, Philippines",10.38705,123.65017,Converge,113562,119370,113.56,119.37,4,349,69,94
"Iba, Zambales, Philippines",15.39495,120.04341,PLDT Home Fiber,109995,104776,110.00,104.78,9,349,30,44
"Pontevedra, Negros Occidental, Philippines",10.35266,122.92123,PLDT,68501,44811,68.50,44.81,16,348,72,95
"Moncada, Tarlac, Philippines",15.73756,120.55094,PLDT Home Fiber,110627,110371,110.63,110.37,9,346,36,51
"Balagtas, Bulacan, Philippines",14.81784,120.90646,Globe,160985,147812,160.99,147.81,8,345,55,65
"Asturias, Cebu, Philippines",10.60209,123.77412,PLDT Home Fiber,72839,74998,72.84,75.00,5,345,56,83
"Balagtas, Bulacan, Philippines",14.81784,120.90646,Converge,162065,129684,162.07,129.68,7,344,95,123
"San Carlos City, Pangasinan, Philippines",15.92589,120.34827,Globe,61975,64895,61.98,64.90,5,344,53,65
"Ipil, Zamboanga Sibugay, Philippines",7.77318,122.57121,PLDT Home Fiber,90825,92952,90.83,92.95,19,344,92,120
"City of Guihulngan, Negros Oriental, Philippines",10.18323,123.21385,PLDT,41524,49626,41.52,49.63,19,343,96,121
"Butig, Lanao del Sur, Philippines",7.69371,124.31993,PLDT,35224,68545,35.22,68.55,46,342,74,128
"Jaen, Nueva Ecija, Philippines",15.39558,120.87286,Globe,120420,111147,120.42,111.15,4,341,74,117
"Pateros, Metro Manila, Philippines",14.54838,121.07077,Converge,223143,235766,223.14,235.77,4,341,104,127
"Tubigon, Bohol, Philippines",9.9145,123.96385,PLDT Home Fiber,79967,90984,79.97,90.98,11,341,38,59
"San Jose, Camarines Sur, Philippines",13.68724,123.53921,PLDT Home Fiber,73765,79602,73.77,79.60,36,340,36,45
"Pinamalayan, Oriental Mindoro, Philippines",13.01533,121.37703,PLDT Home Fiber,86374,93386,86.37,93.39,7,339,65,82
"Hermosa, Bataan, Philippines",14.83566,120.47709,Converge,130118,112247,130.12,112.25,6,339,98,136
"Sariaya, Quezon, Philippines",13.96301,121.52388,PLDT,91293,91251,91.29,91.25,9,339,96,141
"Tanay, Rizal, Philippines",14.61419,121.37703,Converge,93117,91554,93.12,91.55,5,338,57,76
"Balasan, Iloilo, Philippines",11.45927,123.09015,PLDT,27908,28786,27.91,28.79,12,338,24,37
"Asingan, Pangasinan, Philippines",16.00318,120.67063,PLDT Home Fiber,96073,132783,96.07,132.78,8,337,96,140
"Murcia, Negros Occidental, Philippines",10.60643,123.03944,Converge,87354,73465,87.35,73.47,13,337,70,96
"Paracale, Camarines Norte, Philippines",14.23721,122.78588,PLDT,26819,27485,26.82,27.49,14,336,59,95
"Zaragoza, Nueva Ecija, Philippines",15.46003,120.79246,PLDT Home Fiber,94345,94443,94.35,94.44,10,335,90,132
"Obando, Bulacan, Philippines",14.70986,120.93674,Converge,123053,129903,123.05,129.90,5,334,66,85
"San Juan, Batangas, Philippines",13.75044,121.37703,PLDT,60233,70210,60.23,70.21,9,334,93,128
"Tigaon, Camarines Sur, Philippines",13.61703,123.47198,Converge,104166,56688,104.17,56.69,13,333,29,43
"Calauan, Laguna, Philippines",14.14551,121.3146,PLDT,113333,132744,113.33,132.74,12,333,77,96
"Nabua, Camarines Sur, Philippines",13.4069,123.37324,Converge,71471,62876,71.47,62.88,4,333,44,70
"Rosales, Pangasinan, Philippines",15.86126,120.63149,PLDT Home Fiber,95610,100139,95.61,100.14,12,333,57,98
"Los Baños, Laguna, Philippines",14.17731,121.22161,Converge,144124,153788,144.12,153.79,6,332,71,138
"Sara, Iloilo, Philippines",11.28199,123.01136,PLDT Home Fiber,46168,57055,46.17,57.06,16,332,34,50
"Diadi, Nueva Vizcaya, Philippines",16.6595,121.33129,PLDT Home Fiber,94504,150286,94.50,150.29,11,332,71,119
"San Carlos City, Pangasinan, Philippines",15.92589,120.34827,Converge,95477,96161,95.48,96.16,6,331,114,145
"Arakan, Cotabato, Philippines",7.35122,125.17087,Globe,108737,117557,108.74,117.56,4,331,109,130
"Bais City, Negros Oriental, Philippines",9.56801,123.01136,PLDT,55026,47483,55.03,47.48,22,331,70,92
"Oroquieta City, Misamis Occidental, Philippines",8.48597,123.79825,PLDT Home Fiber,97193,80710,97.19,80.71,8,330,64,76
"Gapan City, Nueva Ecija, Philippines",15.29121,121.01057,Globe,111468,105087,111.47,105.09,5,329,108,153
"Sogod, Southern Leyte, Philippines",10.44929,125.01679,PLDT Home Fiber,102373,155118,102.37,155.12,8,329,37,50
"Balayan, Batangas, Philippines",13.94995,120.72973,Converge,167502,166346,167.50,166.35,6,328,75,100
"Salug, Zamboanga del Norte, Philippines",8.06518,122.78588,PLDT Home Fiber,110635,111800,110.64,111.80,21,326,19,26
"Pavia, Iloilo, Philippines",10.7748,122.54261,Converge,91583,93217,91.58,93.22,11,325,80,104
"Dinalupihan, Bataan, Philippines",14.88605,120.44729,Converge,104975,94150,104.98,94.15,5,325,76,93
"Kadingilan, Bukidnon, Philippines",7.53321,124.87345,PLDT Home Fiber,99724,97330,99.72,97.33,11,325,55,82
"Labason, Zamboanga del Norte, Philippines",8.01373,122.51464,PLDT Home Fiber,70476,45692,70.48,45.69,10,324,20,28
