Location Name,Latitude,Longitude,Provider,Download Speed,Upload Speed,Download Speed Mbps,Upload Speed Mbps,Minimum Latency,Test Count,Sample Count,User Count
"Quezon City, Metro Manila, Philippines",14.64879,121.05094,PLDT Home Fiber,155779,156773,155.78,156.77,3,172948,39066,58455
"Quezon City, Metro Manila, Philippines",14.64879,121.05094,Converge,174415,174985,174.42,174.99,4,120441,27332,43413
"Quezon City, Metro Manila, Philippines",14.64879,121.05094,Globe,186082,169867,186.08,169.87,5,110128,26878,41514
"Manila, Metro Manila, Philippines",14.59951,120.98423,Converge,186883,156741,186.88,156.74,4,75615,16677,29580
"Manila, Metro Manila, Philippines",14.59951,120.98423,PLDT Home Fiber,100779,104804,100.78,104.80,6,70417,15485,23995
"Cagayan De Oro City, Misamis Oriental, Philippines",8.48029,124.64975,PLDT Home Fiber,96499,94419,96.50,94.42,8,70097,15678,23241
"Cebu City, Cebu, Philippines",10.29261,123.90219,PLDT Home Fiber,99356,108572,99.36,108.57,7,66568,12800,18379
"Lucena City, Quezon, Philippines",13.94139,121.62345,PLDT,109079,115709,109.08,115.71,6,65951,13238,22935
"Davao City, Davao del Sur, Philippines",7.06475,125.60884,Globe,124462,113343,124.46,113.34,4,60543,14731,20515
"Quezon City, Metro Manila, Philippines",14.64879,121.05094,PLDT,76617,75277,76.62,75.28,8,59586,15379,22544
"Cebu City, Cebu, Philippines",10.29261,123.90219,PLDT,80332,88535,80.33,88.54,9,56610,12129,17345
"Cebu City, Cebu, Philippines",10.29261,123.90219,Globe,124643,111577,124.64,111.58,6,53199,13163,19082
"Pasig, Metro Manila, Philippines",14.56082,121.0776,Converge,110038,122223,110.04,122.22,4,50671,12231,17146
"Makati City, Metro Manila, Philippines",14.55474,121.02444,PLDT,82053,84140,82.05,84.14,9,48254,11822,16765
"Parañaque, Metro Manila, Philippines",14.47929,121.01985,Converge,195944,197271,195.94,197.27,4,47347,10827,17709
"Manila, Metro Manila, Philippines",14.59951,120.98423,PLDT,91750,93552,91.75,93.55,5,46773,11100,15516
"Parañaque, Metro Manila, Philippines",14.47929,121.01985,PLDT Home Fiber,134397,146213,134.40,146.21,5,45810,9528,14029
"Pasig, Metro Manila, Philippines",14.56082,121.0776,PLDT Home Fiber,157316,154774,157.32,154.77,3,44681,11017,16981
"Valenzuela, Metro Manila, Philippines",14.69247,120.96991,Converge,163349,162233,163.35,162.23,4,42429,9065,16167
"Davao City, Davao del Sur, Philippines",7.06475,125.60884,PLDT Home Fiber,101135,93989,101.14,93.99,8,41081,8899,12682
"Parañaque, Metro Manila, Philippines",14.47929,121.01985,PLDT,112090,99139,112.09,99.14,5,40991,10862,16673
"Cebu City, Cebu, Philippines",10.29261,123.90219,Converge,179901,194107,179.90,194.11,5,40446,8686,12992
"Cagayan De Oro City, Misamis Oriental, Philippines",8.48029,124.64975,Globe,106024,82400,106.02,82.40,9,40308,8739,13182
"Davao City, Davao del Sur, Philippines",7.06475,125.60884,Converge,118327,115127,118.33,115.13,3,38997,9393,14183
"Antipolo City, 1870 Rizal, Philippines",14.58584,121.17569,PLDT Home Fiber,137735,144251,137.74,144.25,3,37247,7917,11683
"Calamba, Laguna, Philippines",14.19488,121.15974,Converge,141427,128170,141.43,128.17,6,36399,8423,13915
"Taguig, Metro Manila, Philippines",14.53063,121.05755,Converge,196815,195203,196.82,195.20,4,35020,8083,13267
"Iligan City, Lanao del Norte, Philippines",8.22707,124.46418,PLDT Home Fiber,92971,93415,92.97,93.42,7,32320,6349,9519
"San Pablo City, Laguna, Philippines",14.06422,121.32326,Converge,125905,152702,125.91,152.70,7,32007,6841,12213
"Taguig, Metro Manila, Philippines",14.53063,121.05755,Globe,184221,160844,184.22,160.84,4,31820,8472,13482
"Tanza, Cavite, Philippines",14.34293,120.85032,Converge,204876,203500,204.88,203.50,5,31565,6044,9877
"Caloocan, Metro Manila, Philippines",14.65136,120.99022,PLDT Home Fiber,155924,162943,155.92,162.94,3,30410,6755,9769
"Pandi, Bulacan, Philippines",14.87572,120.95941,Converge,201150,102640,201.15,102.64,7,30313,6893,11245
"Cainta, Rizal, Philippines",14.58056,121.11565,PLDT Home Fiber,172396,176133,172.40,176.13,3,30135,6938,10313
"Makati City, Metro Manila, Philippines",14.55474,121.02444,PLDT Home Fiber,157108,142809,157.11,142.81,4,30073,7210,10562
"Marikina, Metro Manila, Philippines",14.63493,121.10195,Converge,181660,175070,181.66,175.07,3,29840,7295,11924
"Baguio, Benguet, Philippines",16.41297,120.5914,PLDT Home Fiber,95353,95410,95.35,95.41,6,29596,7161,10742
"Pasay City, Metro Manila, Philippines",14.53767,121.00081,PLDT Home Fiber,122979,116937,122.98,116.94,5,28877,6869,10442
"Angeles, Pampanga, Philippines",15.16061,120.60908,Converge,125039,132820,125.04,132.82,3,28215,6641,9537
"Imus, Cavite, Philippines",14.42764,120.93724,PLDT Home Fiber,167603,158487,167.60,158.49,4,27522,6024,9356
"Mexico, Pampanga, Philippines",15.06457,120.72033,Converge,169471,176818,169.47,176.82,4,26697,6840,10732
"Batangas City, Batangas, Philippines",13.75641,121.05833,Globe,117167,105189,117.17,105.19,10,25637,5825,9539
"Iloilo City, Iloilo, Philippines",10.73019,122.55911,Globe,109715,100416,109.72,100.42,9,21589,4905,7708
"Tanauan City, Batangas, Philippines",14.08354,121.14762,PLDT Home Fiber,121486,117610,121.49,117.61,7,21185,5377,8500
"Las Piñas, Metro Manila, Philippines",14.44934,120.98186,PLDT Home Fiber,158926,145925,158.93,145.93,4,21149,4574,6397
"Davao City, Davao del Sur, Philippines",7.06475,125.60884,PLDT,90931,89110,90.93,89.11,9,21075,5145,7084
"Calamba, Laguna, Philippines",14.19488,121.15974,PLDT Home Fiber,124595,121420,124.60,121.42,8,20923,5249,7901
"Taguig, Metro Manila, Philippines",14.53063,121.05755,PLDT Home Fiber,178663,165219,178.66,165.22,4,20907,4527,6232
"Tarlac City, Tarlac, Philippines",15.48808,120.58719,Converge,128257,116340,128.26,116.34,4,20491,5048,7689
"Antipolo City, 1870 Rizal, Philippines",14.58584,121.17569,Converge,176495,181499,176.50,181.50,4,20032,4760,7650
"San Fernando, Pampanga, Philippines",15.02781,120.69349,PLDT Home Fiber,130177,96526,130.18,96.53,8,20016,4494,6628
"Malabon, Metro Manila, Philippines",14.65793,120.95118,PLDT Home Fiber,110976,129950,110.98,129.95,3,19898,4534,7116
"Bacolod, Negros Occidental, Philippines",10.66764,122.94556,PLDT Home Fiber,92921,94735,92.92,94.74,8,19841,4086,6035
"Pasig, Metro Manila, Philippines",14.56082,121.0776,PLDT,79245,80428,79.25,80.43,9,19307,5176,7491
"Taguig, Metro Manila, Philippines",14.53063,121.05755,PLDT,84443,89954,84.44,89.95,7,19120,4834,6783
"Bacoor, Cavite, Philippines",14.43122,120.96567,PLDT Home Fiber,138465,128714,138.47,128.71,5,18979,4124,5905
"Muntinlupa, Metro Manila, Philippines",14.39453,121.04483,PLDT,93873,94349,93.87,94.35,5,18675,4462,6451
"Valenzuela, Metro Manila, Philippines",14.69247,120.96991,PLDT Home Fiber,139682,147183,139.68,147.18,3,18511,4668,6971
"Magpet, Cotabato, Philippines",7.1332,125.17087,PLDT,115373,95921,115.37,95.92,8,18038,5251,7566
"SJDM, Bulacan, Philippines",14.82867,121.04324,Converge,146984,113233,146.98,113.23,7,17909,3959,5660
"San Carlos City, Negros Occidental, Philippines",10.48344,123.30371,PLDT,116806,132550,116.81,132.55,5,17763,5120,7736
"Pasig, Metro Manila, Philippines",14.56082,121.0776,Globe,237883,212373,237.88,212.37,5,17721,3866,5426
"Capas, Tarlac, Philippines",15.34633,120.59344,Converge,144591,147568,144.59,147.57,4,17249,4760,7621
"Imus, Cavite, Philippines",14.42764,120.93724,Converge,193343,172845,193.34,172.85,6,17020,4443,7110
"Makati City, Metro Manila, Philippines",14.55474,121.02444,Globe,191691,159772,191.69,159.77,4,16625,4084,5925
"Minglanilla, Cebu, Philippines",10.24543,123.79599,Converge,232139,231306,232.14,231.31,5,16534,4091,6287
"Bago, Negros Occidental, Philippines",10.53757,122.83609,Converge,149104,131267,149.10,131.27,13,16503,3918,6416
"La Trinidad, Benguet, Philippines",16.44844,120.59047,Converge,99165,107146,99.17,107.15,3,16494,4239,6347
"Dasmariñas, Cavite, Philippines",14.33385,120.95423,Globe,184867,170795,184.87,170.80,5,16460,4419,6648
"Dasmariñas, Cavite, Philippines",14.33385,120.95423,PLDT Home Fiber,132488,133190,132.49,133.19,5,16410,3802,5729
"San Fernando, Pampanga, Philippines",15.02781,120.69349,Converge,95007,99760,95.01,99.76,4,16120,4329,5953
"Mandaluyong City, Metro Manila, Philippines",14.57627,121.03924,Globe,170272,139683,170.27,139.68,5,15729,4008,6291
"Iriga City, Camarines Sur, Philippines",13.42095,123.41361,Converge,99697,94643,99.70,94.64,4,15580,3313,6165
"Magpet, Cotabato, Philippines",7.1332,125.17087,PLDT Home Fiber,108739,96137,108.74,96.14,8,15022,4534,6619
"Taytay, Rizal, Philippines",14.55288,121.12571,PLDT Home Fiber,167001,175182,167.00,175.18,4,14672,3625,5243
"San Juan City, Metro Manila, Philippines",14.60196,121.0355,Globe,192806,168872,192.81,168.87,5,14319,3657,5508
"General Trias, Cavite, Philippines",14.38159,120.87915,Converge,171914,168287,171.91,168.29,6,14016,2736,4447
"Naga City, Camarines Sur, Philippines",13.6475,123.27003,Converge,90843,85087,90.84,85.09,11,13885,2301,3663
"San Juan City, Metro Manila, Philippines",14.60196,121.0355,PLDT,62801,61825,62.80,61.83,12,13752,4033,5779
"Bacolor, Pampanga, Philippines",14.99692,120.65235,PLDT Home Fiber,156170,110463,156.17,110.46,8,13519,3724,5636
"Los Baños, Laguna, Philippines",14.17731,121.22161,PLDT Home Fiber,125877,140196,125.88,140.20,8,13322,3285,5053
"Cabanatuan City, Nueva Ecija, Philippines",15.49943,121.01057,Globe,148834,125596,148.83,125.60,6,13151,3193,4682
"San Rafael, Bulacan, Philippines",15.00184,120.93141,PLDT Home Fiber,123577,105712,123.58,105.71,7,13061,3192,5162
"Pasay City, Metro Manila, Philippines",14.53767,121.00081,PLDT,87949,90148,87.95,90.15,8,13010,2995,4704
"Makati City, Metro Manila, Philippines",14.55474,121.02444,Converge,169442,164534,169.44,164.53,5,12769,2972,4513
"Mandaluyong City, Metro Manila, Philippines",14.57627,121.03924,Converge,176983,165872,176.98,165.87,4,12738,2879,4573
"Santa Cruz, Davao del Sur, Philippines",6.83551,125.41659,Converge,111022,117611,111.02,117.61,4,12713,2986,4572
"Polangui, Albay, Philippines",13.29368,123.48542,Converge,98768,77144,98.77,77.14,14,12696,2173,4439
"San Antonio, Nueva Ecija, Philippines",15.31921,120.82692,Globe,226713,210678,226.71,210.68,5,12496,3217,5312
"Marikina, Metro Manila, Philippines",14.63493,121.10195,PLDT Home Fiber,191954,178235,191.95,178.24,3,12435,2997,4354
"Malabon, Metro Manila, Philippines",14.65793,120.95118,Converge,167562,173699,167.56,173.70,4,12236,2457,4103
"Baguio, Benguet, Philippines",16.41297,120.5914,Converge,96003,102016,96.00,102.02,4,11704,2739,3859
"Bamban, Tarlac, Philippines",15.2885,120.57044,Converge,147956,146126,147.96,146.13,3,11690,3267,5073
"Biñan, Laguna, Philippines",14.31456,121.08316,PLDT Home Fiber,102303,109839,102.30,109.84,9,11636,2659,4227
"Claveria, Misamis Oriental, Philippines",8.62972,124.90655,Converge,129461,107719,129.46,107.72,9,11591,2982,4979
"Murcia, Negros Occidental, Philippines",10.60643,123.03944,Globe,152540,125695,152.54,125.70,9,11575,3042,4599
"Subic Bay Freeport Zone, Philippines",14.80319,120.30033,Converge,111797,124337,111.80,124.34,5,11573,2669,4057
"Caloocan, Metro Manila, Philippines",14.65136,120.99022,PLDT,93305,94226,93.31,94.23,3,11082,2480,3887
"Caloocan, Metro Manila, Philippines",14.65136,120.99022,Converge,198064,193279,198.06,193.28,4,11023,2048,2977
"Muntinlupa, Metro Manila, Philippines",14.39453,121.04483,PLDT Home Fiber,151564,120542,151.56,120.54,4,11016,2462,3507
"Silang, Cavite, Philippines",14.22025,120.96469,PLDT Home Fiber,149317,140689,149.32,140.69,5,10787,2731,4376
"Bacolod, Negros Occidental, Philippines",10.66764,122.94556,Globe,116000,106675,116.00,106.68,8,10674,2382,3316
"General Trias, Cavite, Philippines",14.38159,120.87915,PLDT Home Fiber,154780,125343,154.78,125.34,5,10587,2124,2831
"Antipolo City, 1870 Rizal, Philippines",14.58584,121.17569,PLDT,68293,71488,68.29,71.49,10,10587,2548,3707
"Butuan City, Agusan Del Norte, Philippines",8.94753,125.54063,Globe,120601,60287,120.60,60.29,12,10505,2610,3597
"Parañaque, Metro Manila, Philippines",14.47929,121.01985,Globe,159068,143815,159.07,143.82,4,10442,2551,3559
"San Carlos City, Negros Occidental, Philippines",10.48344,123.30371,PLDT Home Fiber,132916,157998,132.92,158.00,6,10428,3082,4722
"Cagayan De Oro City, Misamis Oriental, Philippines",8.48029,124.64975,Converge,112813,108236,112.81,108.24,8,10402,2158,3050
"La Paz, Tarlac, Philippines",15.4497,120.7235,Globe,93755,93718,93.76,93.72,5,10393,2568,4907
"Santa Ana, Pampanga, Philippines",15.09442,120.76623,Converge,131638,151795,131.64,151.80,4,10297,2693,4381
"Naga City, Camarines Sur, Philippines",13.6475,123.27003,PLDT Home Fiber,121847,118708,121.85,118.71,7,10223,2146,3437
"Las Piñas, Metro Manila, Philippines",14.44934,120.98186,PLDT,92809,93660,92.81,93.66,7,10208,2065,2936
"San Pablo City, Laguna, Philippines",14.06422,121.32326,PLDT Home Fiber,124897,143396,124.90,143.40,7,10036,2121,3434
"San Juan City, Metro Manila, Philippines",14.60196,121.0355,PLDT Home Fiber,172058,163332,172.06,163.33,3,10004,2616,3636
"Santa Maria, Bulacan, Philippines",14.82898,120.97616,Converge,173405,126685,173.41,126.69,7,9955,2319,3714
"Concepcion, Tarlac, Philippines",15.324,120.65596,Converge,99680,109033,99.68,109.03,4,9855,2738,4249
"Canlaon City, Negros Oriental, Philippines",10.36048,123.19137,PLDT Home Fiber,113028,140373,113.03,140.37,6,9841,2811,4332
"San Juan City, Metro Manila, Philippines",14.60196,121.0355,Converge,157912,140140,157.91,140.14,4,9760,2218,3822
"Iligan City, Lanao del Norte, Philippines",8.22707,124.46418,Converge,155833,146207,155.83,146.21,8,9655,2686,4138
"Binangonan, Rizal, Philippines",14.48441,121.1869,PLDT,139032,152457,139.03,152.46,3,9577,2766,4569
"Navotas, Metro Manila, Philippines",14.65819,120.94743,Globe,176305,160511,176.31,160.51,5,9477,2497,3712
"Mandaluyong City, Metro Manila, Philippines",14.57627,121.03924,PLDT Home Fiber,195150,189795,195.15,189.80,3,9459,2218,3034
"Itogon, Benguet, Philippines",16.36116,120.6787,PLDT,98039,97268,98.04,97.27,6,9374,2506,4129
"Magalang, Pampanga, Philippines",15.21394,120.66181,Converge,123142,132328,123.14,132.33,3,9367,2353,3839
"Candelaria, Quezon, Philippines",13.94899,121.42276,Converge,185345,184983,185.35,184.98,5,9221,2436,4374
"Danao, Cebu, Philippines",10.52013,124.02712,Globe,109720,99646,109.72,99.65,7,9137,2766,4435
"Caloocan, Metro Manila, Philippines",14.65136,120.99022,Globe,178592,157716,178.59,157.72,5,9129,2359,3323
"Calamba, Laguna, Philippines",14.19488,121.15974,PLDT,92460,94136,92.46,94.14,9,8987,2370,3469
"Talakag, Bukidnon, Philippines",8.05293,124.72988,PLDT Home Fiber,94367,94511,94.37,94.51,5,8976,2372,3727
"Tarlac City, Tarlac, Philippines",15.48808,120.58719,Globe,116990,104970,116.99,104.97,5,8934,2221,3379
"Iloilo City, Iloilo, Philippines",10.73019,122.55911,PLDT Home Fiber,98417,101317,98.42,101.32,10,8931,1934,2994
"Itogon, Benguet, Philippines",16.36116,120.6787,PLDT Home Fiber,100076,98238,100.08,98.24,7,8880,2336,3881
"Calapan City, Oriental Mindoro, Philippines",13.36643,121.19395,Converge,98167,94724,98.17,94.72,11,8803,1485,2721
"Batangas City, Batangas, Philippines",13.75641,121.05833,PLDT Home Fiber,132447,129294,132.45,129.29,8,8615,2040,2975
"Kawit, Cavite, Philippines",14.44588,120.90871,PLDT Home Fiber,93858,94495,93.86,94.50,8,8344,1994,3101
"Bago, Negros Occidental, Philippines",10.53757,122.83609,PLDT Home Fiber,113039,138116,113.04,138.12,6,8240,2575,3772
"Olongapo City, Zambales, Philippines",14.88739,120.36661,Converge,107353,109433,107.35,109.43,5,8220,2049,3260
"Burgos, La Union, Philippines",16.53803,120.47033,Converge,98498,106865,98.50,106.87,4,8181,2138,3361
"Taytay, Rizal, Philippines",14.55288,121.12571,Converge,205353,201090,205.35,201.09,3,8000,1688,2638
"Butuan City, Agusan Del Norte, Philippines",8.94753,125.54063,PLDT Home Fiber,85159,92255,85.16,92.26,9,7996,1413,2090
"Lucena City, Quezon, Philippines",13.94139,121.62345,PLDT Home Fiber,94452,103140,94.45,103.14,6,7973,1673,2667
"Tanauan City, Batangas, Philippines",14.08354,121.14762,PLDT,104461,106237,104.46,106.24,8,7607,2045,3207
"Iloilo City, Iloilo, Philippines",10.73019,122.55911,PLDT,78898,82780,78.90,82.78,12,7607,1482,2147
"Iloilo City, Iloilo, Philippines",10.73019,122.55911,Converge,105174,100959,105.17,100.96,13,7524,1505,2341
"Angeles, Pampanga, Philippines",15.16061,120.60908,PLDT Home Fiber,99736,97606,99.74,97.61,9,7355,1442,2008
"San Pedro, Laguna, Philippines",14.36443,121.06192,PLDT Home Fiber,105193,117449,105.19,117.45,8,7239,1248,1605
"New Lucena, Iloilo, Philippines",10.87841,122.59781,Converge,138903,106215,138.90,106.22,12,7190,1705,3188
"Malabon, Metro Manila, Philippines",14.65793,120.95118,PLDT,82646,84167,82.65,84.17,7,7147,1939,2807
"Bacoor, Cavite, Philippines",14.43122,120.96567,PLDT,90082,78415,90.08,78.42,8,6972,1780,2529
"Manila, Metro Manila, Philippines",14.59951,120.98423,Globe,179167,158570,179.17,158.57,5,6881,1481,1996
"Bacolod, Negros Occidental, Philippines",10.66764,122.94556,Converge,128082,113135,128.08,113.14,13,6818,1461,2220
"Lipa City, Batangas, Philippines",13.94047,121.19395,PLDT Home Fiber,142838,144265,142.84,144.27,7,6806,1710,2434
"Bacolod, Negros Occidental, Philippines",10.66764,122.94556,PLDT,81076,85771,81.08,85.77,9,6719,1463,2022
"Magpet, Cotabato, Philippines",7.1332,125.17087,Globe,62959,93304,62.96,93.30,6,6481,1925,2965
"Marilao, Bulacan, Philippines",14.77237,120.96001,PLDT Home Fiber,105168,98363,105.17,98.36,10,6448,1309,1832
"Bacoor, Cavite, Philippines",14.43122,120.96567,Converge,185243,158523,185.24,158.52,6,6414,1556,2461
"Malolos, Bulacan, Philippines",14.86049,120.80916,PLDT Home Fiber,115762,110883,115.76,110.88,7,6295,1530,2316
"San Mateo, Rizal, Philippines",14.69539,121.11767,PLDT Home Fiber,179292,186737,179.29,186.74,3,6192,1434,2009
"Imus, Cavite, Philippines",14.42764,120.93724,Globe,262841,230272,262.84,230.27,6,5994,1543,2385
"Kawit, Cavite, Philippines",14.44588,120.90871,Globe,157990,134064,157.99,134.06,6,5992,1418,2090
"City of Santa Rosa, Laguna, Philippines",14.31471,121.11232,PLDT Home Fiber,144520,135732,144.52,135.73,7,5801,986,1337
"Mandaluyong City, Metro Manila, Philippines",14.57627,121.03924,PLDT,57129,47647,57.13,47.65,10,5792,1576,2307
"Valenzuela, Metro Manila, Philippines",14.69247,120.96991,PLDT,78216,89544,78.22,89.54,8,5780,1288,1851
"Subic, Zambales, Philippines",14.83066,120.18202,Converge,102626,108089,102.63,108.09,5,5712,1528,2494
"Mabalacat City, Pampanga, Philippines",15.24525,120.56567,Converge,104778,117673,104.78,117.67,3,5680,1154,1576
"Tagaytay City, Cavite, Philippines",14.11541,120.96202,Converge,145428,109592,145.43,109.59,6,5659,1376,2234
"Zamboanga City, Zamboanga del Sur, Philippines",6.90437,122.07612,PLDT Home Fiber,104456,80307,104.46,80.31,10,5561,840,1110
"Urdaneta City, Pangasinan, Philippines",15.98194,120.59698,Converge,95703,98601,95.70,98.60,5,5502,1396,2181
"Taytay, Rizal, Philippines",14.55288,121.12571,PLDT,68466,77541,68.47,77.54,8,5499,1449,2179
"Rosario, Cavite, Philippines",14.41672,120.85471,Converge,181143,168344,181.14,168.34,6,5494,1086,1706
"Arayat, Pampanga, Philippines",15.15443,120.771,Converge,121499,141779,121.50,141.78,4,5476,1497,2412
"Cainta, Rizal, Philippines",14.58056,121.11565,Globe,220698,203980,220.70,203.98,5,5399,1265,1686
"San Pedro, Laguna, Philippines",14.36443,121.06192,Converge,159686,154571,159.69,154.57,6,5311,938,1613
"Marikina, Metro Manila, Philippines",14.63493,121.10195,Globe,124500,110800,124.50,110.80,5,5283,1336,1954
"Cardona, Rizal, Philippines",14.48493,121.232,PLDT,151310,145724,151.31,145.72,3,5258,1568,2587
"Las Piñas, Metro Manila, Philippines",14.44934,120.98186,Globe,218441,170866,218.44,170.87,5,5253,1048,1339
"Bago, Negros Occidental, Philippines",10.53757,122.83609,Globe,100184,94576,100.18,94.58,4,5251,1507,2253
"Bacoor, Cavite, Philippines",14.43122,120.96567,Globe,209172,182905,209.17,182.91,6,5242,1000,1274
"Balamban, Cebu, Philippines",10.48585,123.77412,Globe,191241,166546,191.24,166.55,7,5222,1564,2311
"Valenzuela, Metro Manila, Philippines",14.69247,120.96991,Globe,195221,181460,195.22,181.46,5,5163,896,1135
"Santa Barbara, Pangasinan, Philippines",15.9774,120.42424,Converge,98793,108295,98.79,108.30,5,5155,1343,2188
"Danao, Cebu, Philippines",10.52013,124.02712,PLDT Home Fiber,136323,165847,136.32,165.85,6,5086,1412,2132
"Cainta, Rizal, Philippines",14.58056,121.11565,PLDT,85681,91075,85.68,91.08,5,5052,1448,2047
"Meycauayan, Bulacan, Philippines",14.73772,120.96077,PLDT Home Fiber,94782,100732,94.78,100.73,9,5012,1056,1551
"City of Santa Rosa, Laguna, Philippines",14.31471,121.11232,PLDT,93244,94079,93.24,94.08,8,5001,1297,1844
"San Luis, Pampanga, Philippines",15.03986,120.81544,Converge,112940,129643,112.94,129.64,4,4945,1507,2257
"Santo Domingo, Nueva Ecija, Philippines",15.61284,120.88434,Globe,139991,119719,139.99,119.72,7,4924,1239,1827
"Muntinlupa, Metro Manila, Philippines",14.39453,121.04483,Converge,153849,157051,153.85,157.05,5,4873,1023,1358
"Batangas City, Batangas, Philippines",13.75641,121.05833,PLDT,98517,100167,98.52,100.17,8,4862,1219,1844
"Baguio, Benguet, Philippines",16.41297,120.5914,PLDT,83369,85645,83.37,85.65,6,4807,1093,1647
"Calamba, Laguna, Philippines",14.19488,121.15974,Globe,180302,160491,180.30,160.49,5,4735,1254,1744
"Pitogo, Quezon, Philippines",13.80951,122.10647,Converge,101429,103685,101.43,103.69,10,4699,860,1392
"Dagupan City, Pangasinan, Philippines",16.03375,120.33202,PLDT Home Fiber,99074,99644,99.07,99.64,7,4682,1094,1715
"Murcia, Negros Occidental, Philippines",10.60643,123.03944,PLDT Home Fiber,142984,152745,142.98,152.75,6,4670,1361,2024
"Baliwag, Bulacan, Philippines",14.96569,120.89431,PLDT Home Fiber,127494,111412,127.49,111.41,7,4652,1191,1782
"Rodriguez, Rizal, Philippines",14.73202,121.14516,PLDT Home Fiber,128418,139626,128.42,139.63,4,4520,881,1158
"Antipolo City, 1870 Rizal, Philippines",14.58584,121.17569,Globe,195524,182408,195.52,182.41,5,4501,940,1220
"Tarlac City, Tarlac, Philippines",15.48808,120.58719,PLDT Home Fiber,94619,94401,94.62,94.40,10,4480,1026,1546
"Panglao, Bohol, Philippines",9.56947,123.78721,Converge,69770,64304,69.77,64.30,28,4476,211,315
"City of Tayabas, Quezon, Philippines",14.01135,121.55983,PLDT Home Fiber,147329,150744,147.33,150.74,7,4426,1139,1860
"Santa Maria, Bulacan, Philippines",14.82898,120.97616,PLDT Home Fiber,135291,117172,135.29,117.17,8,4417,873,1259
"Marikina, Metro Manila, Philippines",14.63493,121.10195,PLDT,81094,85428,81.09,85.43,11,4412,1152,1651
"Biñan, Laguna, Philippines",14.31456,121.08316,PLDT,97655,99002,97.66,99.00,7,4361,1130,1496
"Santo Tomas, Batangas, Philippines",14.08754,121.17764,PLDT Home Fiber,116895,140979,116.90,140.98,10,4343,846,1161
"San Nicolas, Pangasinan, Philippines",16.12066,120.78097,PLDT Home Fiber,102457,99471,102.46,99.47,7,4337,1120,1742
"Binangonan, Rizal, Philippines",14.48441,121.1869,PLDT Home Fiber,157298,186275,157.30,186.28,4,4310,1128,1734
"General Trias, Cavite, Philippines",14.38159,120.87915,Globe,127305,117770,127.31,117.77,6,4248,931,1267
"San Nicolas, Pangasinan, Philippines",16.12066,120.78097,PLDT,94342,94710,94.34,94.71,6,4216,1283,2065
"Bokod, Benguet, Philippines",16.45641,120.78097,PLDT,99742,97105,99.74,97.11,6,4175,1210,1948
"Las Piñas, Metro Manila, Philippines",14.44934,120.98186,Converge,179725,179690,179.73,179.69,4,4120,853,1225
"Nasugbu, Batangas, Philippines",14.09404,120.68901,Globe,122787,108128,122.79,108.13,7,4112,983,1461
"Asturias, Cebu, Philippines",10.60209,123.77412,Globe,140582,110285,140.58,110.29,7,4086,1229,1890
"Bansalan, Davao del Sur, Philippines",6.84825,125.22584,PLDT Home Fiber,108283,97175,108.28,97.18,9,4085,1226,1849
"General Santos City (Dadiangas), South Cotabato, Philippines",6.14327,125.19286,PLDT Home Fiber,94313,90461,94.31,90.46,10,4060,742,967
"Cainta, Rizal, Philippines",14.58056,121.11565,Converge,187123,177135,187.12,177.14,4,4056,931,1194
"Candaba, Pampanga, Philippines",15.09289,120.8277,PLDT Home Fiber,94740,95944,94.74,95.94,8,4036,1132,1824
"Koronadal, South Cotabato, Philippines",6.50044,124.84333,PLDT Home Fiber,76668,72012,76.67,72.01,11,3986,788,1104
"Arayat, Pampanga, Philippines",15.15443,120.771,PLDT Home Fiber,94810,94589,94.81,94.59,10,3977,1033,1651
"Cabuyao City, Laguna, Philippines",14.27433,121.11961,PLDT Home Fiber,148634,141249,148.63,141.25,7,3950,994,1470
"San Pedro, Laguna, Philippines",14.36443,121.06192,PLDT,93323,93904,93.32,93.90,8,3919,818,1128
"Lapu-Lapu, Cebu, Philippines",10.31838,123.96395,Converge,128409,145100,128.41,145.10,3,3810,747,1051
"SJDM, Bulacan, Philippines",14.82867,121.04324,PLDT,81648,79118,81.65,79.12,8,3797,759,1087
"Pasay City, Metro Manila, Philippines",14.53767,121.00081,Converge,198030,204204,198.03,204.20,4,3787,961,1315
"Malolos, Bulacan, Philippines",14.86049,120.80916,PLDT,92043,93738,92.04,93.74,8,3768,789,1180
"Zamboanga City, Zamboanga del Sur, Philippines",6.90437,122.07612,Globe,111605,58720,111.61,58.72,14,3754,409,580
"Bustos, Bulacan, Philippines",14.95239,120.91735,PLDT Home Fiber,135872,116059,135.87,116.06,7,3715,1039,1601
"Lipa City, Batangas, Philippines",13.94047,121.19395,Globe,137897,129636,137.90,129.64,7,3653,927,1399
"Candelaria, Quezon, Philippines",13.94899,121.42276,PLDT Home Fiber,93229,94676,93.23,94.68,7,3568,793,1319
"SJDM, Bulacan, Philippines",14.82867,121.04324,PLDT Home Fiber,145128,139840,145.13,139.84,5,3549,775,1064
"Lapu-Lapu, Cebu, Philippines",10.31838,123.96395,Globe,177685,160909,177.69,160.91,5,3527,608,769
"Navotas, Metro Manila, Philippines",14.65819,120.94743,Converge,195638,191824,195.64,191.82,5,3527,915,1319
"Cadiz City, Negros Occidental, Philippines",10.86192,123.23632,PLDT Home Fiber,81527,87382,81.53,87.38,7,3525,854,1266
"Kayapa, Nueva Vizcaya, Philippines",16.49326,120.94174,PLDT Home Fiber,116679,102044,116.68,102.04,6,3522,979,1593
"Mandaue, Cebu, Philippines",10.3279,123.94273,Globe,149206,128931,149.21,128.93,5,3516,528,664
"General Mamerto Natividad, Nueva Ecija, Philippines",15.58788,121.04498,Converge,114102,109289,114.10,109.29,6,3498,821,1486
"Mambusao, Capiz, Philippines",11.44257,122.59383,Converge,103115,101978,103.12,101.98,14,3413,724,1480
"San Quintin, Pangasinan, Philippines",15.9754,120.83841,Globe,60952,53452,60.95,53.45,6,3303,707,1530
"Dasmariñas, Cavite, Philippines",14.33385,120.95423,PLDT,75143,75965,75.14,75.97,11,3265,802,1216
"Cabiao, Nueva Ecija, Philippines",15.25221,120.85957,PLDT Home Fiber,98811,94777,98.81,94.78,10,3260,918,1541
"Atok, Benguet, Philippines",16.59745,120.68901,PLDT Home Fiber,94590,94678,94.59,94.68,6,3236,902,1395
"Orani, Bataan, Philippines",14.80086,120.53616,Converge,98153,108183,98.15,108.18,5,3225,742,1181
"Subic Bay Freeport Zone, Philippines",14.80319,120.30033,PLDT,66118,59480,66.12,59.48,12,3218,727,1158
"Tarlac City, Tarlac, Philippines",15.48808,120.58719,PLDT,80002,89316,80.00,89.32,10,3218,773,1097
"Arakan, Cotabato, Philippines",7.35122,125.17087,PLDT,94268,94363,94.27,94.36,8,3217,999,1506
"Nagcarlan, Laguna, Philippines",14.14903,121.38847,PLDT Home Fiber,166059,172142,166.06,172.14,9,3159,734,1221
"Matalam, Cotabato, Philippines",7.17236,124.92861,PLDT Home Fiber,137643,96479,137.64,96.48,8,3144,946,1428
"Marilao, Bulacan, Philippines",14.77237,120.96001,Converge,152967,143954,152.97,143.95,7,3143,606,795
"Salvador Benedicto, Negros Occidental, Philippines",10.5887,123.23632,PLDT Home Fiber,121707,115594,121.71,115.59,7,3136,903,1369
"Silay, Negros Occidental, Philippines",10.79968,122.97605,PLDT,64184,74696,64.18,74.70,20,3133,605,954
"Cabanatuan City, Nueva Ecija, Philippines",15.49943,121.01057,PLDT Home Fiber,100551,97056,100.55,97.06,10,3118,710,1012
"Bulakan, Bulacan, Philippines",14.79484,120.87889,PLDT,93825,93821,93.83,93.82,6,3080,831,1383
"Mauban, Quezon, Philippines",14.23756,121.69674,Converge,121521,118842,121.52,118.84,11,3069,676,1205
"Silang, Cavite, Philippines",14.22025,120.96469,Globe,107183,94773,107.18,94.77,6,3053,701,1157
"Lapu-Lapu, Cebu, Philippines",10.31838,123.96395,PLDT Home Fiber,140749,164942,140.75,164.94,3,3034,606,776
"Bulakan, Bulacan, Philippines",14.79484,120.87889,PLDT Home Fiber,135921,113104,135.92,113.10,7,3025,685,1111
"Malaybalay City, Bukidnon, Philippines",8.15775,125.17087,PLDT Home Fiber,93293,94322,93.29,94.32,9,3015,739,1061
"Barili, Cebu, Philippines",10.1254,123.55041,PLDT Home Fiber,94292,127286,94.29,127.29,9,3006,781,1184
"San Antonio, Nueva Ecija, Philippines",15.31921,120.82692,PLDT Home Fiber,95378,94863,95.38,94.86,11,2977,839,1396
"Lipa City, Batangas, Philippines",13.94047,121.19395,Converge,116040,118856,116.04,118.86,7,2971,596,993
"Mandaue, Cebu, Philippines",10.3279,123.94273,PLDT Home Fiber,166309,175247,166.31,175.25,3,2971,698,949
"Kidapawan, Cotabato, Philippines",7.02127,125.09019,Globe,61769,93108,61.77,93.11,6,2970,926,1395
"Lucban, Quezon, Philippines",14.1144,121.55472,PLDT Home Fiber,175082,179057,175.08,179.06,8,2924,763,1281
"Angeles, Pampanga, Philippines",15.16061,120.60908,PLDT,67890,79049,67.89,79.05,10,2904,919,1427
"Marilao, Bulacan, Philippines",14.77237,120.96001,PLDT,68973,70572,68.97,70.57,9,2904,829,1233
"Mexico, Pampanga, Philippines",15.06457,120.72033,PLDT Home Fiber,97695,94520,97.70,94.52,9,2865,762,1164
"Dasmariñas, Cavite, Philippines",14.33385,120.95423,Converge,187776,166207,187.78,166.21,5,2834,828,1267
"San Fernando, Pampanga, Philippines",15.02781,120.69349,PLDT,76170,79523,76.17,79.52,11,2832,755,1094
"Baguio, Benguet, Philippines",16.41297,120.5914,Globe,117137,106049,117.14,106.05,6,2804,483,646
"General Santos City (Dadiangas), South Cotabato, Philippines",6.14327,125.19286,Globe,115210,115891,115.21,115.89,16,2781,374,490
"Angono, Rizal, Philippines",14.52592,121.15321,Converge,215062,205824,215.06,205.82,4,2780,663,1010
"Sariaya, Quezon, Philippines",13.96301,121.52388,Converge,187876,192439,187.88,192.44,5,2753,809,1297
"Tanza, Cavite, Philippines",14.34293,120.85032,PLDT Home Fiber,151909,150617,151.91,150.62,4,2744,623,794
"Lucena City, Quezon, Philippines",13.94139,121.62345,Converge,121291,120596,121.29,120.60,10,2712,426,656
"Tuguegarao City, Cagayan, Philippines",17.60306,121.75374,Converge,75784,72251,75.78,72.25,12,2672,449,659
"Talavera, Nueva Ecija, Philippines",15.58575,120.9197,Converge,118024,117374,118.02,117.37,5,2658,620,1104
"Mandaue, Cebu, Philippines",10.3279,123.94273,Converge,164531,155242,164.53,155.24,3,2651,554,857
"Candaba, Pampanga, Philippines",15.09289,120.8277,Globe,184984,167980,184.98,167.98,7,2638,599,928
"Concepcion, Tarlac, Philippines",15.324,120.65596,PLDT Home Fiber,95831,94699,95.83,94.70,11,2628,566,884
"City of Guihulngan, Negros Oriental, Philippines",10.18323,123.21385,PLDT Home Fiber,95005,115901,95.01,115.90,7,2618,682,1073
"Dagupan City, Pangasinan, Philippines",16.03375,120.33202,Converge,96467,102065,96.47,102.07,5,2612,612,900
"Nabua, Camarines Sur, Philippines",13.4069,123.37324,Converge,98987,102145,98.99,102.15,4,2608,597,1086
"Santa Fe, Nueva Vizcaya, Philippines",16.18249,120.91878,PLDT Home Fiber,126884,110267,126.88,110.27,6,2591,718,1150
"General Santos City (Dadiangas), South Cotabato, Philippines",6.14327,125.19286,PLDT,81492,74650,81.49,74.65,10,2582,512,698
"Lipa City, Batangas, Philippines",13.94047,121.19395,PLDT,94225,104724,94.23,104.72,8,2568,624,860
"Kibungan, Benguet, Philippines",16.68162,120.68901,PLDT Home Fiber,97726,94505,97.73,94.51,6,2557,756,1160
"Angono, Rizal, Philippines",14.52592,121.15321,PLDT,94829,99844,94.83,99.84,4,2498,683,1074
"Naga, Cebu, Philippines",10.20764,123.75821,Globe,130818,114320,130.82,114.32,17,2498,903,1186
"Cagayan De Oro City, Misamis Oriental, Philippines",8.48029,124.64975,PLDT,66507,62064,66.51,62.06,18,2471,666,995
"Muntinlupa, Metro Manila, Philippines",14.39453,121.04483,Globe,190058,191927,190.06,191.93,6,2467,476,631
"Diadi, Nueva Vizcaya, Philippines",16.6595,121.33129,Converge,97929,106828,97.93,106.83,10,2465,586,1034
"Cabiao, Nueva Ecija, Philippines",15.25221,120.85957,Globe,172848,140897,172.85,140.90,6,2458,523,786
"Kawit, Cavite, Philippines",14.44588,120.90871,PLDT,60176,71852,60.18,71.85,13,2424,649,987
"Lapu-Lapu, Cebu, Philippines",10.31838,123.96395,PLDT,89857,92635,89.86,92.64,3,2404,539,781
"Santa Rita, Pampanga, Philippines",14.99762,120.61451,PLDT Home Fiber,98745,105270,98.75,105.27,8,2402,672,1048
"Sariaya, Quezon, Philippines",13.96301,121.52388,PLDT Home Fiber,96840,106960,96.84,106.96,6,2385,617,949
"Carmen, Cebu, Philippines",10.58876,123.96385,PLDT Home Fiber,120078,150326,120.08,150.33,5,2372,716,1095
"Compostela, Cebu, Philippines",10.45408,124.013,Globe,64092,56652,64.09,56.65,6,2356,709,1111
"San Manuel, Pangasinan, Philippines",16.10561,120.67751,PLDT Home Fiber,101999,112677,102.00,112.68,6,2344,619,984
"Guagua, Pampanga, Philippines",14.96374,120.63244,Converge,53273,52310,53.27,52.31,4,2337,478,890
"Navotas, Metro Manila, Philippines",14.65819,120.94743,PLDT Home Fiber,126843,150289,126.84,150.29,4,2328,531,742
"Bocaue, Bulacan, Philippines",14.7943,120.93073,PLDT Home Fiber,96995,95450,97.00,95.45,10,2322,505,697
"Tuguegarao City, Cagayan, Philippines",17.60306,121.75374,PLDT,66432,69863,66.43,69.86,13,2255,508,741
"Puerto Princesa City, Palawan, Philippines",9.78563,118.62648,PLDT Home Fiber,95325,103047,95.33,103.05,19,2250,385,532
"Cabanatuan City, Nueva Ecija, Philippines",15.49943,121.01057,PLDT,72212,81139,72.21,81.14,11,2221,482,701
"Angono, Rizal, Philippines",14.52592,121.15321,PLDT Home Fiber,166533,167728,166.53,167.73,4,2168,425,594
"Malolos, Bulacan, Philippines",14.86049,120.80916,Converge,104724,107221,104.72,107.22,6,2148,416,553
"Pagadian City, Zamboanga del Sur, Philippines",7.86265,123.37106,PLDT Home Fiber,99192,94751,99.19,94.75,6,2136,349,484
"Lubao, Pampanga, Philippines",14.92678,120.58795,PLDT Home Fiber,93496,109031,93.50,109.03,9,2132,537,793
"Bakun, Benguet, Philippines",16.80796,120.68901,PLDT Home Fiber,94014,94393,94.01,94.39,6,2103,527,827
"Cabuyao City, Laguna, Philippines",14.27433,121.11961,PLDT,93481,93579,93.48,93.58,8,2055,557,805
"San Ildefonso, Bulacan, Philippines",15.07717,120.94171,PLDT Home Fiber,93247,94089,93.25,94.09,8,2046,571,909
"Bokod, Benguet, Philippines",16.45641,120.78097,PLDT Home Fiber,98896,100044,98.90,100.04,5,2038,621,1019
"Manaoag, Pangasinan, Philippines",16.04627,120.4876,Converge,98962,108021,98.96,108.02,5,2035,610,992
"General Trias, Cavite, Philippines",14.38159,120.87915,PLDT,158440,143194,158.44,143.19,8,2034,461,595
"Polomolok, South Cotabato, Philippines",6.22451,125.06084,PLDT Home Fiber,91037,90860,91.04,90.86,10,2030,571,826
"Escalante City, Negros Occidental, Philippines",10.84117,123.49908,Globe,18173,5801,18.17,5.80,36,1993,502,1064
"Baungon, Bukidnon, Philippines",8.21754,124.75198,PLDT Home Fiber,94925,98700,94.93,98.70,6,1982,662,1007
"San Isidro, Nueva Ecija, Philippines",15.29656,120.9073,PLDT Home Fiber,94246,93824,94.25,93.82,11,1960,413,717
"Tagum, Davao del Norte, Philippines",7.44742,125.80246,PLDT Home Fiber,98394,97183,98.39,97.18,8,1953,497,673
"Concepcion, Tarlac, Philippines",15.324,120.65596,PLDT,50185,48529,50.19,48.53,12,1945,442,655
"Legazpi City, Albay, Philippines",13.11288,123.76295,Converge,100988,113138,100.99,113.14,5,1945,270,424
"Silang, Cavite, Philippines",14.22025,120.96469,Converge,181866,178152,181.87,178.15,6,1939,419,620
"Surallah, South Cotabato, Philippines",6.3195,124.75198,PLDT Home Fiber,50963,54044,50.96,54.04,11,1937,317,455
"Santo Nino, Cagayan, Philippines",17.91267,121.49132,Converge,95236,95454,95.24,95.45,12,1931,429,753
"Trece Martires City, Cavite, Philippines",14.28222,120.86837,PLDT Home Fiber,156127,165992,156.13,165.99,5,1927,387,488
"City of Santa Rosa, Laguna, Philippines",14.31471,121.11232,Globe,189341,171084,189.34,171.08,6,1915,515,709
"Consolacion, Cebu, Philippines",10.37581,123.95694,PLDT,93764,94444,93.76,94.44,4,1906,341,460
"Alicia, Isabela, Philippines",16.80691,121.69674,Converge,99561,109105,99.56,109.11,8,1889,458,799
"Catmon, Cebu, Philippines",10.65242,123.9973,PLDT Home Fiber,103845,168737,103.85,168.74,5,1888,554,806
"Mabalacat City, Pampanga, Philippines",15.24525,120.56567,PLDT Home Fiber,127224,116737,127.22,116.74,7,1881,313,421
"Cabuyao City, Laguna, Philippines",14.27433,121.11961,Converge,114806,118269,114.81,118.27,6,1879,241,354
"Daet, Camarines Norte, Philippines",14.10303,122.9325,PLDT,95758,112477,95.76,112.48,7,1873,264,356
"Tuburan, Cebu, Philippines",10.66879,123.86345,PLDT Home Fiber,94580,112779,94.58,112.78,6,1870,467,698
"Tuburan, Cebu, Philippines",10.66879,123.86345,Globe,137303,107815,137.30,107.82,9,1868,582,839
"City of Santa Rosa, Laguna, Philippines",14.31471,121.11232,Converge,99563,105549,99.56,105.55,6,1863,365,572
"Talisay, Cebu, Philippines",10.25859,123.82413,Converge,183008,184585,183.01,184.59,6,1846,280,400
"San Miguel, Bulacan, Philippines",15.14158,120.9751,PLDT Home Fiber,102855,100737,102.86,100.74,10,1842,424,668
"Indang, Cavite, Philippines",14.19204,120.87286,PLDT,89220,93302,89.22,93.30,9,1838,459,673
"Carmona, Cavite, Philippines",14.3135,121.05712,PLDT,159387,174132,159.39,174.13,7,1833,401,563
"Naga City, Camarines Sur, Philippines",13.6475,123.27003,PLDT,58855,59150,58.86,59.15,14,1831,471,698
"Cardona, Rizal, Philippines",14.48493,121.232,PLDT Home Fiber,144738,137788,144.74,137.79,3,1827,524,854
"Mandaue, Cebu, Philippines",10.3279,123.94273,PLDT,66849,65436,66.85,65.44,4,1820,449,629
"Liliw, Laguna, Philippines",14.12617,121.4399,PLDT Home Fiber,189755,191798,189.76,191.80,9,1813,490,819
"Dumaguete City, Negros Oriental, Philippines",9.29841,123.29249,Globe,119403,113854,119.40,113.85,11,1808,264,386
"Magsaysay, Davao del Sur, Philippines",6.75271,125.15221,PLDT Home Fiber,106936,95570,106.94,95.57,9,1800,520,854
"Mambajao, Camiguin, Philippines",9.22153,124.71882,PLDT Home Fiber,63183,66923,63.18,66.92,11,1799,186,261
"Victoria, Tarlac, Philippines",15.59077,120.68901,Globe,61420,53753,61.42,53.75,5,1795,435,987
"Plaridel, Bulacan, Philippines",14.88591,120.85932,PLDT Home Fiber,120435,101864,120.44,101.86,7,1791,482,751
"La Castellana, Negros Occidental, Philippines",10.33198,123.10141,PLDT Home Fiber,93301,96506,93.30,96.51,6,1763,448,639
"Legazpi City, Albay, Philippines",13.11288,123.76295,PLDT,88934,93986,88.93,93.99,8,1760,334,462
"San Marcelino, Zambales, Philippines",15.02605,120.27435,Converge,105701,120793,105.70,120.79,5,1747,530,857
"Guiguinto, Bulacan, Philippines",14.82832,120.88429,PLDT,94606,94849,94.61,94.85,7,1738,435,649
"Legazpi City, Albay, Philippines",13.11288,123.76295,Globe,114017,92391,114.02,92.39,24,1732,207,273
"San Pedro, Laguna, Philippines",14.36443,121.06192,Globe,199096,172856,199.10,172.86,8,1728,387,539
"Naga City, Camarines Sur, Philippines",13.6475,123.27003,Globe,119063,112028,119.06,112.03,12,1723,283,374
"Santa Ana, Pampanga, Philippines",15.09442,120.76623,PLDT Home Fiber,94071,94217,94.07,94.22,9,1710,446,701
"Talisay, Cebu, Philippines",10.25859,123.82413,PLDT,140372,139022,140.37,139.02,3,1707,345,445
"Guiguinto, Bulacan, Philippines",14.82832,120.88429,PLDT Home Fiber,152545,130966,152.55,130.97,8,1699,430,618
"San Mateo, Rizal, Philippines",14.69539,121.11767,Converge,170341,169917,170.34,169.92,4,1688,478,609
"Imus, Cavite, Philippines",14.42764,120.93724,PLDT,116029,116277,116.03,116.28,7,1686,399,530
"Dumaguete City, Negros Oriental, Philippines",9.29841,123.29249,PLDT,89341,96677,89.34,96.68,5,1680,232,350
"La Trinidad, Benguet, Philippines",16.44844,120.59047,PLDT Home Fiber,97043,94131,97.04,94.13,8,1674,471,677
"Kawit, Cavite, Philippines",14.44588,120.90871,Converge,207950,226823,207.95,226.82,6,1667,455,690
"Tagaytay City, Cavite, Philippines",14.11541,120.96202,PLDT,101939,99238,101.94,99.24,9,1664,455,703
"Mabalacat City, Pampanga, Philippines",15.24525,120.56567,PLDT,89398,84653,89.40,84.65,10,1662,446,651
"Talisay, Cebu, Philippines",10.25859,123.82413,PLDT Home Fiber,138367,145848,138.37,145.85,3,1658,306,399
"Navotas, Metro Manila, Philippines",14.65819,120.94743,PLDT,80906,86283,80.91,86.28,6,1655,529,745
"Marilao, Bulacan, Philippines",14.77237,120.96001,Globe,207325,203829,207.33,203.83,8,1651,311,389
"Jamindan, Capiz, Philippines",11.39423,122.42407,Converge,145005,145358,145.01,145.36,14,1650,375,756
"Mariveles, Bataan, Philippines",14.4354,120.49003,PLDT Home Fiber,72201,76697,72.20,76.70,9,1649,215,266
"Sagay City, Negros Occidental, Philippines",10.84555,123.37106,PLDT Home Fiber,75233,89622,75.23,89.62,8,1648,395,600
"Porac, Pampanga, Philippines",15.06974,120.55007,Converge,108977,119667,108.98,119.67,3,1644,413,585
"Palayan City, Nueva Ecija, Philippines",15.53906,121.09083,Converge,94744,94866,94.74,94.87,6,1643,362,540
"Santa Maria, Bulacan, Philippines",14.82898,120.97616,Globe,139355,140648,139.36,140.65,8,1629,304,381
"Talisay, Negros Occidental, Philippines",10.74828,122.98012,PLDT Home Fiber,88506,94530,88.51,94.53,9,1619,410,615
"Taytay, Rizal, Philippines",14.55288,121.12571,Globe,247762,209322,247.76,209.32,5,1606,294,383
"Consolacion, Cebu, Philippines",10.37581,123.95694,Globe,138140,140735,138.14,140.74,5,1597,319,409
"Silang, Cavite, Philippines",14.22025,120.96469,PLDT,100000,101360,100.00,101.36,8,1592,463,673
"Tacloban City, Leyte, Philippines",11.22238,124.99221,PLDT,92901,93629,92.90,93.63,7,1587,409,571
"Tagum, Davao del Norte, Philippines",7.44742,125.80246,Globe,120134,108070,120.13,108.07,5,1584,238,303
"Dipolog City, Zamboanga del Norte, Philippines",8.58717,123.34035,PLDT Home Fiber,94266,93824,94.27,93.82,11,1578,263,354
"Calauan, Laguna, Philippines",14.14551,121.3146,PLDT Home Fiber,159400,148674,159.40,148.67,8,1578,271,419
"Balanga City, Bataan, Philippines",14.67454,120.47033,PLDT Home Fiber,106672,133609,106.67,133.61,7,1572,345,473
"Umingan, Pangasinan, Philippines",15.90396,120.82692,Globe,61486,53522,61.49,53.52,6,1571,426,869
"Laoag City, Ilocos Norte, Philippines",18.21075,120.58547,Converge,101580,111166,101.58,111.17,10,1566,396,644
"Pasay City, Metro Manila, Philippines",14.53767,121.00081,Globe,142472,118437,142.47,118.44,4,1560,330,473
"Toledo, Cebu, Philippines",10.38705,123.65017,PLDT,43693,41832,43.69,41.83,9,1548,182,242
"Malabon, Metro Manila, Philippines",14.65793,120.95118,Globe,206178,199460,206.18,199.46,5,1544,355,473
"Nunungan, Lanao del Norte, Philippines",7.83093,123.9304,PLDT Home Fiber,93669,93450,93.67,93.45,6,1524,424,666
"Jaen, Nueva Ecija, Philippines",15.39558,120.87286,PLDT,48704,54837,48.70,54.84,17,1523,324,510
"Zaragoza, Nueva Ecija, Philippines",15.46003,120.79246,Globe,61561,53637,61.56,53.64,5,1521,415,889
"Taysan, Batangas, Philippines",13.76108,121.2283,Globe,130911,107610,130.91,107.61,8,1517,476,718
"Escalante City, Negros Occidental, Philippines",10.84117,123.49908,PLDT Home Fiber,80840,91406,80.84,91.41,7,1513,386,586
"Angeles, Pampanga, Philippines",15.16061,120.60908,Globe,122665,109757,122.67,109.76,4,1511,277,382
"Toledo, Cebu, Philippines",10.38705,123.65017,Globe,117254,114389,117.25,114.39,16,1502,466,642
"Matanao, Davao del Sur, Philippines",6.70421,125.22584,PLDT Home Fiber,106609,95014,106.61,95.01,9,1500,431,618
"Rodriguez, Rizal, Philippines",14.73202,121.14516,Converge,170800,183503,170.80,183.50,4,1499,416,522
"Dagupan City, Pangasinan, Philippines",16.03375,120.33202,PLDT,77181,74350,77.18,74.35,11,1492,413,631
"Calumpit, Bulacan, Philippines",14.91518,120.7662,PLDT Home Fiber,132918,111193,132.92,111.19,8,1491,319,426
"Tagum, Davao del Norte, Philippines",7.44742,125.80246,PLDT,92268,94655,92.27,94.66,11,1488,350,533
"Talisay, Cebu, Philippines",10.25859,123.82413,Globe,132782,130714,132.78,130.71,13,1486,432,562
"Santa Fe, Nueva Vizcaya, Philippines",16.18249,120.91878,PLDT,89610,93745,89.61,93.75,7,1482,378,613
"Vallehermoso, Negros Oriental, Philippines",10.33905,123.29249,PLDT Home Fiber,90919,94532,90.92,94.53,5,1475,444,662
"Kidapawan, Cotabato, Philippines",7.02127,125.09019,PLDT Home Fiber,94174,94811,94.17,94.81,10,1461,376,516
"Gapan City, Nueva Ecija, Philippines",15.29121,121.01057,PLDT Home Fiber,93111,90857,93.11,90.86,12,1457,281,469
"Mapandan, Pangasinan, Philippines",16.02726,120.45379,Converge,98286,108327,98.29,108.33,5,1455,487,783
"SJDM, Bulacan, Philippines",14.82867,121.04324,Globe,159319,143151,159.32,143.15,8,1453,305,406
"Roxas City, Capiz, Philippines",11.55288,122.74072,PLDT Home Fiber,86654,91749,86.65,91.75,9,1452,230,316
"Paombong, Bulacan, Philippines",14.83781,120.78406,PLDT Home Fiber,166370,156656,166.37,156.66,6,1451,397,614
"Malasiqui, Pangasinan, Philippines",15.92028,120.41443,PLDT Home Fiber,117360,153519,117.36,153.52,8,1445,378,588
"Meycauayan, Bulacan, Philippines",14.73772,120.96077,Converge,155618,152506,155.62,152.51,8,1442,336,462
"Ormoc City, Leyte, Philippines",11.03843,124.61927,Globe,115716,106199,115.72,106.20,17,1440,196,272
"San Leonardo, Nueva Ecija, Philippines",15.37285,120.95321,PLDT Home Fiber,93975,93534,93.98,93.53,10,1435,293,492
"Porac, Pampanga, Philippines",15.06974,120.55007,PLDT Home Fiber,136431,115830,136.43,115.83,8,1434,355,509
"Roxas City, Capiz, Philippines",11.55288,122.74072,Converge,90328,83721,90.33,83.72,13,1427,223,374
"Tuguegarao City, Cagayan, Philippines",17.60306,121.75374,PLDT Home Fiber,92226,92251,92.23,92.25,12,1425,320,439
"Malvar, Batangas, Philippines",14.04329,121.15875,PLDT Home Fiber,95617,145594,95.62,145.59,10,1425,309,432
"Meycauayan, Bulacan, Philippines",14.73772,120.96077,PLDT,84896,92051,84.90,92.05,8,1422,363,544
"Cotabato City, Maguindanao, Philippines",7.20467,124.23104,PLDT Home Fiber,92662,93131,92.66,93.13,12,1412,258,364
"Burauen, Leyte, Philippines",10.97109,124.84034,PLDT,68746,70452,68.75,70.45,19,1400,269,364
"Mayoyao, Ifugao, Philippines",16.95131,121.21685,PLDT Home Fiber,110382,106328,110.38,106.33,11,1389,347,556
"Pandi, Bulacan, Philippines",14.87572,120.95941,PLDT,86386,90054,86.39,90.05,8,1388,367,524
"Naic, Cavite, Philippines",14.29649,120.79246,PLDT,92981,94673,92.98,94.67,8,1372,379,530
"Daraga, Albay, Philippines",13.12278,123.69588,Converge,105785,96616,105.79,96.62,15,1365,134,210
"Rosario, Batangas, Philippines",13.80433,121.28552,PLDT Home Fiber,149237,152040,149.24,152.04,6,1362,268,352
"Bay, Laguna, Philippines",14.14064,121.26836,PLDT Home Fiber,155950,167555,155.95,167.56,4,1360,356,557
"Plaridel, Bulacan, Philippines",14.88591,120.85932,Converge,135720,103468,135.72,103.47,7,1355,301,420
"Obando, Bulacan, Philippines",14.70986,120.93674,PLDT,89336,91535,89.34,91.54,5,1345,377,639
"Biñan, Laguna, Philippines",14.31456,121.08316,Converge,159802,159646,159.80,159.65,6,1344,296,449
"San Jose, Batangas, Philippines",13.87868,121.09942,PLDT Home Fiber,93694,94518,93.69,94.52,7,1336,237,394
"Naic, Cavite, Philippines",14.29649,120.79246,PLDT Home Fiber,104135,113616,104.14,113.62,7,1333,215,276
"San Jose City, Nueva Ecija, Philippines",15.79188,120.99008,Converge,129415,135101,129.42,135.10,5,1330,299,425
"Pililla, Rizal, Philippines",14.44393,121.34273,PLDT,101298,105722,101.30,105.72,4,1327,449,707
"San Jose City, Nueva Ecija, Philippines",15.79188,120.99008,PLDT Home Fiber,95354,93556,95.35,93.56,13,1324,182,258
"Surigao, Surigao del Norte, Philippines",9.79022,125.49311,PLDT Home Fiber,89039,93613,89.04,93.61,10,1320,205,262
"Consolacion, Cebu, Philippines",10.37581,123.95694,Converge,134910,138577,134.91,138.58,3,1313,207,278
"Bayombong, Nueva Vizcaya, Philippines",16.48042,121.14813,Converge,95848,104466,95.85,104.47,9,1306,288,445
"Pulilan, Bulacan, Philippines",14.90243,120.8459,PLDT Home Fiber,99107,106784,99.11,106.78,6,1301,350,555
"Trece Martires City, Cavite, Philippines",14.28222,120.86837,Converge,179519,181896,179.52,181.90,6,1300,284,351
"Tagbilaran City, Bohol, Philippines",9.6534,123.86703,PLDT Home Fiber,86389,104522,86.39,104.52,8,1299,275,377
"Roxas City, Capiz, Philippines",11.55288,122.74072,Globe,96831,93386,96.83,93.39,12,1296,158,192
"Zamboanga City, Zamboanga del Sur, Philippines",6.90437,122.07612,Converge,95020,94544,95.02,94.54,19,1295,259,337
"Daet, Camarines Norte, Philippines",14.10303,122.9325,Converge,105737,106854,105.74,106.85,6,1293,172,269
"Bocaue, Bulacan, Philippines",14.7943,120.93073,PLDT,94280,94420,94.28,94.42,6,1292,378,595
"Santiago, Ilocos Sur, Philippines",17.28073,120.44729,Converge,97384,108704,97.38,108.70,9,1288,253,446
"Biñan, Laguna, Philippines",14.31456,121.08316,Globe,134441,116244,134.44,116.24,7,1285,320,444
"Rosario, Batangas, Philippines",13.80433,121.28552,Globe,152851,143036,152.85,143.04,7,1285,409,637
"Kayapa, Nueva Vizcaya, Philippines",16.49326,120.94174,PLDT,93745,94422,93.75,94.42,6,1284,395,663
"Santo Tomas, Davao del Norte, Philippines",7.50929,125.63142,PLDT Home Fiber,79603,78294,79.60,78.29,9,1279,163,219
"Santiago, Isabela, Philippines",16.69679,121.55865,PLDT Home Fiber,89524,80406,89.52,80.41,14,1278,242,340
"Iligan City, Lanao del Norte, Philippines",8.22707,124.46418,PLDT,70070,74005,70.07,74.01,21,1273,375,516
"Puerto Princesa City, Palawan, Philippines",9.78563,118.62648,PLDT,66548,78361,66.55,78.36,20,1270,270,394
"Santa Barbara, Pangasinan, Philippines",15.9774,120.42424,PLDT Home Fiber,108155,97039,108.16,97.04,7,1265,321,479
"Magalang, Pampanga, Philippines",15.21394,120.66181,PLDT Home Fiber,94537,94389,94.54,94.39,10,1265,357,577
"Llanera, Nueva Ecija, Philippines",15.66623,121.01057,Converge,138171,160774,138.17,160.77,5,1264,329,588
"Danao, Cebu, Philippines",10.52013,124.02712,PLDT,44894,54302,44.89,54.30,7,1263,218,281
"Bambang, Nueva Vizcaya, Philippines",16.40415,121.10229,PLDT Home Fiber,93227,94833,93.23,94.83,8,1259,242,365
"Virac, Catanduanes, Philippines",13.61939,124.17544,PLDT Home Fiber,71461,73661,71.46,73.66,10,1244,196,275
"Apalit, Pampanga, Philippines",14.95255,120.76688,PLDT Home Fiber,125238,94672,125.24,94.67,6,1238,288,440
"Iligan City, Lanao del Norte, Philippines",8.22707,124.46418,Globe,121925,45857,121.93,45.86,14,1237,217,289
"Tanauan City, Batangas, Philippines",14.08354,121.14762,Globe,116310,104169,116.31,104.17,6,1233,376,544
"Goa, Camarines Sur, Philippines",13.73619,123.41593,PLDT Home Fiber,65509,64816,65.51,64.82,9,1225,159,220
"Sagay City, Negros Occidental, Philippines",10.84555,123.37106,PLDT,61597,62416,61.60,62.42,11,1217,289,440
"San Simon, Pampanga, Philippines",14.98432,120.75127,PLDT Home Fiber,95346,94554,95.35,94.55,7,1216,314,491
"Bago, Negros Occidental, Philippines",10.53757,122.83609,PLDT,73469,67065,73.47,67.07,7,1214,197,271
"Calatrava, Negros Occidental, Philippines",10.62843,123.39349,PLDT,91768,95762,91.77,95.76,6,1211,406,589
"Naic, Cavite, Philippines",14.29649,120.79246,Converge,202659,194137,202.66,194.14,5,1210,183,253
"President Roxas, Cotabato, Philippines",7.37928,125.06084,PLDT Home Fiber,115919,99463,115.92,99.46,8,1204,422,606
"Pandi, Bulacan, Philippines",14.87572,120.95941,PLDT Home Fiber,94486,97702,94.49,97.70,8,1202,289,435
"Plaridel, Bulacan, Philippines",14.88591,120.85932,PLDT,88842,93192,88.84,93.19,6,1201,286,415
"Digos, Davao del Sur, Philippines",6.74347,125.35515,PLDT Home Fiber,101266,95199,101.27,95.20,9,1195,342,505
"Ligao City, Albay, Philippines",13.17242,123.4944,Converge,63178,84642,63.18,84.64,17,1195,222,343
"Rodriguez, Rizal, Philippines",14.73202,121.14516,Globe,148760,137591,148.76,137.59,4,1195,191,243
"San Fernando City, La Union, Philippines",16.61592,120.32102,PLDT Home Fiber,102308,92794,102.31,92.79,3,1194,239,324
"Capas, Tarlac, Philippines",15.34633,120.59344,PLDT,69456,74237,69.46,74.24,7,1193,159,237
"Baras, Rizal, Philippines",14.53656,121.27408,PLDT Home Fiber,92112,116820,92.11,116.82,5,1183,150,194
"Calapan City, Oriental Mindoro, Philippines",13.36643,121.19395,PLDT,75296,76190,75.30,76.19,13,1168,338,469
"Gapan City, Nueva Ecija, Philippines",15.29121,121.01057,Converge,218202,199045,218.20,199.05,8,1164,271,360
"Lagawe, Ifugao, Philippines",16.80825,121.19395,PLDT Home Fiber,94909,97148,94.91,97.15,9,1161,314,545
"Mariveles, Bataan, Philippines",14.4354,120.49003,Converge,89314,100360,89.31,100.36,9,1159,198,280
"San Nicolas, Ilocos Norte, Philippines",18.14708,120.58547,Converge,98177,109182,98.18,109.18,11,1158,296,457
"Compostela, Cebu, Philippines",10.45408,124.013,PLDT Home Fiber,170998,204654,171.00,204.65,6,1157,279,453
"Sindangan, Zamboanga del Norte, Philippines",8.19151,123.05639,PLDT Home Fiber,42308,48371,42.31,48.37,16,1154,113,152
"La Paz, Tarlac, Philippines",15.4497,120.7235,PLDT Home Fiber,118835,94510,118.84,94.51,9,1147,284,442
"Carmona, Cavite, Philippines",14.3135,121.05712,Converge,123953,147337,123.95,147.34,7,1143,239,368
"Calapan City, Oriental Mindoro, Philippines",13.36643,121.19395,PLDT Home Fiber,115803,139702,115.80,139.70,8,1142,315,486
"Cotabato City, Maguindanao, Philippines",7.20467,124.23104,PLDT,85009,83952,85.01,83.95,15,1140,239,356
"San Manuel, Pangasinan, Philippines",16.10561,120.67751,PLDT,88152,91726,88.15,91.73,8,1136,320,507
"Digos, Davao del Sur, Philippines",6.74347,125.35515,Globe,118006,114161,118.01,114.16,4,1132,133,179
"Liloan, Cebu, Philippines",10.39926,124.00002,Globe,148161,145949,148.16,145.95,4,1127,202,271
"Orion, Bataan, Philippines",14.61604,120.56431,PLDT Home Fiber,73312,102213,73.31,102.21,8,1124,104,128
"Kabacan, Cotabato, Philippines",7.10719,124.84034,PLDT Home Fiber,81484,89033,81.48,89.03,11,1124,228,312
"General Santos City (Dadiangas), South Cotabato, Philippines",6.14327,125.19286,Converge,102140,109352,102.14,109.35,5,1120,258,336
"Alcala, Pangasinan, Philippines",15.8546,120.53942,PLDT Home Fiber,122481,126910,122.48,126.91,12,1120,324,511
"Meycauayan, Bulacan, Philippines",14.73772,120.96077,Globe,147182,142396,147.18,142.40,8,1113,295,378
"Rizal, Laguna, Philippines",14.08408,121.41133,PLDT Home Fiber,154454,161472,154.45,161.47,9,1112,216,368
"San Jose, Batangas, Philippines",13.87868,121.09942,Globe,124769,115581,124.77,115.58,7,1108,246,386
"Sultan Kudarat (Nuling), Maguindanao, Philippines",7.26221,124.30883,PLDT Home Fiber,75989,84133,75.99,84.13,11,1105,147,202
"Bayombong, Nueva Vizcaya, Philippines",16.48042,121.14813,PLDT Home Fiber,87650,81909,87.65,81.91,7,1101,225,323
"Tanay, Rizal, Philippines",14.61419,121.37703,PLDT Home Fiber,94260,120092,94.26,120.09,5,1097,130,188
"Tacurong City, Sultan Kudarat, Philippines",6.6866,124.66353,PLDT Home Fiber,86846,76296,86.85,76.30,11,1084,180,228
"Dumaguete City, Negros Oriental, Philippines",9.29841,123.29249,PLDT Home Fiber,127399,130772,127.40,130.77,5,1082,236,294
"Baliwag, Bulacan, Philippines",14.96569,120.89431,PLDT,82795,57175,82.80,57.18,8,1081,189,279
"Obando, Bulacan, Philippines",14.70986,120.93674,PLDT Home Fiber,137246,151682,137.25,151.68,4,1081,171,219
"Isabela, Basilan, Philippines",6.70387,121.9799,Globe,104297,88643,104.30,88.64,15,1076,52,65
"Calabanga, Camarines Sur, Philippines",13.71633,123.28126,PLDT Home Fiber,88915,91916,88.92,91.92,8,1075,117,145
"Guagua, Pampanga, Philippines",14.96374,120.63244,PLDT Home Fiber,129968,125107,129.97,125.11,8,1069,280,397
"Los Baños, Laguna, Philippines",14.17731,121.22161,PLDT,81147,89368,81.15,89.37,9,1068,290,427
"Pagadian City, Zamboanga del Sur, Philippines",7.86265,123.37106,Globe,87421,65731,87.42,65.73,7,1066,167,226
"Dulag, Leyte, Philippines",10.95915,125.00577,PLDT,46320,66280,46.32,66.28,18,1065,168,292
"San Pablo City, Laguna, Philippines",14.06422,121.32326,PLDT,90267,93435,90.27,93.44,6,1063,243,343
"San Ildefonso, Bulacan, Philippines",15.07717,120.94171,Globe,205783,197652,205.78,197.65,7,1062,351,512
"San Ildefonso, Bulacan, Philippines",15.07717,120.94171,Converge,124357,113715,124.36,113.72,7,1059,104,139
"Candelaria, Quezon, Philippines",13.94899,121.42276,PLDT,79305,87650,79.31,87.65,12,1058,286,378
"Arayat, Pampanga, Philippines",15.15443,120.771,Globe,154764,139189,154.76,139.19,6,1057,316,442
"Santo Tomas, Batangas, Philippines",14.08754,121.17764,Globe,147641,131599,147.64,131.60,7,1056,272,376
"Olongapo City, Zambales, Philippines",14.88739,120.36661,PLDT Home Fiber,140581,81065,140.58,81.07,8,1055,234,320
"Valencia City, Bukidnon, Philippines",7.86319,125.17087,PLDT Home Fiber,90799,90652,90.80,90.65,7,1052,238,346
"Dolores, Quezon, Philippines",14.00193,121.41133,PLDT Home Fiber,94113,100251,94.11,100.25,7,1047,299,440
"Maramag, Bukidnon, Philippines",7.82687,124.97271,Globe,59445,15290,59.45,15.29,23,1040,180,268
"Minglanilla, Cebu, Philippines",10.24543,123.79599,Globe,184194,162261,184.19,162.26,14,1039,307,404
"Dona Remedios Trinidad, Bulacan, Philippines",15.11427,121.21685,PLDT,54749,31797,54.75,31.80,12,1037,303,463
"Tanza, Cavite, Philippines",14.34293,120.85032,Globe,173789,153058,173.79,153.06,7,1028,275,344
"Santa Rosa, Nueva Ecija, Philippines",15.42502,120.93838,PLDT Home Fiber,88064,82532,88.06,82.53,10,1019,234,380
"San Simon, Pampanga, Philippines",14.98432,120.75127,Converge,92317,95554,92.32,95.55,4,1019,46,65
"Tacloban City, Leyte, Philippines",11.22238,124.99221,Globe,99963,92771,99.96,92.77,15,1017,153,223
"Sorsogon City, Sorsogon, Philippines",12.97888,123.98477,PLDT,114990,143466,114.99,143.47,13,1015,184,246
"Liloan, Cebu, Philippines",10.39926,124.00002,Converge,152735,178437,152.74,178.44,3,1015,177,228
"Echague, Isabela, Philippines",16.66606,121.78792,Converge,97800,108881,97.80,108.88,9,1010,288,466
"Jaen, Nueva Ecija, Philippines",15.39558,120.87286,PLDT Home Fiber,92432,86369,92.43,86.37,10,1005,277,442
"General Mariano Alvarez, Cavite, Philippines",14.29525,121.0071,PLDT,128336,163664,128.34,163.66,7,1001,175,222
"San Leonardo, Nueva Ecija, Philippines",15.37285,120.95321,PLDT,48170,50751,48.17,50.75,11,1000,218,333
"Catarman, Northern Samar, Philippines",12.44271,124.61927,Globe,99484,90251,99.48,90.25,14,996,107,148
"Minglanilla, Cebu, Philippines",10.24543,123.79599,PLDT,169777,167396,169.78,167.40,3,992,222,286
"Trece Martires City, Cavite, Philippines",14.28222,120.86837,Globe,137775,122027,137.78,122.03,6,991,221,279
"Pinamalayan, Oriental Mindoro, Philippines",13.01533,121.37703,PLDT Home Fiber,93504,102758,93.50,102.76,7,990,106,161
"Magalang, Pampanga, Philippines",15.21394,120.66181,PLDT,68144,64281,68.14,64.28,13,988,230,332
"Lobo, Batangas, Philippines",13.6877,121.23974,Globe,180479,144191,180.48,144.19,9,984,238,344
"Pagadian City, Zamboanga del Sur, Philippines",7.86265,123.37106,PLDT,70335,57572,70.34,57.57,16,978,247,382
"Gapan City, Nueva Ecija, Philippines",15.29121,121.01057,Globe,140798,107904,140.80,107.90,6,978,286,407
"Guiguinto, Bulacan, Philippines",14.82832,120.88429,Converge,156312,119302,156.31,119.30,7,977,209,313
"Banayoyo, Ilocos Sur, Philippines",17.23507,120.49912,Converge,94489,101486,94.49,101.49,9,977,212,351
"Valencia City, Bukidnon, Philippines",7.86319,125.17087,Converge,98654,102663,98.65,102.66,9,974,177,229
"San Juan, Batangas, Philippines",13.75044,121.37703,PLDT Home Fiber,128255,144875,128.26,144.88,9,973,235,360
"Tagbilaran City, Bohol, Philippines",9.6534,123.86703,Converge,99878,108698,99.88,108.70,27,973,202,273
"Hagonoy, Bulacan, Philippines",14.83564,120.73371,PLDT,79574,86908,79.57,86.91,9,972,209,276
"Kapangan, Benguet, Philippines",16.61238,120.59698,PLDT Home Fiber,93574,94669,93.57,94.67,6,970,266,444
"Argao, Cebu, Philippines",9.88114,123.60535,PLDT,64266,94501,64.27,94.50,13,967,132,167
"Rosario, Cavite, Philippines",14.41672,120.85471,PLDT Home Fiber,120643,120603,120.64,120.60,6,966,234,334
"Malolos, Bulacan, Philippines",14.86049,120.80916,Globe,125941,116803,125.94,116.80,7,961,180,230
"Cadiz City, Negros Occidental, Philippines",10.86192,123.23632,PLDT,67512,61518,67.51,61.52,9,959,289,417
"Kapatagan, Lanao del Norte, Philippines",7.86776,123.72942,PLDT Home Fiber,92893,86980,92.89,86.98,8,958,85,117
"Liloan, Cebu, Philippines",10.39926,124.00002,PLDT Home Fiber,138489,168685,138.49,168.69,4,954,314,446
"Butuan City, Agusan Del Norte, Philippines",8.94753,125.54063,PLDT,57993,51303,57.99,51.30,15,952,201,314
"Balamban, Cebu, Philippines",10.48585,123.77412,PLDT,75588,72565,75.59,72.57,7,952,190,255
"Calasiao, Pangasinan, Philippines",16.00949,120.35759,PLDT Home Fiber,92551,94280,92.55,94.28,7,951,268,399
"Puerto Princesa City, Palawan, Philippines",9.78563,118.62648,Globe,117332,111996,117.33,112.00,15,945,184,267
"Pinamungahan, Cebu, Philippines",10.26958,123.63996,Globe,150235,125671,150.24,125.67,17,944,358,489
"Silay, Negros Occidental, Philippines",10.79968,122.97605,PLDT Home Fiber,90789,94338,90.79,94.34,9,944,271,414
"Talisay, Negros Occidental, Philippines",10.74828,122.98012,PLDT,55986,56417,55.99,56.42,16,943,210,340
"Olongapo City, Zambales, Philippines",14.88739,120.36661,PLDT,130002,75604,130.00,75.60,7,942,213,304
"Liloan, Cebu, Philippines",10.39926,124.00002,PLDT,189644,214528,189.64,214.53,4,938,176,223
"Calatrava, Negros Occidental, Philippines",10.62843,123.39349,PLDT Home Fiber,81665,91775,81.67,91.78,7,937,261,406
"Catarman, Northern Samar, Philippines",12.44271,124.61927,PLDT Home Fiber,102626,136044,102.63,136.04,18,934,136,186
"Mangaldan, Pangasinan, Philippines",16.06513,120.40474,PLDT Home Fiber,94872,127351,94.87,127.35,8,934,191,272
"Panabo City, Davao del Norte, Philippines",7.30822,125.68662,PLDT Home Fiber,99713,91718,99.71,91.72,8,932,241,362
"Bacolor, Pampanga, Philippines",14.99692,120.65235,Converge,108574,131294,108.57,131.29,4,931,205,293
"Bustos, Bulacan, Philippines",14.95239,120.91735,PLDT,82997,65442,83.00,65.44,11,929,195,286
"Victorias, Negros Occidental, Philippines",10.901,123.07045,PLDT Home Fiber,93368,109800,93.37,109.80,13,928,137,199
"Mercedes, Camarines Norte, Philippines",13.90012,123.06765,PLDT,74255,79468,74.26,79.47,6,928,48,63
"Binmaley, Pangasinan, Philippines",16.02892,120.26882,PLDT,57330,55581,57.33,55.58,14,926,154,225
"Pili, Camarines Sur, Philippines",13.55521,123.28126,PLDT Home Fiber,76460,87915,76.46,87.92,8,926,196,285
"Kabankalan City, Negros Occidental, Philippines",9.91341,122.85358,PLDT,65057,77533,65.06,77.53,7,925,142,179
"Santa Cruz, Davao del Sur, Philippines",6.83551,125.41659,Globe,131249,115490,131.25,115.49,4,922,241,306
"San Pascual, Batangas, Philippines",13.81044,121.02204,PLDT Home Fiber,124101,134399,124.10,134.40,7,921,204,301
"San Pascual, Batangas, Philippines",13.81044,121.02204,Globe,91886,87535,91.89,87.54,6,918,226,356
"Murcia, Negros Occidental, Philippines",10.60643,123.03944,PLDT,56632,56882,56.63,56.88,19,917,261,340
"Ibaan, Batangas, Philippines",13.81895,121.13082,Globe,124179,114077,124.18,114.08,8,912,251,379
"Pili, Camarines Sur, Philippines",13.55521,123.28126,PLDT,43386,44039,43.39,44.04,15,905,97,138
"Lubao, Pampanga, Philippines",14.92678,120.58795,Converge,81914,83760,81.91,83.76,4,904,211,296
"San Ildefonso, Bulacan, Philippines",15.07717,120.94171,PLDT,64761,54784,64.76,54.78,8,900,125,186
"Muñoz, Nueva Ecija, Philippines",15.70664,120.9029,PLDT Home Fiber,88507,93800,88.51,93.80,13,898,131,188
"Naujan, Oriental Mindoro, Philippines",13.24381,121.19395,PLDT Home Fiber,94339,98396,94.34,98.40,7,896,206,308
"Tagbilaran City, Bohol, Philippines",9.6534,123.86703,Globe,118219,110670,118.22,110.67,8,895,144,185
"Limay, Bataan, Philippines",14.53661,120.56245,PLDT Home Fiber,98097,118539,98.10,118.54,8,894,139,185
"Dumangas, Iloilo, Philippines",10.82109,122.71167,PLDT Home Fiber,71992,84459,71.99,84.46,11,894,88,112
"Palo, Leyte, Philippines",11.15847,124.99191,PLDT,62021,61910,62.02,61.91,20,893,243,359
"Ormoc City, Leyte, Philippines",11.03843,124.61927,Converge,98379,113849,98.38,113.85,5,891,149,226
"San Rafael, Bulacan, Philippines",15.00184,120.93141,Globe,166648,126999,166.65,127.00,7,887,270,396
"Daraga, Albay, Philippines",13.12278,123.69588,Globe,147492,112124,147.49,112.12,24,882,118,154
"Bocaue, Bulacan, Philippines",14.7943,120.93073,Converge,147309,128371,147.31,128.37,7,879,218,290
"Ragay, Camarines Sur, Philippines",13.83123,122.78588,PLDT,44973,65948,44.97,65.95,13,877,28,37
"Odiongan, Romblon, Philippines",12.36445,122.01555,PLDT,71629,80852,71.63,80.85,12,873,119,165
"Gerona, Tarlac, Philippines",15.60489,120.59698,PLDT Home Fiber,86837,92403,86.84,92.40,11,873,150,211
"Limay, Bataan, Philippines",14.53661,120.56245,Converge,96195,120175,96.20,120.18,11,872,134,173
"Leyte, Philippines",11.32728,124.48636,PLDT,57158,68822,57.16,68.82,16,868,125,191
"Nabua, Camarines Sur, Philippines",13.4069,123.37324,PLDT Home Fiber,78053,82563,78.05,82.56,9,868,160,231
"San Luis, Pampanga, Philippines",15.03986,120.81544,PLDT Home Fiber,94398,92446,94.40,92.45,9,866,215,358
"Pualas, Lanao del Sur, Philippines",7.8105,124.053,PLDT Home Fiber,95251,94375,95.25,94.38,6,864,246,370
"Banga, South Cotabato, Philippines",6.38791,124.79617,PLDT Home Fiber,75116,55067,75.12,55.07,11,864,207,294
"Cavite, Philippines",14.48151,120.90833,PLDT Home Fiber,189216,176436,189.22,176.44,5,863,202,271
"Sagay City, Negros Occidental, Philippines",10.84555,123.37106,Globe,75649,76492,75.65,76.49,12,863,62,77
"Batangas City, Batangas, Philippines",13.75641,121.05833,Converge,126703,116047,126.70,116.05,7,861,190,313
"Calumpit, Bulacan, Philippines",14.91518,120.7662,Converge,156906,128417,156.91,128.42,6,859,151,209
"Ormoc City, Leyte, Philippines",11.03843,124.61927,PLDT Home Fiber,76138,86275,76.14,86.28,5,856,151,188
"Puerto Princesa City, Palawan, Philippines",9.78563,118.62648,Converge,101057,95926,101.06,95.93,14,853,175,235
"San Mateo, Rizal, Philippines",14.69539,121.11767,PLDT,73091,73312,73.09,73.31,10,850,273,411
"Dapitan City, Zamboanga del Norte, Philippines",8.58118,123.42714,PLDT Home Fiber,93904,87661,93.90,87.66,9,850,94,132
"San Rafael, Bulacan, Philippines",15.00184,120.93141,Converge,103450,93883,103.45,93.88,7,849,154,209
"San Luis, Aurora, Philippines",15.63572,121.46847,PLDT,66643,42998,66.64,43.00,15,849,91,143
"Mexico, Pampanga, Philippines",15.06457,120.72033,Globe,152676,154113,152.68,154.11,6,849,193,268
"Amulung, Cagayan, Philippines",17.83589,121.7233,Converge,92956,93591,92.96,93.59,13,849,191,367
"Tigaon, Camarines Sur, Philippines",13.61703,123.47198,Converge,89616,59003,89.62,59.00,13,848,46,69
"Moises Padilla, Negros Occidental, Philippines",10.26269,123.11266,PLDT Home Fiber,98146,97414,98.15,97.41,6,845,138,206
"Mexico, Pampanga, Philippines",15.06457,120.72033,PLDT,72367,84559,72.37,84.56,14,844,252,357
"Natividad, Pangasinan, Philippines",16.03821,120.83841,PLDT Home Fiber,96102,94534,96.10,94.53,6,843,265,426
"San Fernando, Pampanga, Philippines",15.02781,120.69349,Globe,120259,106953,120.26,106.95,5,843,223,284
"San Miguel, Bulacan, Philippines",15.14158,120.9751,Globe,118574,106147,118.57,106.15,6,842,198,285
"Dinalupihan, Bataan, Philippines",14.88605,120.44729,PLDT Home Fiber,145618,134393,145.62,134.39,8,839,151,193
"Balanga City, Bataan, Philippines",14.67454,120.47033,Converge,113966,116351,113.97,116.35,5,838,208,277
"Norzagaray, Bulacan, Philippines",14.89659,121.14813,Converge,123533,123644,123.53,123.64,7,833,137,190
"City of Mati, Davao Oriental, Philippines",6.95722,126.15454,Globe,115906,68983,115.91,68.98,15,832,95,122
"Oton, Iloilo, Philippines",10.69251,122.47868,PLDT Home Fiber,94330,103356,94.33,103.36,9,831,95,128
"Concepcion, Tarlac, Philippines",15.324,120.65596,Globe,187858,175508,187.86,175.51,4,831,277,418
"Rosario, Cavite, Philippines",14.41672,120.85471,PLDT,87829,93498,87.83,93.50,8,830,181,265
"Angat, Bulacan, Philippines",14.92586,121.02204,PLDT Home Fiber,93603,94706,93.60,94.71,7,827,201,311
"Laoag City, Ilocos Norte, Philippines",18.21075,120.58547,PLDT Home Fiber,113238,102305,113.24,102.31,9,827,181,256
"Masbate City, Masbate, Philippines",12.31777,123.55041,PLDT,81580,60827,81.58,60.83,21,825,144,196
"Libmanan, Camarines Sur, Philippines",13.69376,123.05982,PLDT Home Fiber,51997,49287,52.00,49.29,14,821,102,139
"Santo Domingo, Nueva Ecija, Philippines",15.61284,120.88434,PLDT,73294,72309,73.29,72.31,17,819,218,294
"Trento, Agusan del Sur, Philippines",8.05257,126.21969,PLDT Home Fiber,117583,86607,117.58,86.61,19,816,182,263
"Balanga City, Bataan, Philippines",14.67454,120.47033,PLDT,57928,57754,57.93,57.75,11,816,251,335
"Aguinaldo, Ifugao, Philippines",16.95291,121.33129,PLDT Home Fiber,95977,96358,95.98,96.36,12,813,213,367
"Talavera, Nueva Ecija, Philippines",15.58575,120.9197,PLDT Home Fiber,77251,78577,77.25,78.58,10,813,167,264
"San Andres, Catanduanes, Philippines",13.6332,124.08641,PLDT,58197,76357,58.20,76.36,11,811,59,84
"Pavia, Iloilo, Philippines",10.7748,122.54261,PLDT,53231,62088,53.23,62.09,17,807,225,334
"Gandara, Samar, Philippines",12.06444,124.79617,PLDT Home Fiber,27440,26534,27.44,26.53,18,805,29,36
"Alicia, Isabela, Philippines",16.80691,121.69674,PLDT Home Fiber,57530,59538,57.53,59.54,12,801,160,229
"Hermosa, Bataan, Philippines",14.83566,120.47709,Converge,133832,119793,133.83,119.79,6,800,160,204
"Panabo City, Davao del Norte, Philippines",7.30822,125.68662,PLDT,100023,86662,100.02,86.66,8,799,145,194
"Marawi City, Lanao del Sur, Philippines",8.0292,124.29772,Globe,41024,39105,41.02,39.11,9,799,91,132
"Buenavista, Guimaras, Philippines",10.69691,122.6481,PLDT,47921,50681,47.92,50.68,18,799,172,250
"Butuan City, Agusan Del Norte, Philippines",8.94753,125.54063,Converge,133427,125925,133.43,125.93,11,798,153,207
"Moalboal, Cebu, Philippines",9.93681,123.42714,Globe,79393,60863,79.39,60.86,13,797,152,235
"Bongabong, Oriental Mindoro, Philippines",12.71953,121.30841,PLDT,70180,56635,70.18,56.64,11,797,41,56
"Kiamba, Sarangani, Philippines",6.00076,124.70777,PLDT,15657,16175,15.66,16.18,14,796,44,71
"Cotabato City, Maguindanao, Philippines",7.20467,124.23104,Globe,160586,50166,160.59,50.17,12,795,63,88
"M'lang, Cotabato, Philippines",6.93822,124.90655,PLDT Home Fiber,132054,122722,132.05,122.72,10,790,180,261
"City of Cabadbaran, Agusan Del Norte, Philippines",9.14092,125.697,PLDT Home Fiber,59970,59888,59.97,59.89,11,788,63,89
"Consolacion, Cebu, Philippines",10.37581,123.95694,PLDT Home Fiber,156030,154393,156.03,154.39,4,787,199,266
"Guimba, Nueva Ecija, Philippines",15.65641,120.76767,Globe,152275,175950,152.28,175.95,6,786,261,371
"San Mateo, Rizal, Philippines",14.69539,121.11767,Globe,226699,220138,226.70,220.14,5,782,179,222
"Alaminos City, Pangasinan, Philippines",16.15053,119.98562,PLDT Home Fiber,93362,96971,93.36,96.97,9,780,132,188
"Trento, Agusan del Sur, Philippines",8.05257,126.21969,Converge,132932,99238,132.93,99.24,13,777,187,292
"Carcar, Cebu, Philippines",10.10478,123.64147,PLDT Home Fiber,114626,135013,114.63,135.01,6,777,125,187
"Zamboanga City, Zamboanga del Sur, Philippines",6.90437,122.07612,PLDT,49524,45817,49.52,45.82,18,775,152,252
"Rodriguez, Rizal, Philippines",14.73202,121.14516,PLDT,50758,48127,50.76,48.13,7,775,177,240
"City of Mati, Davao Oriental, Philippines",6.95722,126.15454,PLDT Home Fiber,113536,116837,113.54,116.84,12,774,124,161
"El Nido, Palawan, Philippines",11.19892,119.42317,PLDT,89255,75749,89.26,75.75,29,773,119,201
"Binangonan, Rizal, Philippines",14.48441,121.1869,Globe,190952,167282,190.95,167.28,4,773,182,234
"Taal, Batangas, Philippines",13.87826,120.92508,Globe,201601,220779,201.60,220.78,6,771,211,330
"Floridablanca, Pampanga, Philippines",14.9619,120.49471,Converge,74351,84688,74.35,84.69,4,770,166,220
"Pavia, Iloilo, Philippines",10.7748,122.54261,PLDT Home Fiber,175490,193906,175.49,193.91,9,770,192,248
"Ozamiz, Misamis Occidental, Philippines",8.15,123.85033,PLDT Home Fiber,67741,63825,67.74,63.83,5,767,101,134
"Tayug, Pangasinan, Philippines",16.01085,120.74649,PLDT,90365,93296,90.37,93.30,8,766,200,339
"Cordon, Isabela, Philippines",16.67835,121.46847,PLDT Home Fiber,55103,53375,55.10,53.38,15,764,113,173
"Tayug, Pangasinan, Philippines",16.01085,120.74649,PLDT Home Fiber,91584,94837,91.58,94.84,11,763,131,217
"Kalibo, Aklan, Philippines",11.70734,122.36986,Converge,82175,80777,82.18,80.78,14,761,147,207
"Palayan City, Nueva Ecija, Philippines",15.53906,121.09083,PLDT,90639,92551,90.64,92.55,12,759,187,257
"La Carlota City, Negros Occidental, Philippines",10.41437,122.97757,PLDT Home Fiber,94514,101903,94.51,101.90,6,759,266,377
"Balagtas, Bulacan, Philippines",14.81784,120.90646,PLDT Home Fiber,169408,120124,169.41,120.12,8,756,180,257
"Lumban, Laguna, Philippines",14.29353,121.52558,Globe,114080,110163,114.08,110.16,5,753,256,402
"Sibalom, Antique, Philippines",10.76502,122.06102,PLDT Home Fiber,56571,53685,56.57,53.69,13,749,44,52
"Baliwag, Bulacan, Philippines",14.96569,120.89431,Converge,159448,144446,159.45,144.45,6,748,161,222
"Pili, Camarines Sur, Philippines",13.55521,123.28126,Converge,71151,77472,71.15,77.47,3,748,172,249
"Santo Tomas, Batangas, Philippines",14.08754,121.17764,PLDT,55793,55828,55.79,55.83,12,747,154,210
"Paete, Laguna, Philippines",14.37243,121.54842,Converge,146624,143512,146.62,143.51,10,746,118,198
"Villareal, Samar, Philippines",11.53963,124.92861,Converge,27834,34742,27.83,34.74,7,744,17,17
"Nasugbu, Batangas, Philippines",14.09404,120.68901,Converge,86447,114009,86.45,114.01,7,743,154,264
"Pozorrubio, Pangasinan, Philippines",16.11642,120.54316,PLDT,83181,73716,83.18,73.72,9,743,173,276
"Pantukan, Davao de Oro, Philippines",7.20012,126.04584,PLDT Home Fiber,75571,86962,75.57,86.96,11,742,85,126
"Alicia, Isabela, Philippines",16.80691,121.69674,PLDT,67684,65387,67.68,65.39,14,740,167,211
"Midsayap, Cotabato, Philippines",7.19181,124.53474,PLDT Home Fiber,104187,93837,104.19,93.84,13,740,138,197
"Apalit, Pampanga, Philippines",14.95255,120.76688,PLDT,79309,80245,79.31,80.25,15,739,202,260
"Passi City, Iloilo, Philippines",11.1688,122.65035,PLDT,53803,53406,53.80,53.41,14,737,190,268
"Dipolog City, Zamboanga del Norte, Philippines",8.58717,123.34035,Globe,60384,41436,60.38,41.44,12,735,88,107
"Toboso, Negros Occidental, Philippines",10.71769,123.46077,Globe,16641,6232,16.64,6.23,35,734,182,375
"Paniqui, Tarlac, Philippines",15.66603,120.53942,PLDT Home Fiber,111027,116276,111.03,116.28,11,734,146,195
"Candaba, Pampanga, Philippines",15.09289,120.8277,Converge,133225,105005,133.23,105.01,5,731,200,278
"Tagum, Davao del Norte, Philippines",7.44742,125.80246,Converge,123711,114707,123.71,114.71,4,728,138,179
"Norzagaray, Bulacan, Philippines",14.89659,121.14813,PLDT Home Fiber,102961,97391,102.96,97.39,6,725,152,209
"Santa Catalina, Negros Oriental, Philippines",9.28676,122.94377,PLDT,63905,59645,63.91,59.65,7,724,42,58
"Iriga City, Camarines Sur, Philippines",13.42095,123.41361,PLDT,72436,54782,72.44,54.78,9,723,96,138
"Talavera, Nueva Ecija, Philippines",15.58575,120.9197,Globe,153248,138437,153.25,138.44,5,721,184,285
"San Miguel, Bulacan, Philippines",15.14158,120.9751,Converge,144625,130831,144.63,130.83,6,720,164,212
"Tubod, Lanao del Norte, Philippines",7.99427,123.87462,PLDT Home Fiber,108456,94212,108.46,94.21,5,720,151,191
"Bauang, La Union, Philippines",16.51433,120.35508,PLDT Home Fiber,107129,93879,107.13,93.88,3,719,124,175
"Jasaan, Misamis Oriental, Philippines",8.65161,124.78513,PLDT Home Fiber,71125,69383,71.13,69.38,8,716,112,160
"Floridablanca, Pampanga, Philippines",14.9619,120.49471,PLDT Home Fiber,110974,101038,110.97,101.04,10,716,160,220
"Sagbayan, Bohol, Philippines",9.91005,124.08641,PLDT,78246,86831,78.25,86.83,19,715,165,253
"Pateros, Metro Manila, Philippines",14.54838,121.07077,PLDT Home Fiber,196323,173320,196.32,173.32,3,714,185,236
"Tublay, Benguet, Philippines",16.52924,120.62073,Converge,94227,94430,94.23,94.43,3,712,168,263
"Cauayan City, Isabela, Philippines",16.91662,121.78792,PLDT Home Fiber,95677,92868,95.68,92.87,12,708,141,202
"Apalit, Pampanga, Philippines",14.95255,120.76688,Converge,91740,96091,91.74,96.09,4,707,115,171
"Quezon, Nueva Ecija, Philippines",15.56953,120.82692,Globe,219233,170284,219.23,170.28,6,702,192,275
"Polomolok, South Cotabato, Philippines",6.22451,125.06084,Globe,119606,122656,119.61,122.66,14,700,94,123
"Baliwag, Bulacan, Philippines",14.96569,120.89431,Globe,114861,104103,114.86,104.10,8,699,144,180
"Tanza, Cavite, Philippines",14.34293,120.85032,PLDT,120437,128353,120.44,128.35,7,697,146,191
"Balagtas, Bulacan, Philippines",14.81784,120.90646,Converge,208024,171588,208.02,171.59,7,695,150,202
"Santa Cruz, Laguna, Philippines",14.26911,121.41133,PLDT Home Fiber,113782,127850,113.78,127.85,12,695,122,159
"Guimba, Nueva Ecija, Philippines",15.65641,120.76767,PLDT,85147,97174,85.15,97.17,12,694,60,83
"Hinunangan, Southern Leyte, Philippines",10.39458,125.14888,PLDT,51969,100617,51.97,100.62,10,694,70,86
"La Carlota City, Negros Occidental, Philippines",10.41437,122.97757,PLDT,73129,78205,73.13,78.21,7,692,108,144
"Urdaneta City, Pangasinan, Philippines",15.98194,120.59698,PLDT,108420,110374,108.42,110.37,6,687,161,228
"San Fernando City, La Union, Philippines",16.61592,120.32102,PLDT,81045,92981,81.05,92.98,3,686,130,198
"Santa Maria, Bulacan, Philippines",14.82898,120.97616,PLDT,87003,75446,87.00,75.45,10,685,139,214
"Mabalacat City, Pampanga, Philippines",15.24525,120.56567,Globe,120617,117398,120.62,117.40,4,684,143,192
"Naga, Cebu, Philippines",10.20764,123.75821,PLDT,95809,102194,95.81,102.19,4,684,126,151
"San Jose, Occidental Mindoro, Philippines",12.40119,121.10229,Converge,50680,47810,50.68,47.81,10,681,105,167
"Guinobatan, Albay, Philippines",13.15419,123.55041,Converge,59781,82430,59.78,82.43,15,680,64,94
"Nagcarlan, Laguna, Philippines",14.14903,121.38847,PLDT,65579,69370,65.58,69.37,12,677,177,246
"Pandi, Bulacan, Philippines",14.87572,120.95941,Globe,138565,130642,138.57,130.64,7,676,127,157
"Trece Martires City, Cavite, Philippines",14.28222,120.86837,PLDT,74570,75628,74.57,75.63,5,671,155,213
"Hagonoy, Bulacan, Philippines",14.83564,120.73371,PLDT Home Fiber,134429,100000,134.43,100.00,9,671,191,260
"General Mariano Alvarez, Cavite, Philippines",14.29525,121.0071,PLDT Home Fiber,108839,146901,108.84,146.90,6,666,139,173
"Enrique B. Magalona, Negros Occidental, Philippines",10.87695,122.98281,PLDT Home Fiber,74346,94535,74.35,94.54,10,666,158,261
"Santa Cruz, Davao del Sur, Philippines",6.83551,125.41659,PLDT Home Fiber,91988,48469,91.99,48.47,9,666,146,212
"Santo Domingo, Nueva Ecija, Philippines",15.61284,120.88434,PLDT Home Fiber,98137,96899,98.14,96.90,11,663,116,207
"Santo Tomas, Batangas, Philippines",14.08754,121.17764,Converge,128028,120489,128.03,120.49,7,663,117,160
"Daraga, Albay, Philippines",13.12278,123.69588,PLDT,90942,94626,90.94,94.63,8,661,171,222
"Nasugbu, Batangas, Philippines",14.09404,120.68901,PLDT Home Fiber,88843,93595,88.84,93.60,8,659,145,207
"Isulan, Sultan Kudarat, Philippines",6.6318,124.44201,PLDT,58421,51267,58.42,51.27,11,657,81,103
"Infanta, Quezon, Philippines",14.74071,121.6451,PLDT,31834,34747,31.83,34.75,14,656,180,290
"Dauis, Bohol, Philippines",9.60401,123.82996,PLDT Home Fiber,130003,147537,130.00,147.54,8,656,110,152
"Camiling, Tarlac, Philippines",15.67495,120.41272,PLDT Home Fiber,55157,70110,55.16,70.11,12,654,93,116
"Narra, Palawan, Philippines",9.229,118.33047,PLDT,87873,102132,87.87,102.13,35,653,74,105
"Guimba, Nueva Ecija, Philippines",15.65641,120.76767,PLDT Home Fiber,83284,95224,83.28,95.22,13,651,134,189
"Santa Teresita, Batangas, Philippines",13.88153,120.97329,Globe,340207,306017,340.21,306.02,5,651,176,267
"Tanjay City, Negros Oriental, Philippines",9.49579,122.9663,PLDT Home Fiber,80481,77290,80.48,77.29,12,651,121,176
"Lubao, Pampanga, Philippines",14.92678,120.58795,PLDT,79516,77881,79.52,77.88,11,648,171,242
"General Mamerto Natividad, Nueva Ecija, Philippines",15.58788,121.04498,PLDT Home Fiber,94765,94463,94.77,94.46,10,646,137,200
"Tanay, Rizal, Philippines",14.61419,121.37703,PLDT,44893,51973,44.89,51.97,10,643,176,238
"San Remigio, Antique, Philippines",10.90711,122.19731,PLDT,53103,50139,53.10,50.14,12,640,15,18
"Tigaon, Camarines Sur, Philippines",13.61703,123.47198,PLDT Home Fiber,104936,111085,104.94,111.09,8,635,68,89
"Sorsogon City, Sorsogon, Philippines",12.97888,123.98477,Converge,85346,100777,85.35,100.78,18,631,87,137
"Tanauan City, Batangas, Philippines",14.08354,121.14762,Converge,111808,120181,111.81,120.18,8,630,135,203
"Tingloy, Batangas, Philippines",13.64133,120.9073,Globe,61938,53899,61.94,53.90,6,629,200,347
"Arakan, Cotabato, Philippines",7.35122,125.17087,PLDT Home Fiber,93766,93304,93.77,93.30,8,629,181,276
"Vigan City, Ilocos Sur, Philippines",17.56485,120.38781,PLDT,74045,84155,74.05,84.16,11,628,112,158
"Cadiz City, Negros Occidental, Philippines",10.86192,123.23632,Globe,121709,105313,121.71,105.31,12,627,192,288
"Pavia, Iloilo, Philippines",10.7748,122.54261,Globe,114881,105865,114.88,105.87,4,627,109,156
"Salvador Benedicto, Negros Occidental, Philippines",10.5887,123.23632,Globe,152249,148240,152.25,148.24,12,625,202,299
"Amadeo, Cavite, Philippines",14.18985,120.92452,PLDT,140647,177787,140.65,177.79,9,623,140,184
"Ipil, Zamboanga Sibugay, Philippines",7.77318,122.57121,PLDT,79885,82153,79.89,82.15,17,620,117,153
"Panglao, Bohol, Philippines",9.56947,123.78721,PLDT,81489,78923,81.49,78.92,8,619,103,181
"Tiaong, Quezon, Philippines",13.92962,121.34273,PLDT Home Fiber,109930,109171,109.93,109.17,4,618,151,234
"Talisay, Batangas, Philippines",14.11598,121.04498,Globe,62375,54117,62.38,54.12,6,618,156,260
"Sarrat, Ilocos Norte, Philippines",18.11379,120.6545,Converge,96833,111962,96.83,111.96,10,617,184,297
"City Of Bislig, Surigao del Sur, Philippines",8.21006,126.28478,PLDT Home Fiber,58917,71234,58.92,71.23,9,617,95,123
"Lingayen, Pangasinan, Philippines",16.00973,120.22449,PLDT Home Fiber,92820,117088,92.82,117.09,12,616,114,163
"Hinigaran, Negros Occidental, Philippines",10.27479,122.92123,PLDT,71235,69286,71.24,69.29,13,615,132,210
"Binangonan, Rizal, Philippines",14.48441,121.1869,Converge,151319,175989,151.32,175.99,3,615,174,216
"Pulilan, Bulacan, Philippines",14.90243,120.8459,PLDT,110584,106528,110.58,106.53,5,614,157,274
"Angat, Bulacan, Philippines",14.92586,121.02204,Converge,91683,91152,91.68,91.15,7,612,87,124
"Tanjay City, Negros Oriental, Philippines",9.49579,122.9663,PLDT,56740,72948,56.74,72.95,12,612,67,109
"Candon City, Ilocos Sur, Philippines",17.19612,120.44729,Converge,93984,106214,93.98,106.21,10,612,150,229
"Tuguegarao City, Cagayan, Philippines",17.60306,121.75374,Globe,93076,93947,93.08,93.95,10,609,95,128
"President Roxas, Cotabato, Philippines",7.37928,125.06084,PLDT,147589,107579,147.59,107.58,9,599,222,331
"Calasiao, Pangasinan, Philippines",16.00949,120.35759,PLDT,84111,90325,84.11,90.33,6,599,122,195
"Padre Garcia, Batangas, Philippines",13.87668,121.24547,Globe,140689,149248,140.69,149.25,6,598,177,254
"Pilar, Sorsogon, Philippines",12.97477,123.6847,PLDT Home Fiber,149435,132257,149.44,132.26,45,597,1,4
"Talavera, Nueva Ecija, Philippines",15.58575,120.9197,PLDT,113918,100379,113.92,100.38,11,596,50,82
"Norala, South Cotabato, Philippines",6.5061,124.66353,PLDT Home Fiber,60422,48336,60.42,48.34,10,596,108,150
"Sariaya, Quezon, Philippines",13.96301,121.52388,PLDT,92277,93363,92.28,93.36,8,595,151,218
"Nasugbu, Batangas, Philippines",14.09404,120.68901,PLDT,79211,102873,79.21,102.87,8,595,126,195
"Pulilan, Bulacan, Philippines",14.90243,120.8459,Converge,121331,131275,121.33,131.28,7,594,115,146
"Sapad, Lanao del Norte, Philippines",7.83074,123.82996,PLDT Home Fiber,90842,91283,90.84,91.28,8,593,193,289
"Naval, Biliran, Philippines",11.56681,124.44201,Globe,121813,108132,121.81,108.13,21,591,73,101
"Hamtic, Antique, Philippines",10.65189,122.01555,PLDT,68803,61019,68.80,61.02,15,591,135,171
"Panglao, Bohol, Philippines",9.56947,123.78721,PLDT Home Fiber,116055,106449,116.06,106.45,8,589,130,192
"Baler, Aurora, Philippines",15.73361,121.57125,PLDT,68277,60610,68.28,60.61,14,588,126,164
"Gasan, Marinduque, Philippines",13.32138,121.89041,PLDT Home Fiber,85414,90501,85.41,90.50,8,586,41,53
"Lopez, Quezon, Philippines",13.80005,122.31075,PLDT,93648,96100,93.65,96.10,7,586,108,161
"Lamut, Ifugao, Philippines",16.68241,121.19395,PLDT Home Fiber,112662,107200,112.66,107.20,11,586,154,239
"Infanta, Quezon, Philippines",14.74071,121.6451,PLDT Home Fiber,76175,99784,76.18,99.78,11,585,99,127
"Pagbilao, Quezon, Philippines",13.99683,121.73095,PLDT Home Fiber,174405,209728,174.41,209.73,6,584,126,202
"San Fernando City, La Union, Philippines",16.61592,120.32102,Converge,121966,128625,121.97,128.63,4,580,164,227
"Ligao City, Albay, Philippines",13.17242,123.4944,PLDT,81720,89965,81.72,89.97,8,579,69,86
"Mallig, Isabela, Philippines",17.15803,121.61307,PLDT Home Fiber,43570,50079,43.57,50.08,13,578,91,132
"Talugtug, Nueva Ecija, Philippines",15.7698,120.81544,PLDT,75981,83144,75.98,83.14,10,577,130,183
"Santa Cruz, Laguna, Philippines",14.26911,121.41133,PLDT,91208,93992,91.21,93.99,10,576,122,185
"San Mateo, Isabela, Philippines",16.87673,121.59408,PLDT Home Fiber,50537,49726,50.54,49.73,13,573,86,120
"Borbon, Cebu, Philippines",10.84627,123.9973,Globe,117468,106696,117.47,106.70,20,573,195,260
"Mahayag, Zamboanga del Sur, Philippines",8.15835,123.41593,PLDT Home Fiber,42547,38647,42.55,38.65,10,573,33,40
"Tacloban City, Leyte, Philippines",11.22238,124.99221,PLDT Home Fiber,127473,122087,127.47,122.09,7,572,126,163
"Guagua, Pampanga, Philippines",14.96374,120.63244,PLDT,63690,75528,63.69,75.53,12,572,124,172
"General Mariano Alvarez, Cavite, Philippines",14.29525,121.0071,Converge,178276,194762,178.28,194.76,7,571,139,228
"Kalibo, Aklan, Philippines",11.70734,122.36986,Globe,116248,90262,116.25,90.26,14,567,101,138
"Cabuyao City, Laguna, Philippines",14.27433,121.11961,Globe,140072,134124,140.07,134.12,6,565,101,133
"Dumanjug, Cebu, Philippines",10.02819,123.47198,PLDT Home Fiber,148352,137550,148.35,137.55,5,564,146,223
"Magalang, Pampanga, Philippines",15.21394,120.66181,Globe,117182,111059,117.18,111.06,4,563,184,246
"San Carlos City, Negros Occidental, Philippines",10.48344,123.30371,Converge,69833,60160,69.83,60.16,13,563,41,56
"Barotac Nuevo, Iloilo, Philippines",10.89705,122.69526,PLDT,38764,49400,38.76,49.40,12,563,56,82
"Bayambang, Pangasinan, Philippines",15.80947,120.45714,PLDT Home Fiber,96133,103182,96.13,103.18,13,562,99,128
"City of Catbalogan, Samar, Philippines",11.85683,124.88449,Globe,94995,83447,95.00,83.45,12,561,112,169
"General Tinio (Papaya), Nueva Ecija, Philippines",15.36345,121.21685,PLDT,53836,22689,53.84,22.69,12,560,151,230
"Kidapawan, Cotabato, Philippines",7.02127,125.09019,Converge,112863,103244,112.86,103.24,5,560,111,164
"Bagabag, Nueva Vizcaya, Philippines",16.58337,121.28552,PLDT Home Fiber,83665,93532,83.67,93.53,10,559,80,142
"Norzagaray, Bulacan, Philippines",14.89659,121.14813,PLDT,84482,69556,84.48,69.56,8,556,131,197
"Santo Nino, South Cotabato, Philippines",6.44221,124.67459,PLDT Home Fiber,54112,48236,54.11,48.24,11,554,67,88
"Lobo, Batangas, Philippines",13.6877,121.23974,PLDT Home Fiber,140101,132546,140.10,132.55,6,553,175,282
"Zaragoza, Nueva Ecija, Philippines",15.46003,120.79246,PLDT Home Fiber,112332,94547,112.33,94.55,11,553,157,261
"Baao, Camarines Sur, Philippines",13.49319,123.35984,PLDT,61577,60715,61.58,60.72,11,551,75,98
"San Fernando, Cebu, Philippines",10.16316,123.70738,Globe,118657,121783,118.66,121.78,16,551,181,240
"Gumaca, Quezon, Philippines",13.89105,122.10647,PLDT,93286,97365,93.29,97.37,6,550,91,132
"Sogod, Cebu, Philippines",10.77419,123.9527,Globe,115358,104639,115.36,104.64,19,549,187,255
"Urdaneta City, Pangasinan, Philippines",15.98194,120.59698,Globe,118201,105619,118.20,105.62,5,547,56,75
"Hinigaran, Negros Occidental, Philippines",10.27479,122.92123,PLDT Home Fiber,77278,77467,77.28,77.47,12,546,55,70
"Panabo City, Davao del Norte, Philippines",7.30822,125.68662,Globe,116216,93259,116.22,93.26,8,545,95,113
"Rosario, Batangas, Philippines",13.80433,121.28552,Converge,70357,119647,70.36,119.65,12,545,80,123
"Naic, Cavite, Philippines",14.29649,120.79246,Globe,122376,105759,122.38,105.76,7,544,83,102
"Kabayan, Benguet, Philippines",16.61702,120.82692,PLDT Home Fiber,92394,94314,92.39,94.31,6,542,177,276
"Camalig, Albay, Philippines",13.14101,123.63996,Converge,66271,92629,66.27,92.63,17,542,77,111
"Ormoc City, Leyte, Philippines",11.03843,124.61927,PLDT,29813,29788,29.81,29.79,7,542,99,143
"Alaminos, Laguna, Philippines",14.0454,121.25119,Converge,92719,130240,92.72,130.24,13,541,60,83
"San Antonio, Quezon, Philippines",13.89506,121.29697,Globe,173765,142742,173.77,142.74,8,541,175,279
"Tanjay City, Negros Oriental, Philippines",9.49579,122.9663,Globe,88961,58552,88.96,58.55,14,540,57,72
"Carcar, Cebu, Philippines",10.10478,123.64147,Globe,135638,123155,135.64,123.16,13,539,130,170
"Sogod, Southern Leyte, Philippines",10.44929,125.01679,PLDT Home Fiber,67714,82966,67.71,82.97,11,538,52,59
"Bayawan City, Negros Oriental, Philippines",9.53644,122.7633,PLDT,67590,62536,67.59,62.54,11,537,106,137
"Alfonso, Cavite, Philippines",14.1214,120.86138,Converge,215465,196845,215.47,196.85,6,537,76,95
"Lambayong (Mariano Marcos), Sultan Kudarat, Philippines",6.79879,124.61927,PLDT Home Fiber,48766,44033,48.77,44.03,12,537,87,112
"Brooke's Point, Palawan, Philippines",8.78617,117.83817,PLDT Home Fiber,42422,48102,42.42,48.10,21,537,53,72
"Oton, Iloilo, Philippines",10.69251,122.47868,Globe,133301,111286,133.30,111.29,6,535,96,122
"San Luis, Batangas, Philippines",13.8406,120.95321,Globe,118069,105993,118.07,105.99,6,535,166,284
"Kapangan, Benguet, Philippines",16.61238,120.59698,Converge,185830,180864,185.83,180.86,3,534,155,260
"Roxas, Isabela, Philippines",17.12035,121.61915,PLDT Home Fiber,51211,53477,51.21,53.48,13,533,81,107
"Carranglan, Nueva Ecija, Philippines",15.97584,121.03351,PLDT,38145,66849,38.15,66.85,9,533,125,177
"Dumaguete City, Negros Oriental, Philippines",9.29841,123.29249,Converge,98785,93440,98.79,93.44,17,532,156,204
"Rizal, Nueva Ecija, Philippines",15.69357,121.10229,PLDT Home Fiber,42380,47222,42.38,47.22,12,532,49,64
"Panabo City, Davao del Norte, Philippines",7.30822,125.68662,Converge,102079,120562,102.08,120.56,4,531,106,128
"Gattaran, Cagayan, Philippines",18.07365,121.87903,PLDT,49765,45771,49.77,45.77,16,531,100,132
"Marawi City, Lanao del Sur, Philippines",8.0292,124.29772,PLDT,49115,39228,49.12,39.23,24,526,158,226
"Pateros, Metro Manila, Philippines",14.54838,121.07077,Globe,122496,108956,122.50,108.96,5,526,127,167
"Malasiqui, Pangasinan, Philippines",15.92028,120.41443,PLDT,90516,91776,90.52,91.78,6,524,78,114
"Bingawan, Iloilo, Philippines",11.16855,122.57121,PLDT,47884,48461,47.88,48.46,16,524,70,90
"Laurel, Batangas, Philippines",14.05302,120.9073,PLDT Home Fiber,91245,106486,91.25,106.49,7,522,70,121
"Toledo, Cebu, Philippines",10.38705,123.65017,PLDT Home Fiber,81908,81197,81.91,81.20,4,522,82,112
"Carmona, Cavite, Philippines",14.3135,121.05712,Globe,174641,152653,174.64,152.65,6,521,135,188
"Ocampo, Camarines Sur, Philippines",13.58198,123.37106,Converge,72145,76739,72.15,76.74,12,521,15,20
"Dumanjug, Cebu, Philippines",10.02819,123.47198,PLDT,57208,69441,57.21,69.44,11,521,112,154
"Roxas, Oriental Mindoro, Philippines",12.62617,121.47989,PLDT Home Fiber,76824,56038,76.82,56.04,7,520,57,74
"Bula, Camarines Sur, Philippines",13.44119,123.23632,PLDT Home Fiber,67904,74119,67.90,74.12,9,519,84,133
"Libungan, Cotabato, Philippines",7.31637,124.53068,PLDT Home Fiber,78902,91645,78.90,91.65,11,519,96,125
"San Pablo City, Laguna, Philippines",14.06422,121.32326,Globe,116653,124524,116.65,124.52,8,518,73,95
"Ozamiz, Misamis Occidental, Philippines",8.15,123.85033,Globe,140219,62086,140.22,62.09,11,517,77,110
"Pinamungahan, Cebu, Philippines",10.26958,123.63996,PLDT,34681,40573,34.68,40.57,9,512,49,70
"Guiguinto, Bulacan, Philippines",14.82832,120.88429,Globe,139156,123648,139.16,123.65,7,512,109,134
"Los Baños, Laguna, Philippines",14.17731,121.22161,Globe,199469,187748,199.47,187.75,6,512,153,221
"Bautista, Pangasinan, Philippines",15.79528,120.51639,PLDT,103103,111503,103.10,111.50,10,510,121,183
"Polanco, Zamboanga del Norte, Philippines",8.49106,123.38228,PLDT,80459,89421,80.46,89.42,22,509,89,132
"Tupi, South Cotabato, Philippines",6.33849,124.97271,PLDT Home Fiber,53198,50759,53.20,50.76,11,509,64,93
"Urdaneta City, Pangasinan, Philippines",15.98194,120.59698,PLDT Home Fiber,127155,152292,127.16,152.29,7,507,162,234
"Malay, Aklan, Philippines",11.93033,121.95191,Converge,69645,47999,69.65,48.00,15,507,128,211
"San Jose, Batangas, Philippines",13.87868,121.09942,PLDT,184822,166873,184.82,166.87,7,505,140,186
"Alaminos City, Pangasinan, Philippines",16.15053,119.98562,Converge,147455,149220,147.46,149.22,5,504,106,140
"Samal, Davao del Norte, Philippines",7.08352,125.70578,PLDT Home Fiber,87214,97629,87.21,97.63,8,502,96,119
"Hagonoy, Bulacan, Philippines",14.83564,120.73371,Converge,94675,88926,94.68,88.93,6,502,105,125
"Carranglan, Nueva Ecija, Philippines",15.97584,121.03351,PLDT Home Fiber,95206,95609,95.21,95.61,8,501,106,185
"Mabitac, Laguna, Philippines",14.43383,121.41133,Converge,114771,139581,114.77,139.58,10,499,110,181
"Talisay, Negros Occidental, Philippines",10.74828,122.98012,Converge,161199,147854,161.20,147.85,12,499,148,196
"Victoria, Tarlac, Philippines",15.59077,120.68901,PLDT Home Fiber,97781,91312,97.78,91.31,11,499,139,218
"Himamaylan, Negros Occidental, Philippines",10.10162,122.86995,PLDT Home Fiber,64307,73178,64.31,73.18,14,498,45,66
"Pikit, Cotabato, Philippines",7.05314,124.61927,PLDT Home Fiber,90960,96135,90.96,96.14,10,497,146,204
"Malaybalay City, Bukidnon, Philippines",8.15775,125.17087,Converge,94184,92703,94.18,92.70,9,495,108,133
"City of Borongan, Eastern Samar, Philippines",11.61739,125.34663,Globe,151405,123536,151.41,123.54,25,494,81,108
"Asturias, Cebu, Philippines",10.60209,123.77412,PLDT Home Fiber,72720,74774,72.72,74.77,7,492,83,116
"Alimodian, Iloilo, Philippines",10.85495,122.39009,PLDT,51802,51149,51.80,51.15,9,491,36,50
"Impasug-ong, Bukidnon, Philippines",8.38854,125.08286,Converge,104345,102054,104.35,102.05,8,491,238,285
"Atimonan, Quezon, Philippines",13.96507,121.87903,PLDT Home Fiber,121884,154965,121.88,154.97,4,489,52,71
"Boac, Marinduque, Philippines",13.39413,121.87903,PLDT Home Fiber,70859,92851,70.86,92.85,10,489,82,114
"Alfonso, Cavite, Philippines",14.1214,120.86138,PLDT Home Fiber,174196,163843,174.20,163.84,4,487,112,156
"New Corella, Davao del Norte, Philippines",7.59777,125.84981,PLDT Home Fiber,55056,55949,55.06,55.95,10,487,82,118
"Iriga City, Camarines Sur, Philippines",13.42095,123.41361,PLDT Home Fiber,74461,97323,74.46,97.32,8,486,98,133
"Pilar, Bataan, Philippines",14.60553,120.51639,PLDT Home Fiber,107478,110811,107.48,110.81,7,485,95,115
"Pigkawayan, Cotabato, Philippines",7.27922,124.43092,PLDT Home Fiber,95699,50538,95.70,50.54,12,484,104,148
"Pagalungan, Maguindanao, Philippines",6.93298,124.75198,PLDT Home Fiber,92628,91670,92.63,91.67,11,483,138,225
"Gerona, Tarlac, Philippines",15.60489,120.59698,Converge,91262,93814,91.26,93.81,5,483,156,224
"San Carlos City, Pangasinan, Philippines",15.92589,120.34827,Converge,97561,111729,97.56,111.73,5,481,89,111
"Alabel, Sarangani, Philippines",6.10416,125.28792,PLDT Home Fiber,50859,56125,50.86,56.13,11,481,85,114
"City of Baybay, Leyte, Philippines",10.66858,124.80409,Globe,80722,91554,80.72,91.55,12,480,75,97
"Dona Remedios Trinidad, Bulacan, Philippines",15.11427,121.21685,PLDT Home Fiber,79860,73191,79.86,73.19,11,480,133,186
"City of Tayabas, Quezon, Philippines",14.01135,121.55983,PLDT,87333,98129,87.33,98.13,9,478,88,123
"Malay, Aklan, Philippines",11.93033,121.95191,PLDT Home Fiber,93496,94659,93.50,94.66,24,477,46,71
"Guinayangan, Quezon, Philippines",13.88505,122.42407,PLDT,73151,115205,73.15,115.21,5,476,28,32
"Badian, Cebu, Philippines",9.83209,123.41593,PLDT Home Fiber,86362,126423,86.36,126.42,7,476,47,76
"Anao, Tarlac, Philippines",15.7435,120.61424,PLDT,47968,50204,47.97,50.20,24,476,79,112
"Calbayog, Samar, Philippines",12.0685,124.59081,Globe,97811,80165,97.81,80.17,11,475,74,110
"Botolan, Zambales, Philippines",15.26625,120.20511,Converge,83707,93194,83.71,93.19,6,474,71,94
"Cavite, Philippines",14.48151,120.90833,Converge,200153,172670,200.15,172.67,6,473,63,99
"Calbayog, Samar, Philippines",12.0685,124.59081,PLDT Home Fiber,123836,121425,123.84,121.43,14,472,78,98
"Oas, Albay, Philippines",13.14041,123.37106,PLDT,106919,106613,106.92,106.61,8,470,31,37
"Isulan, Sultan Kudarat, Philippines",6.6318,124.44201,PLDT Home Fiber,46516,33318,46.52,33.32,16,470,45,57
"Porac, Pampanga, Philippines",15.06974,120.55007,PLDT,66372,72900,66.37,72.90,12,470,107,156
"Iba, Zambales, Philippines",15.39495,120.04341,Converge,101160,103348,101.16,103.35,6,468,65,83
"Barotac Viejo, Iloilo, Philippines",11.10187,122.87613,PLDT,33733,41619,33.73,41.62,11,467,56,74
"Bantayan, Cebu, Philippines",11.18041,123.7406,PLDT,87941,93827,87.94,93.83,7,466,67,87
"San Jose, Camarines Sur, Philippines",13.68724,123.53921,Converge,108459,93784,108.46,93.78,11,466,36,55
"Titay, Zamboanga Sibugay, Philippines",7.84847,122.57121,PLDT Home Fiber,94021,94373,94.02,94.37,11,465,63,81
"San Antonio, Quezon, Philippines",13.89506,121.29697,PLDT Home Fiber,82089,68240,82.09,68.24,4,464,64,92
"Catmon, Cebu, Philippines",10.65242,123.9973,Globe,119120,96739,119.12,96.74,8,463,132,202
"Cauayan City, Isabela, Philippines",16.91662,121.78792,Converge,101168,118962,101.17,118.96,9,463,105,163
"Guimba, Nueva Ecija, Philippines",15.65641,120.76767,Converge,155717,143995,155.72,144.00,4,462,91,120
"Malita, Davao Occidental, Philippines",6.41184,125.61321,PLDT Home Fiber,79242,83471,79.24,83.47,11,462,57,72
"Mabini, Batangas, Philippines",13.72355,120.9073,Converge,136175,155132,136.18,155.13,7,458,50,68
"Ilog, Negros Occidental, Philippines",9.8785,122.72943,PLDT,46209,44592,46.21,44.59,9,457,38,54
"Macabebe, Pampanga, Philippines",14.89732,120.6545,PLDT Home Fiber,160178,54479,160.18,54.48,9,457,63,92
"San Fernando, Cebu, Philippines",10.16316,123.70738,PLDT,58042,53779,58.04,53.78,14,456,93,150
"Alaminos, Laguna, Philippines",14.0454,121.25119,PLDT Home Fiber,134489,155029,134.49,155.03,8,455,99,144
"Labangan, Zamboanga del Sur, Philippines",7.85732,123.503,PLDT Home Fiber,92247,92542,92.25,92.54,10,454,111,154
"Malvar, Batangas, Philippines",14.04329,121.15875,PLDT,74756,180102,74.76,180.10,11,454,96,118
"New Washington, Aklan, Philippines",11.6466,122.39009,Converge,43942,27928,43.94,27.93,14,452,43,59
"Maitum, Sarangani, Philippines",6.12408,124.48636,PLDT,16587,13917,16.59,13.92,15,451,51,83
"San Carlos City, Pangasinan, Philippines",15.92589,120.34827,Globe,106105,98936,106.11,98.94,4,451,61,73
"Ibajay, Aklan, Philippines",11.75186,122.18596,Converge,67771,46591,67.77,46.59,17,448,80,153
"Sibulan, Negros Oriental, Philippines",9.35972,123.28476,Globe,118532,122687,118.53,122.69,10,447,103,140
"Toboso, Negros Occidental, Philippines",10.71769,123.46077,PLDT,57702,65674,57.70,65.67,9,446,154,223
"Dagupan City, Pangasinan, Philippines",16.03375,120.33202,Globe,114919,107360,114.92,107.36,5,445,72,94
"Hilongos, Leyte, Philippines",10.39469,124.84034,PLDT Home Fiber,63894,75621,63.89,75.62,10,445,48,60
"Balasan, Iloilo, Philippines",11.45927,123.09015,PLDT,31115,32852,31.12,32.85,12,444,34,40
"Teresa, Rizal, Philippines",14.5597,121.20593,PLDT Home Fiber,93307,94722,93.31,94.72,4,442,135,205
"Don Carlos, Bukidnon, Philippines",7.67895,124.99652,PLDT Home Fiber,94481,94511,94.48,94.51,7,441,153,212
"Digos, Davao del Sur, Philippines",6.74347,125.35515,Converge,98038,100257,98.04,100.26,4,441,132,177
"Tagoloan Ii, Lanao del Sur, Philippines",8.09908,124.44201,PLDT Home Fiber,83057,88700,83.06,88.70,5,440,96,162
"Echague, Isabela, Philippines",16.66606,121.78792,PLDT Home Fiber,88887,93432,88.89,93.43,14,440,84,115
"Jala-jala, Rizal, Philippines",14.36149,121.34273,PLDT Home Fiber,92816,94042,92.82,94.04,6,438,79,115
"Santa Ana, Pampanga, Philippines",15.09442,120.76623,Globe,144528,143648,144.53,143.65,5,437,158,227
"Tabaco City, Albay, Philippines",13.36138,123.72876,Globe,97142,102050,97.14,102.05,24,437,55,72
"Cordova, Cebu, Philippines",10.25278,123.9494,Globe,133964,157999,133.96,158.00,5,436,82,105
"Paniqui, Tarlac, Philippines",15.66603,120.53942,Converge,89647,93854,89.65,93.85,5,435,134,181
"Calaca, Batangas, Philippines",13.93129,120.80724,PLDT Home Fiber,42853,36438,42.85,36.44,8,435,66,95
